%time,field.linear.x,field.linear.y,field.linear.z,field.angular.x,field.angular.y,field.angular.z
1494449915699469961,0.0,0.0,0.0,0.0,0.0,-0.33
1494449915699501547,0.0,0.0,0.0,0.0,0.0,-0.33
1494449915700834072,0.0,0.0,0.0,0.0,0.0,-0.33
1494449915775538162,0.0,0.0,0.0,0.0,0.0,-0.33
1494449915875889412,0.0,0.0,0.0,0.0,0.0,-0.33
1494449915976157316,0.0,0.0,0.0,0.0,0.0,-0.33
1494449916075402256,0.0,0.0,0.0,0.0,0.0,-0.66
1494449916175294681,0.0,0.0,0.0,0.0,0.0,-0.66
1494449916275322945,0.0,0.0,0.0,0.0,0.0,-0.66
1494449916375164052,0.0,0.0,0.0,0.0,0.0,-0.99
1494449916475235205,0.0,0.0,0.0,0.0,0.0,-0.99
1494449916575270650,0.0,0.0,0.0,0.0,0.0,-0.99
1494449916675458998,0.0,0.0,0.0,0.0,0.0,-0.99
1494449916775004063,0.0,0.0,0.0,0.0,0.0,-1.32
1494449916875406681,0.0,0.0,0.0,0.0,0.0,-1.32
1494449916975638480,0.0,0.0,0.0,0.0,0.0,-1.32
1494449917074918876,0.0,0.0,0.0,0.0,0.0,-1.32
1494449917175255240,0.0,0.0,0.0,0.0,0.0,-1.32
1494449917274817907,0.0,0.0,0.0,0.0,0.0,-1.32
1494449917374985320,0.0,0.0,0.0,0.0,0.0,-0.99
1494449917475574970,0.0,0.0,0.0,0.0,0.0,-0.99
1494449917575375523,0.0,0.0,0.0,0.0,0.0,-0.99
1494449917675156631,0.0,0.0,0.0,0.0,0.0,-0.99
1494449917777885063,0.0,0.0,0.0,0.0,0.0,-0.99
1494449917879346884,0.0,0.0,0.0,0.0,0.0,-0.99
1494449917979553830,0.0,0.0,0.0,0.0,0.0,-0.66
1494449918076232772,0.0,0.0,0.0,0.0,0.0,-0.66
1494449918175003136,0.0,0.0,0.0,0.0,0.0,-0.66
1494449918275303826,0.0,0.0,0.0,0.0,0.0,-0.33
1494449918376436855,0.0,0.0,0.0,0.0,0.0,-0.33
1494449918478754967,0.0,0.0,0.0,0.0,0.0,-0.33
1494449918574837441,0.0,0.0,0.0,0.0,0.0,-0.33
1494449918674800261,0.0,0.0,0.0,0.0,0.0,-0.33
1494449918774963741,0.0,0.0,0.0,0.0,0.0,1.11022302463e-16
1494449918875132113,0.0,0.0,0.0,0.0,0.0,1.11022302463e-16
1494449918974913367,0.0,0.0,0.0,0.0,0.0,1.11022302463e-16
1494449919074688903,0.0,0.0,0.0,0.0,0.0,1.11022302463e-16
1494449919175339863,0.0,0.0,0.0,0.0,0.0,1.11022302463e-16
1494449919274782935,0.05,0.0,0.0,0.0,0.0,1.11022302463e-16
1494449919375313860,0.05,0.0,0.0,0.0,0.0,1.11022302463e-16
1494449919475994017,0.05,0.0,0.0,0.0,0.0,1.11022302463e-16
1494449919574998563,0.05,0.0,0.0,0.0,0.0,1.11022302463e-16
1494449919675662470,0.05,0.0,0.0,0.0,0.0,1.11022302463e-16
1494449919774977722,0.05,0.0,0.0,0.0,0.0,1.11022302463e-16
1494449919893317086,0.05,0.0,0.0,0.0,0.0,1.11022302463e-16
1494449920189552794,0.1,0.0,0.0,0.0,0.0,1.11022302463e-16
1494449920189565830,0.1,0.0,0.0,0.0,0.0,1.11022302463e-16
1494449920189576610,0.15,0.0,0.0,0.0,0.0,1.11022302463e-16
1494449920275052396,0.2,0.0,0.0,0.0,0.0,1.11022302463e-16
1494449920374872535,0.2,0.0,0.0,0.0,0.0,1.11022302463e-16
1494449920475201124,0.25,0.0,0.0,0.0,0.0,1.11022302463e-16
1494449920574763774,0.25,0.0,0.0,0.0,0.0,1.11022302463e-16
1494449920675524347,0.3,0.0,0.0,0.0,0.0,1.11022302463e-16
1494449920778474915,0.35,0.0,0.0,0.0,0.0,1.11022302463e-16
1494449920874690203,0.35,0.0,0.0,0.0,0.0,1.11022302463e-16
1494449920974918051,0.4,0.0,0.0,0.0,0.0,1.11022302463e-16
1494449921075176787,0.4,0.0,0.0,0.0,0.0,1.11022302463e-16
1494449921175042290,0.4,0.0,0.0,0.0,0.0,1.11022302463e-16
1494449921274681217,0.4,0.0,0.0,0.0,0.0,1.11022302463e-16
1494449921375144002,0.4,0.0,0.0,0.0,0.0,1.11022302463e-16
1494449921474772850,0.4,0.0,0.0,0.0,0.0,1.11022302463e-16
1494449921575475178,0.4,0.0,0.0,0.0,0.0,1.11022302463e-16
1494449921674661030,0.4,0.0,0.0,0.0,0.0,1.11022302463e-16
1494449921774770836,0.4,0.0,0.0,0.0,0.0,1.11022302463e-16
1494449921874704562,0.4,0.0,0.0,0.0,0.0,1.11022302463e-16
1494449921975763626,0.4,0.0,0.0,0.0,0.0,1.11022302463e-16
1494449922076510195,0.4,0.0,0.0,0.0,0.0,1.11022302463e-16
1494449922179852633,0.4,0.0,0.0,0.0,0.0,1.11022302463e-16
1494449922276726238,0.4,0.0,0.0,0.0,0.0,1.11022302463e-16
1494449922374633516,0.4,0.0,0.0,0.0,0.0,1.11022302463e-16
1494449922474754581,0.4,0.0,0.0,0.0,0.0,1.11022302463e-16
1494449922576815039,0.4,0.0,0.0,0.0,0.0,1.11022302463e-16
1494449922675123952,0.4,0.0,0.0,0.0,0.0,1.11022302463e-16
1494449922774624341,0.4,0.0,0.0,0.0,0.0,1.11022302463e-16
1494449922875572638,0.4,0.0,0.0,0.0,0.0,1.11022302463e-16
1494449922975179289,0.4,0.0,0.0,0.0,0.0,1.11022302463e-16
1494449923075218283,0.4,0.0,0.0,0.0,0.0,1.11022302463e-16
1494449923175060597,0.4,0.0,0.0,0.0,0.0,1.11022302463e-16
1494449923275579825,0.4,0.0,0.0,0.0,0.0,1.11022302463e-16
1494449923375545309,0.4,0.0,0.0,0.0,0.0,1.11022302463e-16
1494449923475711389,0.4,0.0,0.0,0.0,0.0,1.11022302463e-16
1494449923784918800,0.4,0.0,0.0,0.0,0.0,1.11022302463e-16
1494449923784939595,0.4,0.0,0.0,0.0,0.0,1.11022302463e-16
1494449923784974254,0.4,0.0,0.0,0.0,0.0,1.11022302463e-16
1494449923875213688,0.4,0.0,0.0,0.0,0.0,1.11022302463e-16
1494449923975165176,0.4,0.0,0.0,0.0,0.0,1.11022302463e-16
1494449924075462658,0.4,0.0,0.0,0.0,0.0,1.11022302463e-16
1494449924174761659,0.4,0.0,0.0,0.0,0.0,1.11022302463e-16
1494449924275406037,0.4,0.0,0.0,0.0,0.0,1.11022302463e-16
1494449924374793459,0.4,0.0,0.0,0.0,0.0,1.11022302463e-16
1494449924475850253,0.4,0.0,0.0,0.0,0.0,1.11022302463e-16
1494449924574753280,0.4,0.0,0.0,0.0,0.0,1.11022302463e-16
1494449924675446850,0.4,0.0,0.0,0.0,0.0,1.11022302463e-16
1494449924774845755,0.4,0.0,0.0,0.0,0.0,1.11022302463e-16
1494449924875553295,0.4,0.0,0.0,0.0,0.0,1.11022302463e-16
1494449924977305039,0.4,0.0,0.0,0.0,0.0,1.11022302463e-16
1494449925075530301,0.4,0.0,0.0,0.0,0.0,1.11022302463e-16
1494449925175179922,0.35,0.0,0.0,0.0,0.0,1.11022302463e-16
1494449925274845503,0.35,0.0,0.0,0.0,0.0,1.11022302463e-16
1494449925375990588,0.3,0.0,0.0,0.0,0.0,1.11022302463e-16
1494449925475667047,0.25,0.0,0.0,0.0,0.0,1.11022302463e-16
1494449925575430900,0.25,0.0,0.0,0.0,0.0,1.11022302463e-16
1494449925674961891,0.2,0.0,0.0,0.0,0.0,1.11022302463e-16
1494449925775463107,0.2,0.0,0.0,0.0,0.0,1.11022302463e-16
1494449925876060965,0.2,0.0,0.0,0.0,0.0,1.11022302463e-16
1494449925975615986,0.2,0.0,0.0,0.0,0.0,1.11022302463e-16
1494449926075362928,0.2,0.0,0.0,0.0,0.0,1.11022302463e-16
1494449926175659754,0.2,0.0,0.0,0.0,0.0,1.11022302463e-16
1494449926275466569,0.15,0.0,0.0,0.0,0.0,1.11022302463e-16
1494449926378114426,0.15,0.0,0.0,0.0,0.0,1.11022302463e-16
1494449926480822501,0.15,0.0,0.0,0.0,0.0,1.11022302463e-16
1494449926575641781,0.15,0.0,0.0,0.0,0.0,1.11022302463e-16
1494449926698881062,0.15,0.0,0.0,0.0,0.0,1.11022302463e-16
1494449926775428233,0.1,0.0,0.0,0.0,0.0,1.11022302463e-16
1494449926877134029,0.1,0.0,0.0,0.0,0.0,1.11022302463e-16
1494449926974798199,0.1,0.0,0.0,0.0,0.0,1.11022302463e-16
1494449927075633447,0.1,0.0,0.0,0.0,0.0,1.11022302463e-16
1494449927174739090,0.1,0.0,0.0,0.0,0.0,1.11022302463e-16
1494449927276102349,0.05,0.0,0.0,0.0,0.0,1.11022302463e-16
1494449927374929139,0.05,0.0,0.0,0.0,0.0,1.11022302463e-16
1494449927475152204,0.05,0.0,0.0,0.0,0.0,1.11022302463e-16
1494449927574636791,0.05,0.0,0.0,0.0,0.0,1.11022302463e-16
1494449927675201817,0.05,0.0,0.0,0.0,0.0,1.11022302463e-16
1494449927775712618,0.05,0.0,0.0,0.0,0.0,1.11022302463e-16
1494449927875655934,1.38777878078e-17,0.0,0.0,0.0,0.0,1.11022302463e-16
1494449927975342909,1.38777878078e-17,0.0,0.0,0.0,0.0,1.11022302463e-16
1494449928075359263,1.38777878078e-17,0.0,0.0,0.0,0.0,1.11022302463e-16
1494449928175206462,1.38777878078e-17,0.0,0.0,0.0,0.0,1.11022302463e-16
1494449928275039357,1.38777878078e-17,0.0,0.0,0.0,0.0,1.11022302463e-16
1494449928375049086,1.38777878078e-17,0.0,0.0,0.0,0.0,1.11022302463e-16
1494449928475202987,1.38777878078e-17,0.0,0.0,0.0,0.0,-0.33
1494449928576093815,1.38777878078e-17,0.0,0.0,0.0,0.0,-0.33
1494449928675787889,1.38777878078e-17,0.0,0.0,0.0,0.0,-0.33
1494449928776889448,1.38777878078e-17,0.0,0.0,0.0,0.0,-0.33
1494449928875441622,1.38777878078e-17,0.0,0.0,0.0,0.0,-0.33
1494449928975607490,1.38777878078e-17,0.0,0.0,0.0,0.0,-0.33
1494449929075199385,1.38777878078e-17,0.0,0.0,0.0,0.0,-0.33
1494449929174975182,1.38777878078e-17,0.0,0.0,0.0,0.0,-0.33
1494449929274963899,1.38777878078e-17,0.0,0.0,0.0,0.0,-0.33
1494449929375558563,1.38777878078e-17,0.0,0.0,0.0,0.0,-0.66
1494449929475698960,1.38777878078e-17,0.0,0.0,0.0,0.0,-0.66
1494449929587978370,1.38777878078e-17,0.0,0.0,0.0,0.0,-0.99
1494449929675711786,1.38777878078e-17,0.0,0.0,0.0,0.0,-0.99
1494449929774795888,1.38777878078e-17,0.0,0.0,0.0,0.0,-0.99
1494449929875156762,1.38777878078e-17,0.0,0.0,0.0,0.0,-0.99
1494449929975075353,1.38777878078e-17,0.0,0.0,0.0,0.0,-0.99
1494449930075928267,1.38777878078e-17,0.0,0.0,0.0,0.0,-0.99
1494449930175384751,1.38777878078e-17,0.0,0.0,0.0,0.0,-0.99
1494449930274876074,1.38777878078e-17,0.0,0.0,0.0,0.0,-0.99
1494449930374858303,1.38777878078e-17,0.0,0.0,0.0,0.0,-0.99
1494449930475765898,1.38777878078e-17,0.0,0.0,0.0,0.0,-0.99
1494449930576940034,1.38777878078e-17,0.0,0.0,0.0,0.0,-0.99
1494449930677228454,1.38777878078e-17,0.0,0.0,0.0,0.0,-0.66
1494449930774731353,1.38777878078e-17,0.0,0.0,0.0,0.0,-0.66
1494449930876031710,1.38777878078e-17,0.0,0.0,0.0,0.0,-0.33
1494449930975010983,1.38777878078e-17,0.0,0.0,0.0,0.0,-0.33
1494449931074964458,1.38777878078e-17,0.0,0.0,0.0,0.0,-0.33
1494449931176746225,1.38777878078e-17,0.0,0.0,0.0,0.0,-0.33
1494449931274957476,1.38777878078e-17,0.0,0.0,0.0,0.0,-0.33
1494449931375279317,1.38777878078e-17,0.0,0.0,0.0,0.0,-0.33
1494449931474910236,1.38777878078e-17,0.0,0.0,0.0,0.0,-0.33
1494449931574926825,1.38777878078e-17,0.0,0.0,0.0,0.0,-0.33
1494449931675147695,1.38777878078e-17,0.0,0.0,0.0,0.0,-0.33
1494449931775138130,1.38777878078e-17,0.0,0.0,0.0,0.0,-0.33
1494449931882142103,1.38777878078e-17,0.0,0.0,0.0,0.0,-0.33
1494449931975332009,1.38777878078e-17,0.0,0.0,0.0,0.0,-0.66
1494449932081969799,1.38777878078e-17,0.0,0.0,0.0,0.0,-0.66
1494449932175343185,1.38777878078e-17,0.0,0.0,0.0,0.0,-0.66
1494449932275318424,1.38777878078e-17,0.0,0.0,0.0,0.0,-0.66
1494449932381691685,1.38777878078e-17,0.0,0.0,0.0,0.0,-0.33
1494449932475113971,1.38777878078e-17,0.0,0.0,0.0,0.0,-0.33
1494449932575150242,1.38777878078e-17,0.0,0.0,0.0,0.0,-0.33
1494449932675047898,1.38777878078e-17,0.0,0.0,0.0,0.0,-0.33
1494449932774744100,1.38777878078e-17,0.0,0.0,0.0,0.0,-0.33
1494449932874782411,1.38777878078e-17,0.0,0.0,0.0,0.0,-0.33
1494449932975453455,1.38777878078e-17,0.0,0.0,0.0,0.0,1.11022302463e-16
1494449933074757016,1.38777878078e-17,0.0,0.0,0.0,0.0,1.11022302463e-16
1494449933179991982,1.38777878078e-17,0.0,0.0,0.0,0.0,0.33
1494449933275168406,1.38777878078e-17,0.0,0.0,0.0,0.0,0.33
1494449933375194678,1.38777878078e-17,0.0,0.0,0.0,0.0,0.33
1494449933475278850,1.38777878078e-17,0.0,0.0,0.0,0.0,0.33
1494449933574817595,1.38777878078e-17,0.0,0.0,0.0,0.0,0.33
1494449933674898772,1.38777878078e-17,0.0,0.0,0.0,0.0,0.33
1494449933775260608,1.38777878078e-17,0.0,0.0,0.0,0.0,1.11022302463e-16
1494449933874858510,1.38777878078e-17,0.0,0.0,0.0,0.0,1.11022302463e-16
1494449933975187058,1.38777878078e-17,0.0,0.0,0.0,0.0,1.11022302463e-16
1494449934074706435,1.38777878078e-17,0.0,0.0,0.0,0.0,1.11022302463e-16
1494449934174649088,1.38777878078e-17,0.0,0.0,0.0,0.0,1.11022302463e-16
1494449934275180195,1.38777878078e-17,0.0,0.0,0.0,0.0,1.11022302463e-16
1494449934374888325,1.38777878078e-17,0.0,0.0,0.0,0.0,1.11022302463e-16
1494449934475312671,1.38777878078e-17,0.0,0.0,0.0,0.0,1.11022302463e-16
1494449934575385209,0.05,0.0,0.0,0.0,0.0,1.11022302463e-16
1494449934674830202,0.05,0.0,0.0,0.0,0.0,1.11022302463e-16
1494449934775163081,0.1,0.0,0.0,0.0,0.0,1.11022302463e-16
1494449934875614192,0.1,0.0,0.0,0.0,0.0,1.11022302463e-16
1494449934978534290,0.15,0.0,0.0,0.0,0.0,1.11022302463e-16
1494449935074954158,0.2,0.0,0.0,0.0,0.0,1.11022302463e-16
1494449935176917690,0.2,0.0,0.0,0.0,0.0,1.11022302463e-16
1494449935274920674,0.25,0.0,0.0,0.0,0.0,1.11022302463e-16
1494449935375833727,0.25,0.0,0.0,0.0,0.0,1.11022302463e-16
1494449935474886395,0.3,0.0,0.0,0.0,0.0,1.11022302463e-16
1494449935575144289,0.3,0.0,0.0,0.0,0.0,1.11022302463e-16
1494449935685362545,0.3,0.0,0.0,0.0,0.0,1.11022302463e-16
1494449935774999382,0.3,0.0,0.0,0.0,0.0,1.11022302463e-16
1494449935879858734,0.3,0.0,0.0,0.0,0.0,1.11022302463e-16
1494449936077153849,0.3,0.0,0.0,0.0,0.0,1.11022302463e-16
1494449936217593417,0.3,0.0,0.0,0.0,0.0,1.11022302463e-16
1494449936217619339,0.3,0.0,0.0,0.0,0.0,1.11022302463e-16
1494449936299480826,0.3,0.0,0.0,0.0,0.0,1.11022302463e-16
1494449936455948291,0.3,0.0,0.0,0.0,0.0,1.11022302463e-16
1494449936475701136,0.3,0.0,0.0,0.0,0.0,1.11022302463e-16
1494449936644104020,0.3,0.0,0.0,0.0,0.0,1.11022302463e-16
1494449936674920770,0.3,0.0,0.0,0.0,0.0,-0.33
1494449936775769370,0.3,0.0,0.0,0.0,0.0,-0.33
1494449936874843555,0.3,0.0,0.0,0.0,0.0,-0.33
1494449936974785552,0.3,0.0,0.0,0.0,0.0,-0.33
1494449937074807785,0.3,0.0,0.0,0.0,0.0,-0.33
1494449937174792141,0.3,0.0,0.0,0.0,0.0,-0.33
1494449937275176975,0.3,0.0,0.0,0.0,0.0,-0.33
1494449937374773302,0.3,0.0,0.0,0.0,0.0,1.11022302463e-16
1494449937474920890,0.3,0.0,0.0,0.0,0.0,1.11022302463e-16
1494449937575821607,0.3,0.0,0.0,0.0,0.0,1.11022302463e-16
1494449937674856414,0.3,0.0,0.0,0.0,0.0,1.11022302463e-16
1494449937774517823,0.3,0.0,0.0,0.0,0.0,1.11022302463e-16
1494449937874563936,0.3,0.0,0.0,0.0,0.0,1.11022302463e-16
1494449937974977024,0.3,0.0,0.0,0.0,0.0,1.11022302463e-16
1494449938074977058,0.35,0.0,0.0,0.0,0.0,1.11022302463e-16
1494449938175684662,0.35,0.0,0.0,0.0,0.0,1.11022302463e-16
1494449938275434777,0.4,0.0,0.0,0.0,0.0,1.11022302463e-16
1494449938374503584,0.4,0.0,0.0,0.0,0.0,1.11022302463e-16
1494449938475616632,0.45,0.0,0.0,0.0,0.0,1.11022302463e-16
1494449938575158066,0.45,0.0,0.0,0.0,0.0,1.11022302463e-16
1494449938675581806,0.5,0.0,0.0,0.0,0.0,1.11022302463e-16
1494449938774759110,0.55,0.0,0.0,0.0,0.0,1.11022302463e-16
1494449938876084675,0.55,0.0,0.0,0.0,0.0,1.11022302463e-16
1494449938975166700,0.55,0.0,0.0,0.0,0.0,1.11022302463e-16
1494449939075561239,0.55,0.0,0.0,0.0,0.0,1.11022302463e-16
1494449939176552072,0.55,0.0,0.0,0.0,0.0,1.11022302463e-16
1494449939281062531,0.55,0.0,0.0,0.0,0.0,1.11022302463e-16
1494449939376042947,0.55,0.0,0.0,0.0,0.0,1.11022302463e-16
1494449939477798615,0.55,0.0,0.0,0.0,0.0,1.11022302463e-16
1494449939575533362,0.55,0.0,0.0,0.0,0.0,1.11022302463e-16
1494449939675192705,0.55,0.0,0.0,0.0,0.0,1.11022302463e-16
1494449939774873214,0.55,0.0,0.0,0.0,0.0,1.11022302463e-16
1494449939875154031,0.55,0.0,0.0,0.0,0.0,1.11022302463e-16
1494449939974752417,0.55,0.0,0.0,0.0,0.0,1.11022302463e-16
1494449940076149320,0.55,0.0,0.0,0.0,0.0,1.11022302463e-16
1494449940175289552,0.55,0.0,0.0,0.0,0.0,1.11022302463e-16
1494449940291819688,0.5,0.0,0.0,0.0,0.0,1.11022302463e-16
1494449940374967864,0.5,0.0,0.0,0.0,0.0,1.11022302463e-16
1494449940474752349,0.45,0.0,0.0,0.0,0.0,1.11022302463e-16
1494449940575625616,0.4,0.0,0.0,0.0,0.0,1.11022302463e-16
1494449940675537946,0.4,0.0,0.0,0.0,0.0,1.11022302463e-16
1494449940774590983,0.35,0.0,0.0,0.0,0.0,1.11022302463e-16
1494449940875316921,0.35,0.0,0.0,0.0,0.0,1.11022302463e-16
1494449940974516964,0.35,0.0,0.0,0.0,0.0,1.11022302463e-16
1494449941074766639,0.3,0.0,0.0,0.0,0.0,1.11022302463e-16
1494449941174623742,0.3,0.0,0.0,0.0,0.0,1.11022302463e-16
1494449941274506610,0.25,0.0,0.0,0.0,0.0,1.11022302463e-16
1494449941375170845,0.25,0.0,0.0,0.0,0.0,1.11022302463e-16
1494449941475026692,0.2,0.0,0.0,0.0,0.0,1.11022302463e-16
1494449941574506731,0.2,0.0,0.0,0.0,0.0,1.11022302463e-16
1494449941674723298,0.2,0.0,0.0,0.0,0.0,1.11022302463e-16
1494449941774941399,0.15,0.0,0.0,0.0,0.0,1.11022302463e-16
1494449941875284422,0.15,0.0,0.0,0.0,0.0,1.11022302463e-16
1494449941974972582,0.15,0.0,0.0,0.0,0.0,1.11022302463e-16
1494449942074685839,0.15,0.0,0.0,0.0,0.0,1.11022302463e-16
1494449942174507093,0.1,0.0,0.0,0.0,0.0,1.11022302463e-16
1494449942275158118,0.1,0.0,0.0,0.0,0.0,1.11022302463e-16
1494449942374443733,0.1,0.0,0.0,0.0,0.0,1.11022302463e-16
1494449942474837032,0.1,0.0,0.0,0.0,0.0,1.11022302463e-16
1494449942574921765,0.1,0.0,0.0,0.0,0.0,1.11022302463e-16
1494449942675262945,0.1,0.0,0.0,0.0,0.0,1.11022302463e-16
1494449942774834841,0.1,0.0,0.0,0.0,0.0,1.11022302463e-16
1494449942874830265,0.1,0.0,0.0,0.0,0.0,1.11022302463e-16
1494449943185073504,0.05,0.0,0.0,0.0,0.0,1.11022302463e-16
1494449943185094668,0.05,0.0,0.0,0.0,0.0,1.11022302463e-16
1494449943185101517,0.05,0.0,0.0,0.0,0.0,1.11022302463e-16
1494449943275727869,0.05,0.0,0.0,0.0,0.0,1.11022302463e-16
1494449943375880992,0.05,0.0,0.0,0.0,0.0,1.11022302463e-16
1494449943479552883,1.38777878078e-17,0.0,0.0,0.0,0.0,1.11022302463e-16
1494449943580828897,1.38777878078e-17,0.0,0.0,0.0,0.0,1.11022302463e-16
1494449943676746369,1.38777878078e-17,0.0,0.0,0.0,0.0,1.11022302463e-16
1494449943775042386,1.38777878078e-17,0.0,0.0,0.0,0.0,1.11022302463e-16
1494449943876123100,1.38777878078e-17,0.0,0.0,0.0,0.0,1.11022302463e-16
1494449943974816295,1.38777878078e-17,0.0,0.0,0.0,0.0,1.11022302463e-16
1494449944074565815,1.38777878078e-17,0.0,0.0,0.0,0.0,-0.33
1494449944174498677,1.38777878078e-17,0.0,0.0,0.0,0.0,-0.33
1494449944274553017,1.38777878078e-17,0.0,0.0,0.0,0.0,-0.33
1494449944374700715,1.38777878078e-17,0.0,0.0,0.0,0.0,-0.33
1494449944474800619,1.38777878078e-17,0.0,0.0,0.0,0.0,-0.66
1494449944577985511,1.38777878078e-17,0.0,0.0,0.0,0.0,-0.66
1494449944674633281,1.38777878078e-17,0.0,0.0,0.0,0.0,-0.66
1494449944777621076,1.38777878078e-17,0.0,0.0,0.0,0.0,-0.66
1494449944874626143,1.38777878078e-17,0.0,0.0,0.0,0.0,-0.66
1494449944975214077,1.38777878078e-17,0.0,0.0,0.0,0.0,-0.66
1494449945076083444,1.38777878078e-17,0.0,0.0,0.0,0.0,-0.66
1494449945174997622,1.38777878078e-17,0.0,0.0,0.0,0.0,-0.66
1494449945275600113,1.38777878078e-17,0.0,0.0,0.0,0.0,-0.66
1494449945377174451,1.38777878078e-17,0.0,0.0,0.0,0.0,-0.99
1494449945475024246,1.38777878078e-17,0.0,0.0,0.0,0.0,-0.99
1494449945575811291,1.38777878078e-17,0.0,0.0,0.0,0.0,-0.99
1494449945675548627,1.38777878078e-17,0.0,0.0,0.0,0.0,-0.99
1494449945774480250,1.38777878078e-17,0.0,0.0,0.0,0.0,-0.99
1494449945874866834,1.38777878078e-17,0.0,0.0,0.0,0.0,-0.99
1494449945975271960,1.38777878078e-17,0.0,0.0,0.0,0.0,-0.99
1494449946075193488,1.38777878078e-17,0.0,0.0,0.0,0.0,-0.99
1494449946174953573,1.38777878078e-17,0.0,0.0,0.0,0.0,-0.99
1494449946275342926,1.38777878078e-17,0.0,0.0,0.0,0.0,-0.99
1494449946375094612,1.38777878078e-17,0.0,0.0,0.0,0.0,-0.99
1494449946474316267,1.38777878078e-17,0.0,0.0,0.0,0.0,-0.99
1494449946574890789,1.38777878078e-17,0.0,0.0,0.0,0.0,-0.99
1494449946675174810,1.38777878078e-17,0.0,0.0,0.0,0.0,-0.99
1494449946775281606,1.38777878078e-17,0.0,0.0,0.0,0.0,-0.66
1494449946874842747,1.38777878078e-17,0.0,0.0,0.0,0.0,-0.66
1494449946974606001,1.38777878078e-17,0.0,0.0,0.0,0.0,-0.66
1494449947075284818,1.38777878078e-17,0.0,0.0,0.0,0.0,-0.66
1494449947175010146,1.38777878078e-17,0.0,0.0,0.0,0.0,-0.66
1494449947274918204,1.38777878078e-17,0.0,0.0,0.0,0.0,-0.33
1494449947375343429,1.38777878078e-17,0.0,0.0,0.0,0.0,-0.33
1494449947477185093,1.38777878078e-17,0.0,0.0,0.0,0.0,1.11022302463e-16
1494449947574911668,1.38777878078e-17,0.0,0.0,0.0,0.0,1.11022302463e-16
1494449947675686830,1.38777878078e-17,0.0,0.0,0.0,0.0,1.11022302463e-16
1494449947779400726,1.38777878078e-17,0.0,0.0,0.0,0.0,1.11022302463e-16
1494449947874494361,1.38777878078e-17,0.0,0.0,0.0,0.0,1.11022302463e-16
1494449947976936567,1.38777878078e-17,0.0,0.0,0.0,0.0,1.11022302463e-16
1494449948074724083,0.05,0.0,0.0,0.0,0.0,1.11022302463e-16
1494449948176274350,0.05,0.0,0.0,0.0,0.0,1.11022302463e-16
1494449948274658227,0.1,0.0,0.0,0.0,0.0,1.11022302463e-16
1494449948374928200,0.15,0.0,0.0,0.0,0.0,1.11022302463e-16
1494449948475617689,0.15,0.0,0.0,0.0,0.0,1.11022302463e-16
1494449948575366820,0.2,0.0,0.0,0.0,0.0,1.11022302463e-16
1494449948674865283,0.25,0.0,0.0,0.0,0.0,1.11022302463e-16
1494449948774980454,0.25,0.0,0.0,0.0,0.0,1.11022302463e-16
1494449948874809057,0.3,0.0,0.0,0.0,0.0,1.11022302463e-16
1494449948974654242,0.3,0.0,0.0,0.0,0.0,1.11022302463e-16
1494449949074899994,0.3,0.0,0.0,0.0,0.0,1.11022302463e-16
1494449949174813842,0.3,0.0,0.0,0.0,0.0,1.11022302463e-16
1494449949275042492,0.3,0.0,0.0,0.0,0.0,1.11022302463e-16
1494449949375324210,0.3,0.0,0.0,0.0,0.0,1.11022302463e-16
1494449949474980976,0.3,0.0,0.0,0.0,0.0,1.11022302463e-16
1494449949574756176,0.3,0.0,0.0,0.0,0.0,1.11022302463e-16
1494449949674601839,0.3,0.0,0.0,0.0,0.0,1.11022302463e-16
1494449949775475947,0.3,0.0,0.0,0.0,0.0,1.11022302463e-16
1494449949875037483,0.3,0.0,0.0,0.0,0.0,1.11022302463e-16
1494449949975158464,0.3,0.0,0.0,0.0,0.0,1.11022302463e-16
1494449950074628005,0.3,0.0,0.0,0.0,0.0,1.11022302463e-16
1494449950174783076,0.3,0.0,0.0,0.0,0.0,1.11022302463e-16
1494449950275185131,0.3,0.0,0.0,0.0,0.0,1.11022302463e-16
1494449950374810810,0.3,0.0,0.0,0.0,0.0,1.11022302463e-16
1494449950474806506,0.3,0.0,0.0,0.0,0.0,1.11022302463e-16
1494449950575595336,0.3,0.0,0.0,0.0,0.0,1.11022302463e-16
1494449950675413696,0.3,0.0,0.0,0.0,0.0,1.11022302463e-16
1494449950775158633,0.3,0.0,0.0,0.0,0.0,1.11022302463e-16
1494449950874808044,0.3,0.0,0.0,0.0,0.0,1.11022302463e-16
1494449950974641126,0.3,0.0,0.0,0.0,0.0,1.11022302463e-16
1494449951075269336,0.3,0.0,0.0,0.0,0.0,1.11022302463e-16
1494449951174934455,0.3,0.0,0.0,0.0,0.0,1.11022302463e-16
1494449951484617137,0.3,0.0,0.0,0.0,0.0,1.11022302463e-16
1494449951484633640,0.3,0.0,0.0,0.0,0.0,1.11022302463e-16
1494449951484641124,0.3,0.0,0.0,0.0,0.0,1.11022302463e-16
1494449951575476478,0.3,0.0,0.0,0.0,0.0,1.11022302463e-16
1494449951674619699,0.3,0.0,0.0,0.0,0.0,1.11022302463e-16
1494449951774732844,0.3,0.0,0.0,0.0,0.0,1.11022302463e-16
1494449951876577584,0.3,0.0,0.0,0.0,0.0,1.11022302463e-16
1494449951978052447,0.3,0.0,0.0,0.0,0.0,1.11022302463e-16
1494449952078942257,0.3,0.0,0.0,0.0,0.0,1.11022302463e-16
1494449952175393347,0.3,0.0,0.0,0.0,0.0,1.11022302463e-16
1494449952274856219,0.3,0.0,0.0,0.0,0.0,1.11022302463e-16
1494449952374592911,0.3,0.0,0.0,0.0,0.0,1.11022302463e-16
1494449952474877905,0.3,0.0,0.0,0.0,0.0,1.11022302463e-16
1494449952575803816,0.3,0.0,0.0,0.0,0.0,1.11022302463e-16
1494449952675077907,0.3,0.0,0.0,0.0,0.0,1.11022302463e-16
1494449952775022828,0.3,0.0,0.0,0.0,0.0,1.11022302463e-16
1494449952875102529,0.3,0.0,0.0,0.0,0.0,1.11022302463e-16
1494449952974744758,0.3,0.0,0.0,0.0,0.0,1.11022302463e-16
1494449953074517913,0.3,0.0,0.0,0.0,0.0,1.11022302463e-16
1494449953174799327,0.3,0.0,0.0,0.0,0.0,1.11022302463e-16
1494449953276437611,0.3,0.0,0.0,0.0,0.0,1.11022302463e-16
1494449953375909893,0.3,0.0,0.0,0.0,0.0,1.11022302463e-16
1494449953475281401,0.3,0.0,0.0,0.0,0.0,1.11022302463e-16
1494449953574774608,0.3,0.0,0.0,0.0,0.0,1.11022302463e-16
1494449953674718652,0.3,0.0,0.0,0.0,0.0,1.11022302463e-16
1494449953774789361,0.3,0.0,0.0,0.0,0.0,1.11022302463e-16
1494449953874774551,0.3,0.0,0.0,0.0,0.0,1.11022302463e-16
1494449953974990136,0.3,0.0,0.0,0.0,0.0,1.11022302463e-16
1494449954074579866,0.3,0.0,0.0,0.0,0.0,1.11022302463e-16
1494449954174582288,0.3,0.0,0.0,0.0,0.0,1.11022302463e-16
1494449954274805808,0.3,0.0,0.0,0.0,0.0,1.11022302463e-16
1494449954374667952,0.3,0.0,0.0,0.0,0.0,1.11022302463e-16
1494449954474697753,0.3,0.0,0.0,0.0,0.0,1.11022302463e-16
1494449954574819146,0.3,0.0,0.0,0.0,0.0,1.11022302463e-16
1494449954677109154,0.3,0.0,0.0,0.0,0.0,1.11022302463e-16
1494449954775150566,0.3,0.0,0.0,0.0,0.0,1.11022302463e-16
1494449954874857712,0.3,0.0,0.0,0.0,0.0,1.11022302463e-16
1494449954977697130,0.3,0.0,0.0,0.0,0.0,1.11022302463e-16
1494449955074604371,0.3,0.0,0.0,0.0,0.0,1.11022302463e-16
1494449955174842068,0.3,0.0,0.0,0.0,0.0,1.11022302463e-16
1494449955275158979,0.3,0.0,0.0,0.0,0.0,1.11022302463e-16
1494449955377290045,0.3,0.0,0.0,0.0,0.0,1.11022302463e-16
1494449955474866732,0.3,0.0,0.0,0.0,0.0,1.11022302463e-16
1494449955574830593,0.3,0.0,0.0,0.0,0.0,1.11022302463e-16
1494449955675157959,0.3,0.0,0.0,0.0,0.0,1.11022302463e-16
1494449955774479354,0.3,0.0,0.0,0.0,0.0,1.11022302463e-16
1494449955874868800,0.3,0.0,0.0,0.0,0.0,1.11022302463e-16
1494449955974483004,0.3,0.0,0.0,0.0,0.0,1.11022302463e-16
1494449956075000850,0.25,0.0,0.0,0.0,0.0,1.11022302463e-16
1494449956176353971,0.25,0.0,0.0,0.0,0.0,1.11022302463e-16
1494449956278710747,0.2,0.0,0.0,0.0,0.0,1.11022302463e-16
1494449956375045481,0.15,0.0,0.0,0.0,0.0,1.11022302463e-16
1494449956476126887,0.15,0.0,0.0,0.0,0.0,1.11022302463e-16
1494449956574930088,0.1,0.0,0.0,0.0,0.0,1.11022302463e-16
1494449956675190120,0.1,0.0,0.0,0.0,0.0,1.11022302463e-16
1494449956774570578,0.1,0.0,0.0,0.0,0.0,1.11022302463e-16
1494449956874787696,0.05,0.0,0.0,0.0,0.0,1.11022302463e-16
1494449956974892278,0.05,0.0,0.0,0.0,0.0,1.11022302463e-16
1494449957074927024,0.05,0.0,0.0,0.0,0.0,1.11022302463e-16
1494449957174819417,1.38777878078e-17,0.0,0.0,0.0,0.0,1.11022302463e-16
1494449957274633578,1.38777878078e-17,0.0,0.0,0.0,0.0,1.11022302463e-16
1494449957374542728,1.38777878078e-17,0.0,0.0,0.0,0.0,1.11022302463e-16
1494449957474785968,1.38777878078e-17,0.0,0.0,0.0,0.0,1.11022302463e-16
1494449957575522180,1.38777878078e-17,0.0,0.0,0.0,0.0,1.11022302463e-16
1494449957674513289,1.38777878078e-17,0.0,0.0,0.0,0.0,-0.33
1494449957774584689,1.38777878078e-17,0.0,0.0,0.0,0.0,-0.33
1494449957874660076,1.38777878078e-17,0.0,0.0,0.0,0.0,-0.33
1494449957974656265,1.38777878078e-17,0.0,0.0,0.0,0.0,-0.33
1494449958074973116,1.38777878078e-17,0.0,0.0,0.0,0.0,-0.33
1494449958175249128,1.38777878078e-17,0.0,0.0,0.0,0.0,-0.33
1494449958274688106,1.38777878078e-17,0.0,0.0,0.0,0.0,-0.66
1494449958374379184,1.38777878078e-17,0.0,0.0,0.0,0.0,-0.99
1494449958474573757,1.38777878078e-17,0.0,0.0,0.0,0.0,-0.99
1494449958574738782,1.38777878078e-17,0.0,0.0,0.0,0.0,-1.32
1494449958674380103,1.38777878078e-17,0.0,0.0,0.0,0.0,-1.32
1494449958775864237,1.38777878078e-17,0.0,0.0,0.0,0.0,-1.32
1494449958875153596,1.38777878078e-17,0.0,0.0,0.0,0.0,-1.32
1494449958975367253,1.38777878078e-17,0.0,0.0,0.0,0.0,-1.32
1494449959284742899,1.38777878078e-17,0.0,0.0,0.0,0.0,-1.32
1494449959284776750,1.38777878078e-17,0.0,0.0,0.0,0.0,-1.32
1494449959284790582,1.38777878078e-17,0.0,0.0,0.0,0.0,-1.32
1494449959374512768,1.38777878078e-17,0.0,0.0,0.0,0.0,-1.32
1494449959475001793,1.38777878078e-17,0.0,0.0,0.0,0.0,-1.32
1494449959574540280,1.38777878078e-17,0.0,0.0,0.0,0.0,-1.32
1494449959674528281,1.38777878078e-17,0.0,0.0,0.0,0.0,-1.32
1494449959774498068,1.38777878078e-17,0.0,0.0,0.0,0.0,-1.32
1494449959888137048,1.38777878078e-17,0.0,0.0,0.0,0.0,-1.32
1494449959975107861,1.38777878078e-17,0.0,0.0,0.0,0.0,-0.99
1494449960074418642,1.38777878078e-17,0.0,0.0,0.0,0.0,-0.99
1494449960175003501,1.38777878078e-17,0.0,0.0,0.0,0.0,-0.66
1494449960274446730,1.38777878078e-17,0.0,0.0,0.0,0.0,-0.33
1494449960375030973,1.38777878078e-17,0.0,0.0,0.0,0.0,-0.33
1494449960477700722,1.38777878078e-17,0.0,0.0,0.0,0.0,-0.33
1494449960579893823,1.38777878078e-17,0.0,0.0,0.0,0.0,-0.33
1494449960674402881,1.38777878078e-17,0.0,0.0,0.0,0.0,-0.33
1494449960776786878,1.38777878078e-17,0.0,0.0,0.0,0.0,1.11022302463e-16
1494449960897510313,1.38777878078e-17,0.0,0.0,0.0,0.0,1.11022302463e-16
1494449960974790217,1.38777878078e-17,0.0,0.0,0.0,0.0,0.33
1494449961074361983,1.38777878078e-17,0.0,0.0,0.0,0.0,0.66
1494449961174723850,1.38777878078e-17,0.0,0.0,0.0,0.0,0.66
1494449961274492245,1.38777878078e-17,0.0,0.0,0.0,0.0,0.66
1494449961374653915,1.38777878078e-17,0.0,0.0,0.0,0.0,0.66
1494449961474377175,1.38777878078e-17,0.0,0.0,0.0,0.0,0.99
1494449961574939046,1.38777878078e-17,0.0,0.0,0.0,0.0,0.99
1494449961674516462,1.38777878078e-17,0.0,0.0,0.0,0.0,0.66
1494449961774575676,1.38777878078e-17,0.0,0.0,0.0,0.0,0.66
1494449961874603846,1.38777878078e-17,0.0,0.0,0.0,0.0,0.33
1494449961974877224,1.38777878078e-17,0.0,0.0,0.0,0.0,0.33
1494449962074709104,1.38777878078e-17,0.0,0.0,0.0,0.0,1.11022302463e-16
1494449962174421272,1.38777878078e-17,0.0,0.0,0.0,0.0,-0.33
1494449962274353109,1.38777878078e-17,0.0,0.0,0.0,0.0,-0.33
1494449962374553974,1.38777878078e-17,0.0,0.0,0.0,0.0,-0.33
1494449962474498536,1.38777878078e-17,0.0,0.0,0.0,0.0,-0.33
1494449962574693004,1.38777878078e-17,0.0,0.0,0.0,0.0,-0.66
1494449962677217484,1.38777878078e-17,0.0,0.0,0.0,0.0,-0.66
1494449962775178379,1.38777878078e-17,0.0,0.0,0.0,0.0,-0.66
1494449962874530861,1.38777878078e-17,0.0,0.0,0.0,0.0,-0.66
1494449962974558837,1.38777878078e-17,0.0,0.0,0.0,0.0,-0.33
1494449963074591955,1.38777878078e-17,0.0,0.0,0.0,0.0,-0.33
1494449963174260835,1.38777878078e-17,0.0,0.0,0.0,0.0,-0.33
1494449963274515519,1.38777878078e-17,0.0,0.0,0.0,0.0,-0.33
1494449963374397702,1.38777878078e-17,0.0,0.0,0.0,0.0,-0.33
1494449963474690556,1.38777878078e-17,0.0,0.0,0.0,0.0,1.11022302463e-16
1494449963574484335,1.38777878078e-17,0.0,0.0,0.0,0.0,1.11022302463e-16
1494449963674450309,1.38777878078e-17,0.0,0.0,0.0,0.0,1.11022302463e-16
1494449963774746047,1.38777878078e-17,0.0,0.0,0.0,0.0,1.11022302463e-16
1494449963875118347,1.38777878078e-17,0.0,0.0,0.0,0.0,1.11022302463e-16
1494449963974857409,1.38777878078e-17,0.0,0.0,0.0,0.0,1.11022302463e-16
1494449964074586110,1.38777878078e-17,0.0,0.0,0.0,0.0,1.11022302463e-16
1494449964174748760,1.38777878078e-17,0.0,0.0,0.0,0.0,1.11022302463e-16
1494449964275684049,1.38777878078e-17,0.0,0.0,0.0,0.0,1.11022302463e-16
1494449964375011783,1.38777878078e-17,0.0,0.0,0.0,0.0,1.11022302463e-16
1494449964474748613,1.38777878078e-17,0.0,0.0,0.0,0.0,1.11022302463e-16
1494449964574386461,1.38777878078e-17,0.0,0.0,0.0,0.0,1.11022302463e-16
1494449964678457661,1.38777878078e-17,0.0,0.0,0.0,0.0,1.11022302463e-16
1494449964779250006,1.38777878078e-17,0.0,0.0,0.0,0.0,1.11022302463e-16
1494449964880391557,1.38777878078e-17,0.0,0.0,0.0,0.0,1.11022302463e-16
1494449964976288619,1.38777878078e-17,0.0,0.0,0.0,0.0,1.11022302463e-16
1494449965077634302,1.38777878078e-17,0.0,0.0,0.0,0.0,1.11022302463e-16
1494449965174546720,1.38777878078e-17,0.0,0.0,0.0,0.0,1.11022302463e-16
1494449965274424373,1.38777878078e-17,0.0,0.0,0.0,0.0,1.11022302463e-16
1494449965374749581,1.38777878078e-17,0.0,0.0,0.0,0.0,1.11022302463e-16
1494449965474682466,1.38777878078e-17,0.0,0.0,0.0,0.0,1.11022302463e-16
1494449965575221768,1.38777878078e-17,0.0,0.0,0.0,0.0,1.11022302463e-16
1494449965675656296,1.38777878078e-17,0.0,0.0,0.0,0.0,1.11022302463e-16
1494449965774528032,1.38777878078e-17,0.0,0.0,0.0,0.0,1.11022302463e-16
1494449965874768195,1.38777878078e-17,0.0,0.0,0.0,0.0,1.11022302463e-16
1494449965976909031,1.38777878078e-17,0.0,0.0,0.0,0.0,1.11022302463e-16
1494449966074710241,0.05,0.0,0.0,0.0,0.0,1.11022302463e-16
1494449966175085001,0.05,0.0,0.0,0.0,0.0,1.11022302463e-16
1494449966275061434,0.05,0.0,0.0,0.0,0.0,1.11022302463e-16
1494449966383021275,0.1,0.0,0.0,0.0,0.0,1.11022302463e-16
1494449966474300961,0.1,0.0,0.0,0.0,0.0,1.11022302463e-16
1494449966574490759,0.15,0.0,0.0,0.0,0.0,1.11022302463e-16
1494449966675115932,0.15,0.0,0.0,0.0,0.0,1.11022302463e-16
1494449966774587836,0.15,0.0,0.0,0.0,0.0,1.11022302463e-16
1494449966875266861,0.15,0.0,0.0,0.0,0.0,1.11022302463e-16
1494449966974311824,0.15,0.0,0.0,0.0,0.0,1.11022302463e-16
1494449967075353886,0.15,0.0,0.0,0.0,0.0,1.11022302463e-16
1494449967174611533,0.15,0.0,0.0,0.0,0.0,1.11022302463e-16
1494449967274743359,0.15,0.0,0.0,0.0,0.0,1.11022302463e-16
1494449967375624009,0.15,0.0,0.0,0.0,0.0,1.11022302463e-16
1494449967474713868,0.15,0.0,0.0,0.0,0.0,1.11022302463e-16
1494449967574401382,0.15,0.0,0.0,0.0,0.0,1.11022302463e-16
1494449967674565204,0.15,0.0,0.0,0.0,0.0,1.11022302463e-16
1494449967775170629,0.2,0.0,0.0,0.0,0.0,1.11022302463e-16
1494449967874405511,0.2,0.0,0.0,0.0,0.0,1.11022302463e-16
1494449967975281904,0.2,0.0,0.0,0.0,0.0,1.11022302463e-16
1494449968074758609,0.2,0.0,0.0,0.0,0.0,1.11022302463e-16
1494449968175228360,0.2,0.0,0.0,0.0,0.0,1.11022302463e-16
1494449968276439220,0.2,0.0,0.0,0.0,0.0,1.11022302463e-16
1494449968375922218,0.25,0.0,0.0,0.0,0.0,1.11022302463e-16
1494449968474548462,0.25,0.0,0.0,0.0,0.0,1.11022302463e-16
1494449968574526258,0.3,0.0,0.0,0.0,0.0,1.11022302463e-16
1494449968674431960,0.3,0.0,0.0,0.0,0.0,1.11022302463e-16
1494449968775087284,0.3,0.0,0.0,0.0,0.0,1.11022302463e-16
1494449968874768104,0.3,0.0,0.0,0.0,0.0,1.11022302463e-16
1494449968976153208,0.3,0.0,0.0,0.0,0.0,1.11022302463e-16
1494449969077796102,0.3,0.0,0.0,0.0,0.0,0.33
1494449969174643752,0.3,0.0,0.0,0.0,0.0,0.33
1494449969276282741,0.3,0.0,0.0,0.0,0.0,0.33
1494449969374617198,0.3,0.0,0.0,0.0,0.0,0.33
1494449969475646227,0.3,0.0,0.0,0.0,0.0,1.11022302463e-16
1494449969574651926,0.3,0.0,0.0,0.0,0.0,1.11022302463e-16
1494449969674565813,0.3,0.0,0.0,0.0,0.0,1.11022302463e-16
1494449969775512192,0.3,0.0,0.0,0.0,0.0,1.11022302463e-16
1494449969874846213,0.3,0.0,0.0,0.0,0.0,1.11022302463e-16
1494449969974665880,0.3,0.0,0.0,0.0,0.0,1.11022302463e-16
1494449970074650851,0.3,0.0,0.0,0.0,0.0,0.33
1494449970174685437,0.3,0.0,0.0,0.0,0.0,0.33
1494449970274831115,0.3,0.0,0.0,0.0,0.0,0.33
1494449970374699361,0.3,0.0,0.0,0.0,0.0,0.33
1494449970474476714,0.3,0.0,0.0,0.0,0.0,0.33
1494449970574976847,0.3,0.0,0.0,0.0,0.0,0.33
1494449970674734875,0.3,0.0,0.0,0.0,0.0,0.33
1494449970775512103,0.3,0.0,0.0,0.0,0.0,0.33
1494449970875175159,0.3,0.0,0.0,0.0,0.0,1.11022302463e-16
1494449970974651556,0.3,0.0,0.0,0.0,0.0,1.11022302463e-16
1494449971074681988,0.3,0.0,0.0,0.0,0.0,1.11022302463e-16
1494449971180587385,0.3,0.0,0.0,0.0,0.0,1.11022302463e-16
1494449971276313690,0.3,0.0,0.0,0.0,0.0,1.11022302463e-16
1494449971375294574,0.3,0.0,0.0,0.0,0.0,1.11022302463e-16
1494449971475587254,0.3,0.0,0.0,0.0,0.0,1.11022302463e-16
1494449971575645037,0.3,0.0,0.0,0.0,0.0,1.11022302463e-16
1494449971675417836,0.3,0.0,0.0,0.0,0.0,1.11022302463e-16
1494449971775753629,0.3,0.0,0.0,0.0,0.0,1.11022302463e-16
1494449971874890899,0.3,0.0,0.0,0.0,0.0,1.11022302463e-16
1494449971974449353,0.3,0.0,0.0,0.0,0.0,1.11022302463e-16
1494449972083977381,0.3,0.0,0.0,0.0,0.0,1.11022302463e-16
1494449972177751539,0.3,0.0,0.0,0.0,0.0,1.11022302463e-16
1494449972274726779,0.3,0.0,0.0,0.0,0.0,1.11022302463e-16
1494449972374811384,0.3,0.0,0.0,0.0,0.0,1.11022302463e-16
1494449972476969466,0.3,0.0,0.0,0.0,0.0,1.11022302463e-16
1494449972575332060,0.3,0.0,0.0,0.0,0.0,1.11022302463e-16
1494449972674681300,0.3,0.0,0.0,0.0,0.0,1.11022302463e-16
1494449972774218802,0.3,0.0,0.0,0.0,0.0,1.11022302463e-16
1494449972874628568,0.3,0.0,0.0,0.0,0.0,1.11022302463e-16
1494449972974595247,0.3,0.0,0.0,0.0,0.0,1.11022302463e-16
1494449973074716540,0.3,0.0,0.0,0.0,0.0,1.11022302463e-16
1494449973175250057,0.3,0.0,0.0,0.0,0.0,1.11022302463e-16
1494449973275931410,0.3,0.0,0.0,0.0,0.0,1.11022302463e-16
1494449973378361315,0.3,0.0,0.0,0.0,0.0,1.11022302463e-16
1494449973475421726,0.3,0.0,0.0,0.0,0.0,1.11022302463e-16
1494449973577003008,0.3,0.0,0.0,0.0,0.0,1.11022302463e-16
1494449973675103358,0.3,0.0,0.0,0.0,0.0,1.11022302463e-16
1494449973774982700,0.3,0.0,0.0,0.0,0.0,1.11022302463e-16
1494449973875000597,0.3,0.0,0.0,0.0,0.0,1.11022302463e-16
1494449973974868365,0.3,0.0,0.0,0.0,0.0,1.11022302463e-16
1494449974075061961,0.3,0.0,0.0,0.0,0.0,1.11022302463e-16
1494449974184942111,0.3,0.0,0.0,0.0,0.0,1.11022302463e-16
1494449974274535621,0.3,0.0,0.0,0.0,0.0,1.11022302463e-16
1494449974374541453,0.3,0.0,0.0,0.0,0.0,1.11022302463e-16
1494449974474664556,0.3,0.0,0.0,0.0,0.0,1.11022302463e-16
1494449974574957528,0.3,0.0,0.0,0.0,0.0,1.11022302463e-16
1494449974674821702,0.3,0.0,0.0,0.0,0.0,1.11022302463e-16
1494449974774579310,0.3,0.0,0.0,0.0,0.0,1.11022302463e-16
1494449974874926429,0.3,0.0,0.0,0.0,0.0,1.11022302463e-16
1494449974974939826,0.25,0.0,0.0,0.0,0.0,1.11022302463e-16
1494449975075027608,0.25,0.0,0.0,0.0,0.0,1.11022302463e-16
1494449975174553942,0.2,0.0,0.0,0.0,0.0,1.11022302463e-16
1494449975274815702,0.15,0.0,0.0,0.0,0.0,1.11022302463e-16
1494449975374837668,0.15,0.0,0.0,0.0,0.0,1.11022302463e-16
1494449975474537304,0.1,0.0,0.0,0.0,0.0,1.11022302463e-16
1494449975574418568,0.1,0.0,0.0,0.0,0.0,1.11022302463e-16
1494449975675236040,0.1,0.0,0.0,0.0,0.0,1.11022302463e-16
1494449975774328881,0.1,0.0,0.0,0.0,0.0,1.11022302463e-16
1494449975875214657,0.1,0.0,0.0,0.0,0.0,1.11022302463e-16
1494449975981732447,0.1,0.0,0.0,0.0,0.0,1.11022302463e-16
1494449976074990291,0.1,0.0,0.0,0.0,0.0,1.11022302463e-16
1494449976174539882,0.1,0.0,0.0,0.0,0.0,1.11022302463e-16
1494449976274402406,0.1,0.0,0.0,0.0,0.0,1.11022302463e-16
1494449976374686587,0.1,0.0,0.0,0.0,0.0,1.11022302463e-16
1494449976474384329,0.1,0.0,0.0,0.0,0.0,1.11022302463e-16
1494449976574574392,0.1,0.0,0.0,0.0,0.0,1.11022302463e-16
1494449976677911584,0.1,0.0,0.0,0.0,0.0,1.11022302463e-16
1494449976774618370,0.1,0.0,0.0,0.0,0.0,1.11022302463e-16
1494449976874434672,0.1,0.0,0.0,0.0,0.0,1.11022302463e-16
1494449976974471743,0.1,0.0,0.0,0.0,0.0,1.11022302463e-16
1494449977094713937,0.05,0.0,0.0,0.0,0.0,1.11022302463e-16
1494449977180886179,0.05,0.0,0.0,0.0,0.0,1.11022302463e-16
1494449977274894354,0.05,0.0,0.0,0.0,0.0,1.11022302463e-16
1494449977374416294,0.05,0.0,0.0,0.0,0.0,1.11022302463e-16
1494449977475654633,0.05,0.0,0.0,0.0,0.0,1.11022302463e-16
1494449977575067649,1.38777878078e-17,0.0,0.0,0.0,0.0,1.11022302463e-16
1494449977677874431,1.38777878078e-17,0.0,0.0,0.0,0.0,1.11022302463e-16
1494449977775272919,1.38777878078e-17,0.0,0.0,0.0,0.0,1.11022302463e-16
1494449977879118725,1.38777878078e-17,0.0,0.0,0.0,0.0,1.11022302463e-16
1494449977974776441,1.38777878078e-17,0.0,0.0,0.0,0.0,1.11022302463e-16
1494449978074422388,1.38777878078e-17,0.0,0.0,0.0,0.0,1.11022302463e-16
1494449978174892492,1.38777878078e-17,0.0,0.0,0.0,0.0,1.11022302463e-16
1494449978274430309,1.38777878078e-17,0.0,0.0,0.0,0.0,1.11022302463e-16
1494449978374519523,1.38777878078e-17,0.0,0.0,0.0,0.0,1.11022302463e-16
1494449978474462083,1.38777878078e-17,0.0,0.0,0.0,0.0,1.11022302463e-16
1494449978574363818,1.38777878078e-17,0.0,0.0,0.0,0.0,1.11022302463e-16
1494449978674820338,1.38777878078e-17,0.0,0.0,0.0,0.0,1.11022302463e-16
1494449978774421109,1.38777878078e-17,0.0,0.0,0.0,0.0,1.11022302463e-16
1494449978874627090,1.38777878078e-17,0.0,0.0,0.0,0.0,1.11022302463e-16
1494449978975320896,1.38777878078e-17,0.0,0.0,0.0,0.0,1.11022302463e-16
1494449979074459475,1.38777878078e-17,0.0,0.0,0.0,0.0,1.11022302463e-16
1494449979174314766,1.38777878078e-17,0.0,0.0,0.0,0.0,1.11022302463e-16
1494449979274573623,1.38777878078e-17,0.0,0.0,0.0,0.0,1.11022302463e-16
1494449979374398121,1.38777878078e-17,0.0,0.0,0.0,0.0,1.11022302463e-16
1494449979474538645,1.38777878078e-17,0.0,0.0,0.0,0.0,1.11022302463e-16
1494449979574649650,1.38777878078e-17,0.0,0.0,0.0,0.0,1.11022302463e-16
1494449979674691074,1.38777878078e-17,0.0,0.0,0.0,0.0,1.11022302463e-16
1494449979774674865,1.38777878078e-17,0.0,0.0,0.0,0.0,1.11022302463e-16
1494449979874450535,1.38777878078e-17,0.0,0.0,0.0,0.0,1.11022302463e-16
1494449979974333463,1.38777878078e-17,0.0,0.0,0.0,0.0,1.11022302463e-16
1494449980074411106,1.38777878078e-17,0.0,0.0,0.0,0.0,1.11022302463e-16
1494449980174365907,1.38777878078e-17,0.0,0.0,0.0,0.0,1.11022302463e-16
1494449980274407835,1.38777878078e-17,0.0,0.0,0.0,0.0,1.11022302463e-16
1494449980374522444,1.38777878078e-17,0.0,0.0,0.0,0.0,1.11022302463e-16
1494449980474194128,1.38777878078e-17,0.0,0.0,0.0,0.0,1.11022302463e-16
1494449980574800202,1.38777878078e-17,0.0,0.0,0.0,0.0,1.11022302463e-16
1494449980674231273,1.38777878078e-17,0.0,0.0,0.0,0.0,1.11022302463e-16
1494449980774733800,1.38777878078e-17,0.0,0.0,0.0,0.0,1.11022302463e-16
1494449980874545546,1.38777878078e-17,0.0,0.0,0.0,0.0,1.11022302463e-16
1494449980975187904,1.38777878078e-17,0.0,0.0,0.0,0.0,1.11022302463e-16
1494449981074702904,1.38777878078e-17,0.0,0.0,0.0,0.0,1.11022302463e-16
1494449981195435428,1.38777878078e-17,0.0,0.0,0.0,0.0,1.11022302463e-16
1494449981274521133,1.38777878078e-17,0.0,0.0,0.0,0.0,1.11022302463e-16
1494449981374544989,1.38777878078e-17,0.0,0.0,0.0,0.0,1.11022302463e-16
1494449981474487990,1.38777878078e-17,0.0,0.0,0.0,0.0,1.11022302463e-16
1494449981575027525,1.38777878078e-17,0.0,0.0,0.0,0.0,1.11022302463e-16
1494449981674966173,1.38777878078e-17,0.0,0.0,0.0,0.0,1.11022302463e-16
1494449981775899958,1.38777878078e-17,0.0,0.0,0.0,0.0,1.11022302463e-16
1494449981879546738,1.38777878078e-17,0.0,0.0,0.0,0.0,1.11022302463e-16
