%time,field.transforms0.header.seq,field.transforms0.header.stamp,field.transforms0.header.frame_id,field.transforms0.child_frame_id,field.transforms0.transform.translation.x,field.transforms0.transform.translation.y,field.transforms0.transform.translation.z,field.transforms0.transform.rotation.x,field.transforms0.transform.rotation.y,field.transforms0.transform.rotation.z,field.transforms0.transform.rotation.w,field.transforms1.header.seq,field.transforms1.header.stamp,field.transforms1.header.frame_id,field.transforms1.child_frame_id,field.transforms1.transform.translation.x,field.transforms1.transform.translation.y,field.transforms1.transform.translation.z,field.transforms1.transform.rotation.x,field.transforms1.transform.rotation.y,field.transforms1.transform.rotation.z,field.transforms1.transform.rotation.w
1494449908772882158,0,1494449907869033903,raphael/base_link,raphael/wheel_left_link,0.0,0.115,0.025,-0.707106781185,0.0,0.0,0.707106781188,0,1494449907869033903,raphael/base_link,raphael/wheel_right_link,0.0,-0.115,0.025,-0.707106781185,0.0,0.0,0.707106781188
1494449908773017291,0,1494449908370472688,raphael/base_footprint,raphael/base_link,0.0,0.0,0.0102,0.0,0.0,0.0,1.0,0,1494449908370472688,raphael/base_link,raphael/caster_back_link,-0.135,0.0,0.009,-0.707106781185,0.0,0.0,0.707106781188,0,1494449908370472688,raphael/base_link,raphael/caster_front_link,0.115,0.0,0.007,-0.707106781185,0.0,0.0,0.707106781188,0,1494449908370472688,raphael/base_link,raphael/cliff_sensor_front_link,0.156,0.0,0.0214,0.0,0.707106781185,0.0,0.707106781188,0,1494449908370472688,raphael/base_link,raphael/cliff_sensor_left_link,0.08734,0.13601,0.0214,0.0,0.707106781185,0.0,0.707106781188,0,1494449908370472688,raphael/base_link,raphael/cliff_sensor_right_link,0.085,-0.13601,0.0214,0.0,0.707106781185,0.0,0.707106781188,0,1494449908370472688,raphael/base_link,raphael/gyro_link,0.056,0.062,0.0202,0.0,0.0,0.0,1.0
1494449908773027597,0,1494449907889652150,odom,base_footprint,0.0,0.0,0.0,0.0,0.0,0.0,1.0
1494449908773036417,0,1494449907910471355,odom,base_footprint,0.0,0.0,0.0,0.0,0.0,0.0,1.0
1494449908773043067,0,1494449908404433380,raphael/base_footprint,raphael/base_link,0.0,0.0,0.0102,0.0,0.0,0.0,1.0,0,1494449908404433380,raphael/base_link,raphael/caster_back_link,-0.135,0.0,0.009,-0.707106781185,0.0,0.0,0.707106781188,0,1494449908404433380,raphael/base_link,raphael/caster_front_link,0.115,0.0,0.007,-0.707106781185,0.0,0.0,0.707106781188,0,1494449908404433380,raphael/base_link,raphael/cliff_sensor_front_link,0.156,0.0,0.0214,0.0,0.707106781185,0.0,0.707106781188,0,1494449908404433380,raphael/base_link,raphael/cliff_sensor_left_link,0.08734,0.13601,0.0214,0.0,0.707106781185,0.0,0.707106781188,0,1494449908404433380,raphael/base_link,raphael/cliff_sensor_right_link,0.085,-0.13601,0.0214,0.0,0.707106781185,0.0,0.707106781188,0,1494449908404433380,raphael/base_link,raphael/gyro_link,0.056,0.062,0.0202,0.0,0.0,0.0,1.0
1494449908773054573,0,1494449907910877603,raphael/base_link,raphael/wheel_left_link,0.0,0.115,0.025,-0.707106781185,0.0,0.0,0.707106781188,0,1494449907910877603,raphael/base_link,raphael/wheel_right_link,0.0,-0.115,0.025,-0.707106781185,0.0,0.0,0.707106781188
1494449908773060076,0,1494449907928789403,odom,base_footprint,0.0,0.0,0.0,0.0,0.0,0.0,1.0
1494449908773066197,0,1494449907948733820,odom,base_footprint,0.0,0.0,0.0,0.0,0.0,0.0,1.0
1494449908773122051,0,1494449908437742116,raphael/base_footprint,raphael/base_link,0.0,0.0,0.0102,0.0,0.0,0.0,1.0,0,1494449908437742116,raphael/base_link,raphael/caster_back_link,-0.135,0.0,0.009,-0.707106781185,0.0,0.0,0.707106781188,0,1494449908437742116,raphael/base_link,raphael/caster_front_link,0.115,0.0,0.007,-0.707106781185,0.0,0.0,0.707106781188,0,1494449908437742116,raphael/base_link,raphael/cliff_sensor_front_link,0.156,0.0,0.0214,0.0,0.707106781185,0.0,0.707106781188,0,1494449908437742116,raphael/base_link,raphael/cliff_sensor_left_link,0.08734,0.13601,0.0214,0.0,0.707106781185,0.0,0.707106781188,0,1494449908437742116,raphael/base_link,raphael/cliff_sensor_right_link,0.085,-0.13601,0.0214,0.0,0.707106781185,0.0,0.707106781188,0,1494449908437742116,raphael/base_link,raphael/gyro_link,0.056,0.062,0.0202,0.0,0.0,0.0,1.0
1494449908773127989,0,1494449907948928403,raphael/base_link,raphael/wheel_left_link,0.0,0.115,0.025,-0.707106781185,0.0,0.0,0.707106781188,0,1494449907948928403,raphael/base_link,raphael/wheel_right_link,0.0,-0.115,0.025,-0.707106781185,0.0,0.0,0.707106781188
1494449908773134629,0,1494449907968829695,odom,base_footprint,0.0,0.0,0.0,0.0,0.0,0.0,1.0
1494449908773148906,0,1494449907988744778,odom,base_footprint,0.0,0.0,0.0,0.0,0.0,0.0,1.0
1494449908773230889,0,1494449908470528312,raphael/base_footprint,raphael/base_link,0.0,0.0,0.0102,0.0,0.0,0.0,1.0,0,1494449908470528312,raphael/base_link,raphael/caster_back_link,-0.135,0.0,0.009,-0.707106781185,0.0,0.0,0.707106781188,0,1494449908470528312,raphael/base_link,raphael/caster_front_link,0.115,0.0,0.007,-0.707106781185,0.0,0.0,0.707106781188,0,1494449908470528312,raphael/base_link,raphael/cliff_sensor_front_link,0.156,0.0,0.0214,0.0,0.707106781185,0.0,0.707106781188,0,1494449908470528312,raphael/base_link,raphael/cliff_sensor_left_link,0.08734,0.13601,0.0214,0.0,0.707106781185,0.0,0.707106781188,0,1494449908470528312,raphael/base_link,raphael/cliff_sensor_right_link,0.085,-0.13601,0.0214,0.0,0.707106781185,0.0,0.707106781188,0,1494449908470528312,raphael/base_link,raphael/gyro_link,0.056,0.062,0.0202,0.0,0.0,0.0,1.0
1494449908773239399,0,1494449907988947819,raphael/base_link,raphael/wheel_left_link,0.0,0.115,0.025,-0.707106781185,0.0,0.0,0.707106781188,0,1494449907988947819,raphael/base_link,raphael/wheel_right_link,0.0,-0.115,0.025,-0.707106781185,0.0,0.0,0.707106781188
1494449908773245338,0,1494449908008773986,odom,base_footprint,0.0,0.0,0.0,0.0,0.0,0.0,1.0
1494449908773251340,0,1494449908029815190,odom,base_footprint,0.0,0.0,0.0,0.0,0.0,0.0,1.0
1494449908773257639,0,1494449908504263172,raphael/base_footprint,raphael/base_link,0.0,0.0,0.0102,0.0,0.0,0.0,1.0,0,1494449908504263172,raphael/base_link,raphael/caster_back_link,-0.135,0.0,0.009,-0.707106781185,0.0,0.0,0.707106781188,0,1494449908504263172,raphael/base_link,raphael/caster_front_link,0.115,0.0,0.007,-0.707106781185,0.0,0.0,0.707106781188,0,1494449908504263172,raphael/base_link,raphael/cliff_sensor_front_link,0.156,0.0,0.0214,0.0,0.707106781185,0.0,0.707106781188,0,1494449908504263172,raphael/base_link,raphael/cliff_sensor_left_link,0.08734,0.13601,0.0214,0.0,0.707106781185,0.0,0.707106781188,0,1494449908504263172,raphael/base_link,raphael/cliff_sensor_right_link,0.085,-0.13601,0.0214,0.0,0.707106781185,0.0,0.707106781188,0,1494449908504263172,raphael/base_link,raphael/gyro_link,0.056,0.062,0.0202,0.0,0.0,0.0,1.0
1494449908773271490,0,1494449908030119397,raphael/base_link,raphael/wheel_left_link,0.0,0.115,0.025,-0.707106781185,0.0,0.0,0.707106781188,0,1494449908030119397,raphael/base_link,raphael/wheel_right_link,0.0,-0.115,0.025,-0.707106781185,0.0,0.0,0.707106781188
1494449908773280671,0,1494449908536816869,raphael/base_footprint,raphael/base_link,0.0,0.0,0.0102,0.0,0.0,0.0,1.0,0,1494449908536816869,raphael/base_link,raphael/caster_back_link,-0.135,0.0,0.009,-0.707106781185,0.0,0.0,0.707106781188,0,1494449908536816869,raphael/base_link,raphael/caster_front_link,0.115,0.0,0.007,-0.707106781185,0.0,0.0,0.707106781188,0,1494449908536816869,raphael/base_link,raphael/cliff_sensor_front_link,0.156,0.0,0.0214,0.0,0.707106781185,0.0,0.707106781188,0,1494449908536816869,raphael/base_link,raphael/cliff_sensor_left_link,0.08734,0.13601,0.0214,0.0,0.707106781185,0.0,0.707106781188,0,1494449908536816869,raphael/base_link,raphael/cliff_sensor_right_link,0.085,-0.13601,0.0214,0.0,0.707106781185,0.0,0.707106781188,0,1494449908536816869,raphael/base_link,raphael/gyro_link,0.056,0.062,0.0202,0.0,0.0,0.0,1.0
1494449908773285623,0,1494449908048850694,odom,base_footprint,0.0,0.0,0.0,0.0,0.0,0.0,1.0
1494449908773304936,0,1494449908068802068,odom,base_footprint,0.0,0.0,0.0,0.0,0.0,0.0,1.0
1494449908773311729,0,1494449908069007026,raphael/base_link,raphael/wheel_left_link,0.0,0.115,0.025,-0.707106781185,0.0,0.0,0.707106781188,0,1494449908069007026,raphael/base_link,raphael/wheel_right_link,0.0,-0.115,0.025,-0.707106781185,0.0,0.0,0.707106781188
1494449908773518687,0,1494449908570527644,raphael/base_footprint,raphael/base_link,0.0,0.0,0.0102,0.0,0.0,0.0,1.0,0,1494449908570527644,raphael/base_link,raphael/caster_back_link,-0.135,0.0,0.009,-0.707106781185,0.0,0.0,0.707106781188,0,1494449908570527644,raphael/base_link,raphael/caster_front_link,0.115,0.0,0.007,-0.707106781185,0.0,0.0,0.707106781188,0,1494449908570527644,raphael/base_link,raphael/cliff_sensor_front_link,0.156,0.0,0.0214,0.0,0.707106781185,0.0,0.707106781188,0,1494449908570527644,raphael/base_link,raphael/cliff_sensor_left_link,0.08734,0.13601,0.0214,0.0,0.707106781185,0.0,0.707106781188,0,1494449908570527644,raphael/base_link,raphael/cliff_sensor_right_link,0.085,-0.13601,0.0214,0.0,0.707106781185,0.0,0.707106781188,0,1494449908570527644,raphael/base_link,raphael/gyro_link,0.056,0.062,0.0202,0.0,0.0,0.0,1.0
1494449908773540942,0,1494449908088790985,odom,base_footprint,0.0,0.0,0.0,0.0,0.0,0.0,1.0
1494449908773549274,0,1494449908604463503,raphael/base_footprint,raphael/base_link,0.0,0.0,0.0102,0.0,0.0,0.0,1.0,0,1494449908604463503,raphael/base_link,raphael/caster_back_link,-0.135,0.0,0.009,-0.707106781185,0.0,0.0,0.707106781188,0,1494449908604463503,raphael/base_link,raphael/caster_front_link,0.115,0.0,0.007,-0.707106781185,0.0,0.0,0.707106781188,0,1494449908604463503,raphael/base_link,raphael/cliff_sensor_front_link,0.156,0.0,0.0214,0.0,0.707106781185,0.0,0.707106781188,0,1494449908604463503,raphael/base_link,raphael/cliff_sensor_left_link,0.08734,0.13601,0.0214,0.0,0.707106781185,0.0,0.707106781188,0,1494449908604463503,raphael/base_link,raphael/cliff_sensor_right_link,0.085,-0.13601,0.0214,0.0,0.707106781185,0.0,0.707106781188,0,1494449908604463503,raphael/base_link,raphael/gyro_link,0.056,0.062,0.0202,0.0,0.0,0.0,1.0
1494449908773557476,0,1494449908109511440,odom,base_footprint,0.0,0.0,0.0,0.0,0.0,0.0,1.0
1494449908773565299,0,1494449908128761109,odom,base_footprint,0.0,0.0,0.0,0.0,0.0,0.0,1.0
1494449908773578736,0,1494449908109890396,raphael/base_link,raphael/wheel_left_link,0.0,0.115,0.025,-0.707106781185,0.0,0.0,0.707106781188,0,1494449908109890396,raphael/base_link,raphael/wheel_right_link,0.0,-0.115,0.025,-0.707106781185,0.0,0.0,0.707106781188
1494449908773588353,0,1494449908637336657,raphael/base_footprint,raphael/base_link,0.0,0.0,0.0102,0.0,0.0,0.0,1.0,0,1494449908637336657,raphael/base_link,raphael/caster_back_link,-0.135,0.0,0.009,-0.707106781185,0.0,0.0,0.707106781188,0,1494449908637336657,raphael/base_link,raphael/caster_front_link,0.115,0.0,0.007,-0.707106781185,0.0,0.0,0.707106781188,0,1494449908637336657,raphael/base_link,raphael/cliff_sensor_front_link,0.156,0.0,0.0214,0.0,0.707106781185,0.0,0.707106781188,0,1494449908637336657,raphael/base_link,raphael/cliff_sensor_left_link,0.08734,0.13601,0.0214,0.0,0.707106781185,0.0,0.707106781188,0,1494449908637336657,raphael/base_link,raphael/cliff_sensor_right_link,0.085,-0.13601,0.0214,0.0,0.707106781185,0.0,0.707106781188,0,1494449908637336657,raphael/base_link,raphael/gyro_link,0.056,0.062,0.0202,0.0,0.0,0.0,1.0
1494449908773599817,0,1494449908148805150,odom,base_footprint,0.0,0.0,0.0,0.0,0.0,0.0,1.0
1494449908773729484,0,1494449908168693442,odom,base_footprint,0.0,0.0,0.0,0.0,0.0,0.0,1.0
1494449908774908260,0,1494449908149000066,raphael/base_link,raphael/wheel_left_link,0.0,0.115,0.025,-0.707106781185,0.0,0.0,0.707106781188,0,1494449908149000066,raphael/base_link,raphael/wheel_right_link,0.0,-0.115,0.025,-0.707106781185,0.0,0.0,0.707106781188
1494449908774926045,0,1494449908670277561,raphael/base_footprint,raphael/base_link,0.0,0.0,0.0102,0.0,0.0,0.0,1.0,0,1494449908670277561,raphael/base_link,raphael/caster_back_link,-0.135,0.0,0.009,-0.707106781185,0.0,0.0,0.707106781188,0,1494449908670277561,raphael/base_link,raphael/caster_front_link,0.115,0.0,0.007,-0.707106781185,0.0,0.0,0.707106781188,0,1494449908670277561,raphael/base_link,raphael/cliff_sensor_front_link,0.156,0.0,0.0214,0.0,0.707106781185,0.0,0.707106781188,0,1494449908670277561,raphael/base_link,raphael/cliff_sensor_left_link,0.08734,0.13601,0.0214,0.0,0.707106781185,0.0,0.707106781188,0,1494449908670277561,raphael/base_link,raphael/cliff_sensor_right_link,0.085,-0.13601,0.0214,0.0,0.707106781185,0.0,0.707106781188,0,1494449908670277561,raphael/base_link,raphael/gyro_link,0.056,0.062,0.0202,0.0,0.0,0.0,1.0
1494449908774933301,0,1494449908188696483,odom,base_footprint,0.0,0.0,0.0,0.0,0.0,0.0,1.0
1494449908774942639,0,1494449908209887812,odom,base_footprint,0.0,0.0,0.0,0.0,0.0,0.0,1.0
1494449908774951553,0,1494449908188887691,raphael/base_link,raphael/wheel_left_link,0.0,0.115,0.025,-0.707106781185,0.0,0.0,0.707106781188,0,1494449908188887691,raphael/base_link,raphael/wheel_right_link,0.0,-0.115,0.025,-0.707106781185,0.0,0.0,0.707106781188
1494449908774959018,0,1494449908704085127,raphael/base_footprint,raphael/base_link,0.0,0.0,0.0102,0.0,0.0,0.0,1.0,0,1494449908704085127,raphael/base_link,raphael/caster_back_link,-0.135,0.0,0.009,-0.707106781185,0.0,0.0,0.707106781188,0,1494449908704085127,raphael/base_link,raphael/caster_front_link,0.115,0.0,0.007,-0.707106781185,0.0,0.0,0.707106781188,0,1494449908704085127,raphael/base_link,raphael/cliff_sensor_front_link,0.156,0.0,0.0214,0.0,0.707106781185,0.0,0.707106781188,0,1494449908704085127,raphael/base_link,raphael/cliff_sensor_left_link,0.08734,0.13601,0.0214,0.0,0.707106781185,0.0,0.707106781188,0,1494449908704085127,raphael/base_link,raphael/cliff_sensor_right_link,0.085,-0.13601,0.0214,0.0,0.707106781185,0.0,0.707106781188,0,1494449908704085127,raphael/base_link,raphael/gyro_link,0.056,0.062,0.0202,0.0,0.0,0.0,1.0
1494449908774968199,0,1494449908228966232,odom,base_footprint,0.0,0.0,0.0,0.0,0.0,0.0,1.0
1494449908774977725,0,1494449908248871023,odom,base_footprint,0.0,0.0,0.0,0.0,0.0,0.0,1.0
1494449908774989248,0,1494449908229236814,raphael/base_link,raphael/wheel_left_link,0.0,0.115,0.025,-0.707106781185,0.0,0.0,0.707106781188,0,1494449908229236814,raphael/base_link,raphael/wheel_right_link,0.0,-0.115,0.025,-0.707106781185,0.0,0.0,0.707106781188
1494449908774997898,0,1494449908737929111,raphael/base_footprint,raphael/base_link,0.0,0.0,0.0102,0.0,0.0,0.0,1.0,0,1494449908737929111,raphael/base_link,raphael/caster_back_link,-0.135,0.0,0.009,-0.707106781185,0.0,0.0,0.707106781188,0,1494449908737929111,raphael/base_link,raphael/caster_front_link,0.115,0.0,0.007,-0.707106781185,0.0,0.0,0.707106781188,0,1494449908737929111,raphael/base_link,raphael/cliff_sensor_front_link,0.156,0.0,0.0214,0.0,0.707106781185,0.0,0.707106781188,0,1494449908737929111,raphael/base_link,raphael/cliff_sensor_left_link,0.08734,0.13601,0.0214,0.0,0.707106781185,0.0,0.707106781188,0,1494449908737929111,raphael/base_link,raphael/cliff_sensor_right_link,0.085,-0.13601,0.0214,0.0,0.707106781185,0.0,0.707106781188,0,1494449908737929111,raphael/base_link,raphael/gyro_link,0.056,0.062,0.0202,0.0,0.0,0.0,1.0
1494449908777285174,0,1494449908269909102,odom,base_footprint,0.0,0.0,0.0,0.0,0.0,0.0,1.0
1494449908777291456,0,1494449908289740311,odom,base_footprint,0.0,0.0,0.0,0.0,0.0,0.0,1.0
1494449908777298097,0,1494449908771048889,raphael/base_footprint,raphael/base_link,0.0,0.0,0.0102,0.0,0.0,0.0,1.0,0,1494449908771048889,raphael/base_link,raphael/caster_back_link,-0.135,0.0,0.009,-0.707106781185,0.0,0.0,0.707106781188,0,1494449908771048889,raphael/base_link,raphael/caster_front_link,0.115,0.0,0.007,-0.707106781185,0.0,0.0,0.707106781188,0,1494449908771048889,raphael/base_link,raphael/cliff_sensor_front_link,0.156,0.0,0.0214,0.0,0.707106781185,0.0,0.707106781188,0,1494449908771048889,raphael/base_link,raphael/cliff_sensor_left_link,0.08734,0.13601,0.0214,0.0,0.707106781185,0.0,0.707106781188,0,1494449908771048889,raphael/base_link,raphael/cliff_sensor_right_link,0.085,-0.13601,0.0214,0.0,0.707106781185,0.0,0.707106781188,0,1494449908771048889,raphael/base_link,raphael/gyro_link,0.056,0.062,0.0202,0.0,0.0,0.0,1.0
1494449908777305070,0,1494449908270240351,raphael/base_link,raphael/wheel_left_link,0.0,0.115,0.025,-0.707106781185,0.0,0.0,0.707106781188,0,1494449908270240351,raphael/base_link,raphael/wheel_right_link,0.0,-0.115,0.025,-0.707106781185,0.0,0.0,0.707106781188
1494449908777310114,0,1494449908308663982,odom,base_footprint,0.0,0.0,0.0,0.0,0.0,0.0,1.0
1494449908777317856,0,1494449908804192042,raphael/base_footprint,raphael/base_link,0.0,0.0,0.0102,0.0,0.0,0.0,1.0,0,1494449908804192042,raphael/base_link,raphael/caster_back_link,-0.135,0.0,0.009,-0.707106781185,0.0,0.0,0.707106781188,0,1494449908804192042,raphael/base_link,raphael/caster_front_link,0.115,0.0,0.007,-0.707106781185,0.0,0.0,0.707106781188,0,1494449908804192042,raphael/base_link,raphael/cliff_sensor_front_link,0.156,0.0,0.0214,0.0,0.707106781185,0.0,0.707106781188,0,1494449908804192042,raphael/base_link,raphael/cliff_sensor_left_link,0.08734,0.13601,0.0214,0.0,0.707106781185,0.0,0.707106781188,0,1494449908804192042,raphael/base_link,raphael/cliff_sensor_right_link,0.085,-0.13601,0.0214,0.0,0.707106781185,0.0,0.707106781188,0,1494449908804192042,raphael/base_link,raphael/gyro_link,0.056,0.062,0.0202,0.0,0.0,0.0,1.0
1494449908777326130,0,1494449908308844481,raphael/base_link,raphael/wheel_left_link,0.0,0.115,0.025,-0.707106781185,0.0,0.0,0.707106781188,0,1494449908308844481,raphael/base_link,raphael/wheel_right_link,0.0,-0.115,0.025,-0.707106781185,0.0,0.0,0.707106781188
1494449908777330639,0,1494449908328766606,odom,base_footprint,0.0,0.0,0.0,0.0,0.0,0.0,1.0
1494449908777343408,0,1494449908837818693,raphael/base_footprint,raphael/base_link,0.0,0.0,0.0102,0.0,0.0,0.0,1.0,0,1494449908837818693,raphael/base_link,raphael/caster_back_link,-0.135,0.0,0.009,-0.707106781185,0.0,0.0,0.707106781188,0,1494449908837818693,raphael/base_link,raphael/caster_front_link,0.115,0.0,0.007,-0.707106781185,0.0,0.0,0.707106781188,0,1494449908837818693,raphael/base_link,raphael/cliff_sensor_front_link,0.156,0.0,0.0214,0.0,0.707106781185,0.0,0.707106781188,0,1494449908837818693,raphael/base_link,raphael/cliff_sensor_left_link,0.08734,0.13601,0.0214,0.0,0.707106781185,0.0,0.707106781188,0,1494449908837818693,raphael/base_link,raphael/cliff_sensor_right_link,0.085,-0.13601,0.0214,0.0,0.707106781185,0.0,0.707106781188,0,1494449908837818693,raphael/base_link,raphael/gyro_link,0.056,0.062,0.0202,0.0,0.0,0.0,1.0
1494449908777347816,0,1494449908349283770,odom,base_footprint,0.0,0.0,0.0,0.0,0.0,0.0,1.0
1494449908777353834,0,1494449908349492602,raphael/base_link,raphael/wheel_left_link,0.0,0.115,0.025,-0.707106781185,0.0,0.0,0.707106781188,0,1494449908349492602,raphael/base_link,raphael/wheel_right_link,0.0,-0.115,0.025,-0.707106781185,0.0,0.0,0.707106781188
1494449908777368896,0,1494449908368614272,odom,base_footprint,0.0,0.0,0.0,0.0,0.0,0.0,1.0
1494449908777376767,0,1494449908870441765,raphael/base_footprint,raphael/base_link,0.0,0.0,0.0102,0.0,0.0,0.0,1.0,0,1494449908870441765,raphael/base_link,raphael/caster_back_link,-0.135,0.0,0.009,-0.707106781185,0.0,0.0,0.707106781188,0,1494449908870441765,raphael/base_link,raphael/caster_front_link,0.115,0.0,0.007,-0.707106781185,0.0,0.0,0.707106781188,0,1494449908870441765,raphael/base_link,raphael/cliff_sensor_front_link,0.156,0.0,0.0214,0.0,0.707106781185,0.0,0.707106781188,0,1494449908870441765,raphael/base_link,raphael/cliff_sensor_left_link,0.08734,0.13601,0.0214,0.0,0.707106781185,0.0,0.707106781188,0,1494449908870441765,raphael/base_link,raphael/cliff_sensor_right_link,0.085,-0.13601,0.0214,0.0,0.707106781185,0.0,0.707106781188,0,1494449908870441765,raphael/base_link,raphael/gyro_link,0.056,0.062,0.0202,0.0,0.0,0.0,1.0
1494449908777382897,0,1494449908389735017,raphael/base_link,raphael/wheel_left_link,0.0,0.115,0.025,-0.707106781185,0.0,0.0,0.707106781188,0,1494449908389735017,raphael/base_link,raphael/wheel_right_link,0.0,-0.115,0.025,-0.707106781185,0.0,0.0,0.707106781188
1494449908777389751,0,1494449908389214936,odom,base_footprint,0.0,0.0,0.0,0.0,0.0,0.0,1.0
1494449908777395609,0,1494449908904121749,raphael/base_footprint,raphael/base_link,0.0,0.0,0.0102,0.0,0.0,0.0,1.0,0,1494449908904121749,raphael/base_link,raphael/caster_back_link,-0.135,0.0,0.009,-0.707106781185,0.0,0.0,0.707106781188,0,1494449908904121749,raphael/base_link,raphael/caster_front_link,0.115,0.0,0.007,-0.707106781185,0.0,0.0,0.707106781188,0,1494449908904121749,raphael/base_link,raphael/cliff_sensor_front_link,0.156,0.0,0.0214,0.0,0.707106781185,0.0,0.707106781188,0,1494449908904121749,raphael/base_link,raphael/cliff_sensor_left_link,0.08734,0.13601,0.0214,0.0,0.707106781185,0.0,0.707106781188,0,1494449908904121749,raphael/base_link,raphael/cliff_sensor_right_link,0.085,-0.13601,0.0214,0.0,0.707106781185,0.0,0.707106781188,0,1494449908904121749,raphael/base_link,raphael/gyro_link,0.056,0.062,0.0202,0.0,0.0,0.0,1.0
1494449908777401943,0,1494449908409644643,odom,base_footprint,0.0,0.0,0.0,0.0,0.0,0.0,1.0
1494449908777578143,0,1494449908429604601,odom,base_footprint,0.0,0.0,0.0,0.0,0.0,0.0,1.0
1494449908777668347,0,1494449908429790683,raphael/base_link,raphael/wheel_left_link,0.0,0.115,0.025,-0.707106781185,0.0,0.0,0.707106781188,0,1494449908429790683,raphael/base_link,raphael/wheel_right_link,0.0,-0.115,0.025,-0.707106781185,0.0,0.0,0.707106781188
1494449908777674203,0,1494449908937886983,raphael/base_footprint,raphael/base_link,0.0,0.0,0.0102,0.0,0.0,0.0,1.0,0,1494449908937886983,raphael/base_link,raphael/caster_back_link,-0.135,0.0,0.009,-0.707106781185,0.0,0.0,0.707106781188,0,1494449908937886983,raphael/base_link,raphael/caster_front_link,0.115,0.0,0.007,-0.707106781185,0.0,0.0,0.707106781188,0,1494449908937886983,raphael/base_link,raphael/cliff_sensor_front_link,0.156,0.0,0.0214,0.0,0.707106781185,0.0,0.707106781188,0,1494449908937886983,raphael/base_link,raphael/cliff_sensor_left_link,0.08734,0.13601,0.0214,0.0,0.707106781185,0.0,0.707106781188,0,1494449908937886983,raphael/base_link,raphael/cliff_sensor_right_link,0.085,-0.13601,0.0214,0.0,0.707106781185,0.0,0.707106781188,0,1494449908937886983,raphael/base_link,raphael/gyro_link,0.056,0.062,0.0202,0.0,0.0,0.0,1.0
1494449908777679863,0,1494449908449618225,odom,base_footprint,0.0,0.0,0.0,0.0,0.0,0.0,1.0
1494449908777689348,0,1494449908469671766,odom,base_footprint,0.0,0.0,0.0,0.0,0.0,0.0,1.0
1494449908777700232,0,1494449908971023761,raphael/base_footprint,raphael/base_link,0.0,0.0,0.0102,0.0,0.0,0.0,1.0,0,1494449908971023761,raphael/base_link,raphael/caster_back_link,-0.135,0.0,0.009,-0.707106781185,0.0,0.0,0.707106781188,0,1494449908971023761,raphael/base_link,raphael/caster_front_link,0.115,0.0,0.007,-0.707106781185,0.0,0.0,0.707106781188,0,1494449908971023761,raphael/base_link,raphael/cliff_sensor_front_link,0.156,0.0,0.0214,0.0,0.707106781185,0.0,0.707106781188,0,1494449908971023761,raphael/base_link,raphael/cliff_sensor_left_link,0.08734,0.13601,0.0214,0.0,0.707106781185,0.0,0.707106781188,0,1494449908971023761,raphael/base_link,raphael/cliff_sensor_right_link,0.085,-0.13601,0.0214,0.0,0.707106781185,0.0,0.707106781188,0,1494449908971023761,raphael/base_link,raphael/gyro_link,0.056,0.062,0.0202,0.0,0.0,0.0,1.0
1494449908777706365,0,1494449908490009306,odom,base_footprint,0.0,0.0,0.0,0.0,0.0,0.0,1.0
1494449908777719068,0,1494449908509610391,odom,base_footprint,0.0,0.0,0.0,0.0,0.0,0.0,1.0
1494449908777725521,0,1494449908469894807,raphael/base_link,raphael/wheel_left_link,0.0,0.115,0.025,-0.707106781185,0.0,0.0,0.707106781188,0,1494449908469894807,raphael/base_link,raphael/wheel_right_link,0.0,-0.115,0.025,-0.707106781185,0.0,0.0,0.707106781188
1494449908777733669,0,1494449909003795457,raphael/base_footprint,raphael/base_link,0.0,0.0,0.0102,0.0,0.0,0.0,1.0,0,1494449909003795457,raphael/base_link,raphael/caster_back_link,-0.135,0.0,0.009,-0.707106781185,0.0,0.0,0.707106781188,0,1494449909003795457,raphael/base_link,raphael/caster_front_link,0.115,0.0,0.007,-0.707106781185,0.0,0.0,0.707106781188,0,1494449909003795457,raphael/base_link,raphael/cliff_sensor_front_link,0.156,0.0,0.0214,0.0,0.707106781185,0.0,0.707106781188,0,1494449909003795457,raphael/base_link,raphael/cliff_sensor_left_link,0.08734,0.13601,0.0214,0.0,0.707106781185,0.0,0.707106781188,0,1494449909003795457,raphael/base_link,raphael/cliff_sensor_right_link,0.085,-0.13601,0.0214,0.0,0.707106781185,0.0,0.707106781188,0,1494449909003795457,raphael/base_link,raphael/gyro_link,0.056,0.062,0.0202,0.0,0.0,0.0,1.0
1494449908778087533,0,1494449908509803557,raphael/base_link,raphael/wheel_left_link,0.0,0.115,0.025,-0.707106781185,0.0,0.0,0.707106781188,0,1494449908509803557,raphael/base_link,raphael/wheel_right_link,0.0,-0.115,0.025,-0.707106781185,0.0,0.0,0.707106781188
1494449908778099020,0,1494449908529570016,odom,base_footprint,0.0,0.0,0.0,0.0,0.0,0.0,1.0
1494449908778106727,0,1494449908549658640,odom,base_footprint,0.0,0.0,0.0,0.0,0.0,0.0,1.0
1494449908778113937,0,1494449909037494399,raphael/base_footprint,raphael/base_link,0.0,0.0,0.0102,0.0,0.0,0.0,1.0,0,1494449909037494399,raphael/base_link,raphael/caster_back_link,-0.135,0.0,0.009,-0.707106781185,0.0,0.0,0.707106781188,0,1494449909037494399,raphael/base_link,raphael/caster_front_link,0.115,0.0,0.007,-0.707106781185,0.0,0.0,0.707106781188,0,1494449909037494399,raphael/base_link,raphael/cliff_sensor_front_link,0.156,0.0,0.0214,0.0,0.707106781185,0.0,0.707106781188,0,1494449909037494399,raphael/base_link,raphael/cliff_sensor_left_link,0.08734,0.13601,0.0214,0.0,0.707106781185,0.0,0.707106781188,0,1494449909037494399,raphael/base_link,raphael/cliff_sensor_right_link,0.085,-0.13601,0.0214,0.0,0.707106781185,0.0,0.707106781188,0,1494449909037494399,raphael/base_link,raphael/gyro_link,0.056,0.062,0.0202,0.0,0.0,0.0,1.0
1494449908778119271,0,1494449908549862348,raphael/base_link,raphael/wheel_left_link,0.0,0.115,0.025,-0.707106781185,0.0,0.0,0.707106781188,0,1494449908549862348,raphael/base_link,raphael/wheel_right_link,0.0,-0.115,0.025,-0.707106781185,0.0,0.0,0.707106781188
1494449908778125197,0,1494449908569593515,odom,base_footprint,0.0,0.0,0.0,0.0,0.0,0.0,1.0
1494449908778131077,0,1494449909071151842,raphael/base_footprint,raphael/base_link,0.0,0.0,0.0102,0.0,0.0,0.0,1.0,0,1494449909071151842,raphael/base_link,raphael/caster_back_link,-0.135,0.0,0.009,-0.707106781185,0.0,0.0,0.707106781188,0,1494449909071151842,raphael/base_link,raphael/caster_front_link,0.115,0.0,0.007,-0.707106781185,0.0,0.0,0.707106781188,0,1494449909071151842,raphael/base_link,raphael/cliff_sensor_front_link,0.156,0.0,0.0214,0.0,0.707106781185,0.0,0.707106781188,0,1494449909071151842,raphael/base_link,raphael/cliff_sensor_left_link,0.08734,0.13601,0.0214,0.0,0.707106781185,0.0,0.707106781188,0,1494449909071151842,raphael/base_link,raphael/cliff_sensor_right_link,0.085,-0.13601,0.0214,0.0,0.707106781185,0.0,0.707106781188,0,1494449909071151842,raphael/base_link,raphael/gyro_link,0.056,0.062,0.0202,0.0,0.0,0.0,1.0
1494449908778146940,0,1494449908590602885,odom,base_footprint,0.0,0.0,0.0,0.0,0.0,0.0,1.0
1494449908778152817,0,1494449908590775968,raphael/base_link,raphael/wheel_left_link,0.0,0.115,0.025,-0.707106781185,0.0,0.0,0.707106781188,0,1494449908590775968,raphael/base_link,raphael/wheel_right_link,0.0,-0.115,0.025,-0.707106781185,0.0,0.0,0.707106781188
1494449908778159234,0,1494449909104353078,raphael/base_footprint,raphael/base_link,0.0,0.0,0.0102,0.0,0.0,0.0,1.0,0,1494449909104353078,raphael/base_link,raphael/caster_back_link,-0.135,0.0,0.009,-0.707106781185,0.0,0.0,0.707106781188,0,1494449909104353078,raphael/base_link,raphael/caster_front_link,0.115,0.0,0.007,-0.707106781185,0.0,0.0,0.707106781188,0,1494449909104353078,raphael/base_link,raphael/cliff_sensor_front_link,0.156,0.0,0.0214,0.0,0.707106781185,0.0,0.707106781188,0,1494449909104353078,raphael/base_link,raphael/cliff_sensor_left_link,0.08734,0.13601,0.0214,0.0,0.707106781185,0.0,0.707106781188,0,1494449909104353078,raphael/base_link,raphael/cliff_sensor_right_link,0.085,-0.13601,0.0214,0.0,0.707106781185,0.0,0.707106781188,0,1494449909104353078,raphael/base_link,raphael/gyro_link,0.056,0.062,0.0202,0.0,0.0,0.0,1.0
1494449908778164809,0,1494449908609634139,odom,base_footprint,0.0,0.0,0.0,0.0,0.0,0.0,1.0
1494449908778170841,0,1494449908629903513,odom,base_footprint,0.0,0.0,0.0,0.0,0.0,0.0,1.0
1494449908778176197,0,1494449908630202053,raphael/base_link,raphael/wheel_left_link,0.0,0.115,0.025,-0.707106781185,0.0,0.0,0.707106781188,0,1494449908630202053,raphael/base_link,raphael/wheel_right_link,0.0,-0.115,0.025,-0.707106781185,0.0,0.0,0.707106781188
1494449908778182275,0,1494449909137037858,raphael/base_footprint,raphael/base_link,0.0,0.0,0.0102,0.0,0.0,0.0,1.0,0,1494449909137037858,raphael/base_link,raphael/caster_back_link,-0.135,0.0,0.009,-0.707106781185,0.0,0.0,0.707106781188,0,1494449909137037858,raphael/base_link,raphael/caster_front_link,0.115,0.0,0.007,-0.707106781185,0.0,0.0,0.707106781188,0,1494449909137037858,raphael/base_link,raphael/cliff_sensor_front_link,0.156,0.0,0.0214,0.0,0.707106781185,0.0,0.707106781188,0,1494449909137037858,raphael/base_link,raphael/cliff_sensor_left_link,0.08734,0.13601,0.0214,0.0,0.707106781185,0.0,0.707106781188,0,1494449909137037858,raphael/base_link,raphael/cliff_sensor_right_link,0.085,-0.13601,0.0214,0.0,0.707106781185,0.0,0.707106781188,0,1494449909137037858,raphael/base_link,raphael/gyro_link,0.056,0.062,0.0202,0.0,0.0,0.0,1.0
1494449908778187925,0,1494449908649565347,odom,base_footprint,0.0,0.0,0.0,0.0,0.0,0.0,1.0
1494449908778192732,0,1494449908669620305,odom,base_footprint,0.0,0.0,0.0,0.0,0.0,0.0,1.0
1494449908778206810,0,1494449909170729884,raphael/base_footprint,raphael/base_link,0.0,0.0,0.0102,0.0,0.0,0.0,1.0,0,1494449909170729884,raphael/base_link,raphael/caster_back_link,-0.135,0.0,0.009,-0.707106781185,0.0,0.0,0.707106781188,0,1494449909170729884,raphael/base_link,raphael/caster_front_link,0.115,0.0,0.007,-0.707106781185,0.0,0.0,0.707106781188,0,1494449909170729884,raphael/base_link,raphael/cliff_sensor_front_link,0.156,0.0,0.0214,0.0,0.707106781185,0.0,0.707106781188,0,1494449909170729884,raphael/base_link,raphael/cliff_sensor_left_link,0.08734,0.13601,0.0214,0.0,0.707106781185,0.0,0.707106781188,0,1494449909170729884,raphael/base_link,raphael/cliff_sensor_right_link,0.085,-0.13601,0.0214,0.0,0.707106781185,0.0,0.707106781188,0,1494449909170729884,raphael/base_link,raphael/gyro_link,0.056,0.062,0.0202,0.0,0.0,0.0,1.0
1494449908778213269,0,1494449908690289927,odom,base_footprint,0.0,0.0,0.0,0.0,0.0,0.0,1.0
1494449908778219424,0,1494449908709556930,odom,base_footprint,0.0,0.0,0.0,0.0,0.0,0.0,1.0
1494449908778225585,0,1494449908669830596,raphael/base_link,raphael/wheel_left_link,0.0,0.115,0.025,-0.707106781185,0.0,0.0,0.707106781188,0,1494449908669830596,raphael/base_link,raphael/wheel_right_link,0.0,-0.115,0.025,-0.707106781185,0.0,0.0,0.707106781188
1494449908778232196,0,1494449909203510121,raphael/base_footprint,raphael/base_link,0.0,0.0,0.0102,0.0,0.0,0.0,1.0,0,1494449909203510121,raphael/base_link,raphael/caster_back_link,-0.135,0.0,0.009,-0.707106781185,0.0,0.0,0.707106781188,0,1494449909203510121,raphael/base_link,raphael/caster_front_link,0.115,0.0,0.007,-0.707106781185,0.0,0.0,0.707106781188,0,1494449909203510121,raphael/base_link,raphael/cliff_sensor_front_link,0.156,0.0,0.0214,0.0,0.707106781185,0.0,0.707106781188,0,1494449909203510121,raphael/base_link,raphael/cliff_sensor_left_link,0.08734,0.13601,0.0214,0.0,0.707106781185,0.0,0.707106781188,0,1494449909203510121,raphael/base_link,raphael/cliff_sensor_right_link,0.085,-0.13601,0.0214,0.0,0.707106781185,0.0,0.707106781188,0,1494449909203510121,raphael/base_link,raphael/gyro_link,0.056,0.062,0.0202,0.0,0.0,0.0,1.0
1494449908778238674,0,1494449908709734345,raphael/base_link,raphael/wheel_left_link,0.0,0.115,0.025,-0.707106781185,0.0,0.0,0.707106781188,0,1494449908709734345,raphael/base_link,raphael/wheel_right_link,0.0,-0.115,0.025,-0.707106781185,0.0,0.0,0.707106781188
1494449908778247504,0,1494449908732492792,odom,base_footprint,0.0,0.0,0.0,0.0,0.0,0.0,1.0
1494449908778254173,0,1494449908749575512,odom,base_footprint,0.0,0.0,0.0,0.0,0.0,0.0,1.0
1494449908778263576,0,1494449909237204147,raphael/base_footprint,raphael/base_link,0.0,0.0,0.0102,0.0,0.0,0.0,1.0,0,1494449909237204147,raphael/base_link,raphael/caster_back_link,-0.135,0.0,0.009,-0.707106781185,0.0,0.0,0.707106781188,0,1494449909237204147,raphael/base_link,raphael/caster_front_link,0.115,0.0,0.007,-0.707106781185,0.0,0.0,0.707106781188,0,1494449909237204147,raphael/base_link,raphael/cliff_sensor_front_link,0.156,0.0,0.0214,0.0,0.707106781185,0.0,0.707106781188,0,1494449909237204147,raphael/base_link,raphael/cliff_sensor_left_link,0.08734,0.13601,0.0214,0.0,0.707106781185,0.0,0.707106781188,0,1494449909237204147,raphael/base_link,raphael/cliff_sensor_right_link,0.085,-0.13601,0.0214,0.0,0.707106781185,0.0,0.707106781188,0,1494449909237204147,raphael/base_link,raphael/gyro_link,0.056,0.062,0.0202,0.0,0.0,0.0,1.0
1494449908778271130,0,1494449908749780595,raphael/base_link,raphael/wheel_left_link,0.0,0.115,0.025,-0.707106781185,0.0,0.0,0.707106781188,0,1494449908749780595,raphael/base_link,raphael/wheel_right_link,0.0,-0.115,0.025,-0.707106781185,0.0,0.0,0.707106781188
1494449908778277085,0,1494449908770563674,odom,base_footprint,0.0,0.0,0.0,0.0,0.0,0.0,1.0
1494449908778284263,0,1494449909271173630,raphael/base_footprint,raphael/base_link,0.0,0.0,0.0102,0.0,0.0,0.0,1.0,0,1494449909271173630,raphael/base_link,raphael/caster_back_link,-0.135,0.0,0.009,-0.707106781185,0.0,0.0,0.707106781188,0,1494449909271173630,raphael/base_link,raphael/caster_front_link,0.115,0.0,0.007,-0.707106781185,0.0,0.0,0.707106781188,0,1494449909271173630,raphael/base_link,raphael/cliff_sensor_front_link,0.156,0.0,0.0214,0.0,0.707106781185,0.0,0.707106781188,0,1494449909271173630,raphael/base_link,raphael/cliff_sensor_left_link,0.08734,0.13601,0.0214,0.0,0.707106781185,0.0,0.707106781188,0,1494449909271173630,raphael/base_link,raphael/cliff_sensor_right_link,0.085,-0.13601,0.0214,0.0,0.707106781185,0.0,0.707106781188,0,1494449909271173630,raphael/base_link,raphael/gyro_link,0.056,0.062,0.0202,0.0,0.0,0.0,1.0
1494449908778291442,0,1494449908789569886,odom,base_footprint,0.0,0.0,0.0,0.0,0.0,0.0,1.0
1494449908778298124,0,1494449908789759094,raphael/base_link,raphael/wheel_left_link,0.0,0.115,0.025,-0.707106781185,0.0,0.0,0.707106781188,0,1494449908789759094,raphael/base_link,raphael/wheel_right_link,0.0,-0.115,0.025,-0.707106781185,0.0,0.0,0.707106781188
1494449908778304048,0,1494449909303496953,raphael/base_footprint,raphael/base_link,0.0,0.0,0.0102,0.0,0.0,0.0,1.0,0,1494449909303496953,raphael/base_link,raphael/caster_back_link,-0.135,0.0,0.009,-0.707106781185,0.0,0.0,0.707106781188,0,1494449909303496953,raphael/base_link,raphael/caster_front_link,0.115,0.0,0.007,-0.707106781185,0.0,0.0,0.707106781188,0,1494449909303496953,raphael/base_link,raphael/cliff_sensor_front_link,0.156,0.0,0.0214,0.0,0.707106781185,0.0,0.707106781188,0,1494449909303496953,raphael/base_link,raphael/cliff_sensor_left_link,0.08734,0.13601,0.0214,0.0,0.707106781185,0.0,0.707106781188,0,1494449909303496953,raphael/base_link,raphael/cliff_sensor_right_link,0.085,-0.13601,0.0214,0.0,0.707106781185,0.0,0.707106781188,0,1494449909303496953,raphael/base_link,raphael/gyro_link,0.056,0.062,0.0202,0.0,0.0,0.0,1.0
1494449908778311232,0,1494449908811750335,odom,base_footprint,0.0,0.0,0.0,0.0,0.0,0.0,1.0
1494449908778318058,0,1494449908829955468,odom,base_footprint,0.0,0.0,0.0,0.0,0.0,0.0,1.0
1494449908778324469,0,1494449908830224008,raphael/base_link,raphael/wheel_left_link,0.0,0.115,0.025,-0.707106781185,0.0,0.0,0.707106781188,0,1494449908830224008,raphael/base_link,raphael/wheel_right_link,0.0,-0.115,0.025,-0.707106781185,0.0,0.0,0.707106781188
1494449908782449873,0,1494449909337340145,raphael/base_footprint,raphael/base_link,0.0,0.0,0.0102,0.0,0.0,0.0,1.0,0,1494449909337340145,raphael/base_link,raphael/caster_back_link,-0.135,0.0,0.009,-0.707106781185,0.0,0.0,0.707106781188,0,1494449909337340145,raphael/base_link,raphael/caster_front_link,0.115,0.0,0.007,-0.707106781185,0.0,0.0,0.707106781188,0,1494449909337340145,raphael/base_link,raphael/cliff_sensor_front_link,0.156,0.0,0.0214,0.0,0.707106781185,0.0,0.707106781188,0,1494449909337340145,raphael/base_link,raphael/cliff_sensor_left_link,0.08734,0.13601,0.0214,0.0,0.707106781185,0.0,0.707106781188,0,1494449909337340145,raphael/base_link,raphael/cliff_sensor_right_link,0.085,-0.13601,0.0214,0.0,0.707106781185,0.0,0.707106781188,0,1494449909337340145,raphael/base_link,raphael/gyro_link,0.056,0.062,0.0202,0.0,0.0,0.0,1.0
1494449908795180751,0,1494449908849626010,odom,base_footprint,0.0,0.0,0.0,0.0,0.0,0.0,1.0
1494449908816643352,0,1494449909371447586,raphael/base_footprint,raphael/base_link,0.0,0.0,0.0102,0.0,0.0,0.0,1.0,0,1494449909371447586,raphael/base_link,raphael/caster_back_link,-0.135,0.0,0.009,-0.707106781185,0.0,0.0,0.707106781188,0,1494449909371447586,raphael/base_link,raphael/caster_front_link,0.115,0.0,0.007,-0.707106781185,0.0,0.0,0.707106781188,0,1494449909371447586,raphael/base_link,raphael/cliff_sensor_front_link,0.156,0.0,0.0214,0.0,0.707106781185,0.0,0.707106781188,0,1494449909371447586,raphael/base_link,raphael/cliff_sensor_left_link,0.08734,0.13601,0.0214,0.0,0.707106781185,0.0,0.707106781188,0,1494449909371447586,raphael/base_link,raphael/cliff_sensor_right_link,0.085,-0.13601,0.0214,0.0,0.707106781185,0.0,0.707106781188,0,1494449909371447586,raphael/base_link,raphael/gyro_link,0.056,0.062,0.0202,0.0,0.0,0.0,1.0
1494449908817678494,0,1494449908871381419,odom,base_footprint,0.0,0.0,0.0,0.0,0.0,0.0,1.0
1494449908835119188,0,1494449908889813467,odom,base_footprint,0.0,0.0,0.0,0.0,0.0,0.0,1.0
1494449908855725853,0,1494449908909461718,odom,base_footprint,0.0,0.0,0.0,0.0,0.0,0.0,1.0
1494449908855743542,0,1494449908871815251,raphael/base_link,raphael/wheel_left_link,0.0,0.115,0.025,-0.707106781185,0.0,0.0,0.707106781188,0,1494449908871815251,raphael/base_link,raphael/wheel_right_link,0.0,-0.115,0.025,-0.707106781185,0.0,0.0,0.707106781188
1494449908855761704,0,1494449909404200615,raphael/base_footprint,raphael/base_link,0.0,0.0,0.0102,0.0,0.0,0.0,1.0,0,1494449909404200615,raphael/base_link,raphael/caster_back_link,-0.135,0.0,0.009,-0.707106781185,0.0,0.0,0.707106781188,0,1494449909404200615,raphael/base_link,raphael/caster_front_link,0.115,0.0,0.007,-0.707106781185,0.0,0.0,0.707106781188,0,1494449909404200615,raphael/base_link,raphael/cliff_sensor_front_link,0.156,0.0,0.0214,0.0,0.707106781185,0.0,0.707106781188,0,1494449909404200615,raphael/base_link,raphael/cliff_sensor_left_link,0.08734,0.13601,0.0214,0.0,0.707106781185,0.0,0.707106781188,0,1494449909404200615,raphael/base_link,raphael/cliff_sensor_right_link,0.085,-0.13601,0.0214,0.0,0.707106781185,0.0,0.707106781188,0,1494449909404200615,raphael/base_link,raphael/gyro_link,0.056,0.062,0.0202,0.0,0.0,0.0,1.0
1494449908874951941,0,1494449908929482801,odom,base_footprint,0.0,0.0,0.0,0.0,0.0,0.0,1.0
1494449908894690507,0,1494449908949476801,odom,base_footprint,0.0,0.0,0.0,0.0,0.0,0.0,1.0
1494449908894994291,0,1494449908909662676,raphael/base_link,raphael/wheel_left_link,0.0,0.115,0.025,-0.707106781185,0.0,0.0,0.707106781188,0,1494449908909662676,raphael/base_link,raphael/wheel_right_link,0.0,-0.115,0.025,-0.707106781185,0.0,0.0,0.707106781188
1494449908895013265,0,1494449909437841766,raphael/base_footprint,raphael/base_link,0.0,0.0,0.0102,0.0,0.0,0.0,1.0,0,1494449909437841766,raphael/base_link,raphael/caster_back_link,-0.135,0.0,0.009,-0.707106781185,0.0,0.0,0.707106781188,0,1494449909437841766,raphael/base_link,raphael/caster_front_link,0.115,0.0,0.007,-0.707106781185,0.0,0.0,0.707106781188,0,1494449909437841766,raphael/base_link,raphael/cliff_sensor_front_link,0.156,0.0,0.0214,0.0,0.707106781185,0.0,0.707106781188,0,1494449909437841766,raphael/base_link,raphael/cliff_sensor_left_link,0.08734,0.13601,0.0214,0.0,0.707106781185,0.0,0.707106781188,0,1494449909437841766,raphael/base_link,raphael/cliff_sensor_right_link,0.085,-0.13601,0.0214,0.0,0.707106781185,0.0,0.707106781188,0,1494449909437841766,raphael/base_link,raphael/gyro_link,0.056,0.062,0.0202,0.0,0.0,0.0,1.0
1494449908917046626,0,1494449908970619129,odom,base_footprint,0.0,0.0,0.0,0.0,0.0,0.0,1.0
1494449908934717830,0,1494449908949656008,raphael/base_link,raphael/wheel_left_link,0.0,0.115,0.025,-0.707106781185,0.0,0.0,0.707106781188,0,1494449908949656008,raphael/base_link,raphael/wheel_right_link,0.0,-0.115,0.025,-0.707106781185,0.0,0.0,0.707106781188
1494449908934741191,0,1494449909470627837,raphael/base_footprint,raphael/base_link,0.0,0.0,0.0102,0.0,0.0,0.0,1.0,0,1494449909470627837,raphael/base_link,raphael/caster_back_link,-0.135,0.0,0.009,-0.707106781185,0.0,0.0,0.707106781188,0,1494449909470627837,raphael/base_link,raphael/caster_front_link,0.115,0.0,0.007,-0.707106781185,0.0,0.0,0.707106781188,0,1494449909470627837,raphael/base_link,raphael/cliff_sensor_front_link,0.156,0.0,0.0214,0.0,0.707106781185,0.0,0.707106781188,0,1494449909470627837,raphael/base_link,raphael/cliff_sensor_left_link,0.08734,0.13601,0.0214,0.0,0.707106781185,0.0,0.707106781188,0,1494449909470627837,raphael/base_link,raphael/cliff_sensor_right_link,0.085,-0.13601,0.0214,0.0,0.707106781185,0.0,0.707106781188,0,1494449909470627837,raphael/base_link,raphael/gyro_link,0.056,0.062,0.0202,0.0,0.0,0.0,1.0
1494449908936637827,0,1494449908990639754,odom,base_footprint,0.0,0.0,0.0,0.0,0.0,0.0,1.0
1494449908957512702,0,1494449909010747128,odom,base_footprint,0.0,0.0,0.0,0.0,0.0,0.0,1.0
1494449908974822925,0,1494449908990905336,raphael/base_link,raphael/wheel_left_link,0.0,0.115,0.025,-0.707106781185,0.0,0.0,0.707106781188,0,1494449908990905336,raphael/base_link,raphael/wheel_right_link,0.0,-0.115,0.025,-0.707106781185,0.0,0.0,0.707106781188
1494449908974846329,0,1494449909504352738,raphael/base_footprint,raphael/base_link,0.0,0.0,0.0102,0.0,0.0,0.0,1.0,0,1494449909504352738,raphael/base_link,raphael/caster_back_link,-0.135,0.0,0.009,-0.707106781185,0.0,0.0,0.707106781188,0,1494449909504352738,raphael/base_link,raphael/caster_front_link,0.115,0.0,0.007,-0.707106781185,0.0,0.0,0.707106781188,0,1494449909504352738,raphael/base_link,raphael/cliff_sensor_front_link,0.156,0.0,0.0214,0.0,0.707106781185,0.0,0.707106781188,0,1494449909504352738,raphael/base_link,raphael/cliff_sensor_left_link,0.08734,0.13601,0.0214,0.0,0.707106781185,0.0,0.707106781188,0,1494449909504352738,raphael/base_link,raphael/cliff_sensor_right_link,0.085,-0.13601,0.0214,0.0,0.707106781185,0.0,0.707106781188,0,1494449909504352738,raphael/base_link,raphael/gyro_link,0.056,0.062,0.0202,0.0,0.0,0.0,1.0
1494449908975865643,0,1494449909030501462,odom,base_footprint,0.0,0.0,0.0,0.0,0.0,0.0,1.0
1494449908995714797,0,1494449909050446753,odom,base_footprint,0.0,0.0,0.0,0.0,0.0,0.0,1.0
1494449909015104078,0,1494449909030695836,raphael/base_link,raphael/wheel_left_link,0.0,0.115,0.025,-0.707106781185,0.0,0.0,0.707106781188,0,1494449909030695836,raphael/base_link,raphael/wheel_right_link,0.0,-0.115,0.025,-0.707106781185,0.0,0.0,0.707106781188
1494449909015125799,0,1494449909537062684,raphael/base_footprint,raphael/base_link,0.0,0.0,0.0102,0.0,0.0,0.0,1.0,0,1494449909537062684,raphael/base_link,raphael/caster_back_link,-0.135,0.0,0.009,-0.707106781185,0.0,0.0,0.707106781188,0,1494449909537062684,raphael/base_link,raphael/caster_front_link,0.115,0.0,0.007,-0.707106781185,0.0,0.0,0.707106781188,0,1494449909537062684,raphael/base_link,raphael/cliff_sensor_front_link,0.156,0.0,0.0214,0.0,0.707106781185,0.0,0.707106781188,0,1494449909537062684,raphael/base_link,raphael/cliff_sensor_left_link,0.08734,0.13601,0.0214,0.0,0.707106781185,0.0,0.707106781188,0,1494449909537062684,raphael/base_link,raphael/cliff_sensor_right_link,0.085,-0.13601,0.0214,0.0,0.707106781185,0.0,0.707106781188,0,1494449909537062684,raphael/base_link,raphael/gyro_link,0.056,0.062,0.0202,0.0,0.0,0.0,1.0
1494449909015594915,0,1494449909069471965,odom,base_footprint,0.0,0.0,0.0,0.0,0.0,0.0,1.0
1494449909035759595,0,1494449909089526006,odom,base_footprint,0.0,0.0,0.0,0.0,0.0,0.0,1.0
1494449909049082803,0,1494449909570980792,raphael/base_footprint,raphael/base_link,0.0,0.0,0.0102,0.0,0.0,0.0,1.0,0,1494449909570980792,raphael/base_link,raphael/caster_back_link,-0.135,0.0,0.009,-0.707106781185,0.0,0.0,0.707106781188,0,1494449909570980792,raphael/base_link,raphael/caster_front_link,0.115,0.0,0.007,-0.707106781185,0.0,0.0,0.707106781188,0,1494449909570980792,raphael/base_link,raphael/cliff_sensor_front_link,0.156,0.0,0.0214,0.0,0.707106781185,0.0,0.707106781188,0,1494449909570980792,raphael/base_link,raphael/cliff_sensor_left_link,0.08734,0.13601,0.0214,0.0,0.707106781185,0.0,0.707106781188,0,1494449909570980792,raphael/base_link,raphael/cliff_sensor_right_link,0.085,-0.13601,0.0214,0.0,0.707106781185,0.0,0.707106781188,0,1494449909570980792,raphael/base_link,raphael/gyro_link,0.056,0.062,0.0202,0.0,0.0,0.0,1.0
1494449909049098479,0,1494449909069649381,raphael/base_link,raphael/wheel_left_link,0.0,0.115,0.025,-0.707106781185,0.0,0.0,0.707106781188,0,1494449909069649381,raphael/base_link,raphael/wheel_right_link,0.0,-0.115,0.025,-0.707106781185,0.0,0.0,0.707106781188
1494449909050910200,0,1494449909603781321,raphael/base_footprint,raphael/base_link,0.0,0.0,0.0102,0.0,0.0,0.0,1.0,0,1494449909603781321,raphael/base_link,raphael/caster_back_link,-0.135,0.0,0.009,-0.707106781185,0.0,0.0,0.707106781188,0,1494449909603781321,raphael/base_link,raphael/caster_front_link,0.115,0.0,0.007,-0.707106781185,0.0,0.0,0.707106781188,0,1494449909603781321,raphael/base_link,raphael/cliff_sensor_front_link,0.156,0.0,0.0214,0.0,0.707106781185,0.0,0.707106781188,0,1494449909603781321,raphael/base_link,raphael/cliff_sensor_left_link,0.08734,0.13601,0.0214,0.0,0.707106781185,0.0,0.707106781188,0,1494449909603781321,raphael/base_link,raphael/cliff_sensor_right_link,0.085,-0.13601,0.0214,0.0,0.707106781185,0.0,0.707106781188,0,1494449909603781321,raphael/base_link,raphael/gyro_link,0.056,0.062,0.0202,0.0,0.0,0.0,1.0
1494449909059628493,0,1494449909109429464,odom,base_footprint,0.0,0.0,0.0,0.0,0.0,0.0,1.0
1494449909059948594,0,1494449909109621671,raphael/base_link,raphael/wheel_left_link,0.0,0.115,0.025,-0.707106781185,0.0,0.0,0.707106781188,0,1494449909109621671,raphael/base_link,raphael/wheel_right_link,0.0,-0.115,0.025,-0.707106781185,0.0,0.0,0.707106781188
1494449909076010174,0,1494449909129660754,odom,base_footprint,0.0,0.0,0.0,0.0,0.0,0.0,1.0
1494449909082214336,0,1494449909637460138,raphael/base_footprint,raphael/base_link,0.0,0.0,0.0102,0.0,0.0,0.0,1.0,0,1494449909637460138,raphael/base_link,raphael/caster_back_link,-0.135,0.0,0.009,-0.707106781185,0.0,0.0,0.707106781188,0,1494449909637460138,raphael/base_link,raphael/caster_front_link,0.115,0.0,0.007,-0.707106781185,0.0,0.0,0.707106781188,0,1494449909637460138,raphael/base_link,raphael/cliff_sensor_front_link,0.156,0.0,0.0214,0.0,0.707106781185,0.0,0.707106781188,0,1494449909637460138,raphael/base_link,raphael/cliff_sensor_left_link,0.08734,0.13601,0.0214,0.0,0.707106781185,0.0,0.707106781188,0,1494449909637460138,raphael/base_link,raphael/cliff_sensor_right_link,0.085,-0.13601,0.0214,0.0,0.707106781185,0.0,0.707106781188,0,1494449909637460138,raphael/base_link,raphael/gyro_link,0.056,0.062,0.0202,0.0,0.0,0.0,1.0
1494449909096297587,0,1494449909150554791,odom,base_footprint,0.0,0.0,0.0,0.0,0.0,0.0,1.0
1494449909096569564,0,1494449909150776749,raphael/base_link,raphael/wheel_left_link,0.0,0.115,0.025,-0.707106781185,0.0,0.0,0.707106781188,0,1494449909150776749,raphael/base_link,raphael/wheel_right_link,0.0,-0.115,0.025,-0.707106781185,0.0,0.0,0.707106781188
1494449909116237820,0,1494449909170585666,odom,base_footprint,0.0,0.0,0.0,0.0,0.0,0.0,1.0
1494449909116263105,0,1494449909671187372,raphael/base_footprint,raphael/base_link,0.0,0.0,0.0102,0.0,0.0,0.0,1.0,0,1494449909671187372,raphael/base_link,raphael/caster_back_link,-0.135,0.0,0.009,-0.707106781185,0.0,0.0,0.707106781188,0,1494449909671187372,raphael/base_link,raphael/caster_front_link,0.115,0.0,0.007,-0.707106781185,0.0,0.0,0.707106781188,0,1494449909671187372,raphael/base_link,raphael/cliff_sensor_front_link,0.156,0.0,0.0214,0.0,0.707106781185,0.0,0.707106781188,0,1494449909671187372,raphael/base_link,raphael/cliff_sensor_left_link,0.08734,0.13601,0.0214,0.0,0.707106781185,0.0,0.707106781188,0,1494449909671187372,raphael/base_link,raphael/cliff_sensor_right_link,0.085,-0.13601,0.0214,0.0,0.707106781185,0.0,0.707106781188,0,1494449909671187372,raphael/base_link,raphael/gyro_link,0.056,0.062,0.0202,0.0,0.0,0.0,1.0
1494449909135900173,0,1494449909190479582,odom,base_footprint,0.0,0.0,0.0,0.0,0.0,0.0,1.0
1494449909138539426,0,1494449909190679956,raphael/base_link,raphael/wheel_left_link,0.0,0.115,0.025,-0.707106781185,0.0,0.0,0.707106781188,0,1494449909190679956,raphael/base_link,raphael/wheel_right_link,0.0,-0.115,0.025,-0.707106781185,0.0,0.0,0.707106781188
1494449909149251924,0,1494449909703968817,raphael/base_footprint,raphael/base_link,0.0,0.0,0.0102,0.0,0.0,0.0,1.0,0,1494449909703968817,raphael/base_link,raphael/caster_back_link,-0.135,0.0,0.009,-0.707106781185,0.0,0.0,0.707106781188,0,1494449909703968817,raphael/base_link,raphael/caster_front_link,0.115,0.0,0.007,-0.707106781185,0.0,0.0,0.707106781188,0,1494449909703968817,raphael/base_link,raphael/cliff_sensor_front_link,0.156,0.0,0.0214,0.0,0.707106781185,0.0,0.707106781188,0,1494449909703968817,raphael/base_link,raphael/cliff_sensor_left_link,0.08734,0.13601,0.0214,0.0,0.707106781185,0.0,0.707106781188,0,1494449909703968817,raphael/base_link,raphael/cliff_sensor_right_link,0.085,-0.13601,0.0214,0.0,0.707106781185,0.0,0.707106781188,0,1494449909703968817,raphael/base_link,raphael/gyro_link,0.056,0.062,0.0202,0.0,0.0,0.0,1.0
1494449909156643587,0,1494449909210550290,odom,base_footprint,0.0,0.0,0.0,0.0,0.0,0.0,1.0
1494449909193446001,0,1494449909230532706,odom,base_footprint,0.0,0.0,0.0,0.0,0.0,0.0,1.0
1494449909193464590,0,1494449909230745913,raphael/base_link,raphael/wheel_left_link,0.0,0.115,0.025,-0.707106781185,0.0,0.0,0.707106781188,0,1494449909230745913,raphael/base_link,raphael/wheel_right_link,0.0,-0.115,0.025,-0.707106781185,0.0,0.0,0.707106781188
1494449909196989369,0,1494449909250607247,odom,base_footprint,0.0,0.0,0.0,0.0,0.0,0.0,1.0
1494449909197162206,0,1494449909737778259,raphael/base_footprint,raphael/base_link,0.0,0.0,0.0102,0.0,0.0,0.0,1.0,0,1494449909737778259,raphael/base_link,raphael/caster_back_link,-0.135,0.0,0.009,-0.707106781185,0.0,0.0,0.707106781188,0,1494449909737778259,raphael/base_link,raphael/caster_front_link,0.115,0.0,0.007,-0.707106781185,0.0,0.0,0.707106781188,0,1494449909737778259,raphael/base_link,raphael/cliff_sensor_front_link,0.156,0.0,0.0214,0.0,0.707106781185,0.0,0.707106781188,0,1494449909737778259,raphael/base_link,raphael/cliff_sensor_left_link,0.08734,0.13601,0.0214,0.0,0.707106781185,0.0,0.707106781188,0,1494449909737778259,raphael/base_link,raphael/cliff_sensor_right_link,0.085,-0.13601,0.0214,0.0,0.707106781185,0.0,0.707106781188,0,1494449909737778259,raphael/base_link,raphael/gyro_link,0.056,0.062,0.0202,0.0,0.0,0.0,1.0
1494449909215619101,0,1494449909770584580,raphael/base_footprint,raphael/base_link,0.0,0.0,0.0102,0.0,0.0,0.0,1.0,0,1494449909770584580,raphael/base_link,raphael/caster_back_link,-0.135,0.0,0.009,-0.707106781185,0.0,0.0,0.707106781188,0,1494449909770584580,raphael/base_link,raphael/caster_front_link,0.115,0.0,0.007,-0.707106781185,0.0,0.0,0.707106781188,0,1494449909770584580,raphael/base_link,raphael/cliff_sensor_front_link,0.156,0.0,0.0214,0.0,0.707106781185,0.0,0.707106781188,0,1494449909770584580,raphael/base_link,raphael/cliff_sensor_left_link,0.08734,0.13601,0.0214,0.0,0.707106781185,0.0,0.707106781188,0,1494449909770584580,raphael/base_link,raphael/cliff_sensor_right_link,0.085,-0.13601,0.0214,0.0,0.707106781185,0.0,0.707106781188,0,1494449909770584580,raphael/base_link,raphael/gyro_link,0.056,0.062,0.0202,0.0,0.0,0.0,1.0
1494449909216086256,0,1494449909270537538,odom,base_footprint,0.0,0.0,0.0,0.0,0.0,0.0,1.0
1494449909238078777,0,1494449909290426038,odom,base_footprint,0.0,0.0,0.0,0.0,0.0,0.0,1.0
1494449909255876314,0,1494449909310467412,odom,base_footprint,0.0,0.0,0.0,0.0,0.0,0.0,1.0
1494449909258245101,0,1494449909270735871,raphael/base_link,raphael/wheel_left_link,0.0,0.115,0.025,-0.707106781185,0.0,0.0,0.707106781188,0,1494449909270735871,raphael/base_link,raphael/wheel_right_link,0.0,-0.115,0.025,-0.707106781185,0.0,0.0,0.707106781188
1494449909258263975,0,1494449909804326480,raphael/base_footprint,raphael/base_link,0.0,0.0,0.0102,0.0,0.0,0.0,1.0,0,1494449909804326480,raphael/base_link,raphael/caster_back_link,-0.135,0.0,0.009,-0.707106781185,0.0,0.0,0.707106781188,0,1494449909804326480,raphael/base_link,raphael/caster_front_link,0.115,0.0,0.007,-0.707106781185,0.0,0.0,0.707106781188,0,1494449909804326480,raphael/base_link,raphael/cliff_sensor_front_link,0.156,0.0,0.0214,0.0,0.707106781185,0.0,0.707106781188,0,1494449909804326480,raphael/base_link,raphael/cliff_sensor_left_link,0.08734,0.13601,0.0214,0.0,0.707106781185,0.0,0.707106781188,0,1494449909804326480,raphael/base_link,raphael/cliff_sensor_right_link,0.085,-0.13601,0.0214,0.0,0.707106781185,0.0,0.707106781188,0,1494449909804326480,raphael/base_link,raphael/gyro_link,0.056,0.062,0.0202,0.0,0.0,0.0,1.0
1494449909258272156,0,1494449909310670453,raphael/base_link,raphael/wheel_left_link,0.0,0.115,0.025,-0.707106781185,0.0,0.0,0.707106781188,0,1494449909310670453,raphael/base_link,raphael/wheel_right_link,0.0,-0.115,0.025,-0.707106781185,0.0,0.0,0.707106781188
1494449909275927537,0,1494449909330430704,odom,base_footprint,0.0,0.0,0.0,0.0,0.0,0.0,1.0
1494449909297772412,0,1494449909351555073,odom,base_footprint,0.0,0.0,0.0,0.0,0.0,0.0,1.0
1494449909299515157,0,1494449909837122176,raphael/base_footprint,raphael/base_link,0.0,0.0,0.0102,0.0,0.0,0.0,1.0,0,1494449909837122176,raphael/base_link,raphael/caster_back_link,-0.135,0.0,0.009,-0.707106781185,0.0,0.0,0.707106781188,0,1494449909837122176,raphael/base_link,raphael/caster_front_link,0.115,0.0,0.007,-0.707106781185,0.0,0.0,0.707106781188,0,1494449909837122176,raphael/base_link,raphael/cliff_sensor_front_link,0.156,0.0,0.0214,0.0,0.707106781185,0.0,0.707106781188,0,1494449909837122176,raphael/base_link,raphael/cliff_sensor_left_link,0.08734,0.13601,0.0214,0.0,0.707106781185,0.0,0.707106781188,0,1494449909837122176,raphael/base_link,raphael/cliff_sensor_right_link,0.085,-0.13601,0.0214,0.0,0.707106781185,0.0,0.707106781188,0,1494449909837122176,raphael/base_link,raphael/gyro_link,0.056,0.062,0.0202,0.0,0.0,0.0,1.0
1494449909299614328,0,1494449909351912822,raphael/base_link,raphael/wheel_left_link,0.0,0.115,0.025,-0.707106781185,0.0,0.0,0.707106781188,0,1494449909351912822,raphael/base_link,raphael/wheel_right_link,0.0,-0.115,0.025,-0.707106781185,0.0,0.0,0.707106781188
1494449909316356665,0,1494449909870875867,raphael/base_footprint,raphael/base_link,0.0,0.0,0.0102,0.0,0.0,0.0,1.0,0,1494449909870875867,raphael/base_link,raphael/caster_back_link,-0.135,0.0,0.009,-0.707106781185,0.0,0.0,0.707106781188,0,1494449909870875867,raphael/base_link,raphael/caster_front_link,0.115,0.0,0.007,-0.707106781185,0.0,0.0,0.707106781188,0,1494449909870875867,raphael/base_link,raphael/cliff_sensor_front_link,0.156,0.0,0.0214,0.0,0.707106781185,0.0,0.707106781188,0,1494449909870875867,raphael/base_link,raphael/cliff_sensor_left_link,0.08734,0.13601,0.0214,0.0,0.707106781185,0.0,0.707106781188,0,1494449909870875867,raphael/base_link,raphael/cliff_sensor_right_link,0.085,-0.13601,0.0214,0.0,0.707106781185,0.0,0.707106781188,0,1494449909870875867,raphael/base_link,raphael/gyro_link,0.056,0.062,0.0202,0.0,0.0,0.0,1.0
1494449909317862389,0,1494449909370754035,odom,base_footprint,0.0,0.0,0.0,0.0,0.0,0.0,1.0
1494449909340228904,0,1494449909392866317,odom,base_footprint,0.0,0.0,0.0,0.0,0.0,0.0,1.0
1494449909342038459,0,1494449909393328690,raphael/base_link,raphael/wheel_left_link,0.0,0.115,0.025,-0.707106781185,0.0,0.0,0.707106781188,0,1494449909393328690,raphael/base_link,raphael/wheel_right_link,0.0,-0.115,0.025,-0.707106781185,0.0,0.0,0.707106781188
1494449909349901886,0,1494449909904011937,raphael/base_footprint,raphael/base_link,0.0,0.0,0.0102,0.0,0.0,0.0,1.0,0,1494449909904011937,raphael/base_link,raphael/caster_back_link,-0.135,0.0,0.009,-0.707106781185,0.0,0.0,0.707106781188,0,1494449909904011937,raphael/base_link,raphael/caster_front_link,0.115,0.0,0.007,-0.707106781185,0.0,0.0,0.707106781188,0,1494449909904011937,raphael/base_link,raphael/cliff_sensor_front_link,0.156,0.0,0.0214,0.0,0.707106781185,0.0,0.707106781188,0,1494449909904011937,raphael/base_link,raphael/cliff_sensor_left_link,0.08734,0.13601,0.0214,0.0,0.707106781185,0.0,0.707106781188,0,1494449909904011937,raphael/base_link,raphael/cliff_sensor_right_link,0.085,-0.13601,0.0214,0.0,0.707106781185,0.0,0.707106781188,0,1494449909904011937,raphael/base_link,raphael/gyro_link,0.056,0.062,0.0202,0.0,0.0,0.0,1.0
1494449909357982115,0,1494449909412300069,odom,base_footprint,0.0,0.0,0.0,0.0,0.0,0.0,1.0
1494449909379243984,0,1494449909430419159,odom,base_footprint,0.0,0.0,0.0,0.0,0.0,0.0,1.0
1494449909379289338,0,1494449909430614325,raphael/base_link,raphael/wheel_left_link,0.0,0.115,0.025,-0.707106781185,0.0,0.0,0.707106781188,0,1494449909430614325,raphael/base_link,raphael/wheel_right_link,0.0,-0.115,0.025,-0.707106781185,0.0,0.0,0.707106781188
1494449909382966967,0,1494449909937310630,raphael/base_footprint,raphael/base_link,0.0,0.0,0.0102,0.0,0.0,0.0,1.0,0,1494449909937310630,raphael/base_link,raphael/caster_back_link,-0.135,0.0,0.009,-0.707106781185,0.0,0.0,0.707106781188,0,1494449909937310630,raphael/base_link,raphael/caster_front_link,0.115,0.0,0.007,-0.707106781185,0.0,0.0,0.707106781188,0,1494449909937310630,raphael/base_link,raphael/cliff_sensor_front_link,0.156,0.0,0.0214,0.0,0.707106781185,0.0,0.707106781188,0,1494449909937310630,raphael/base_link,raphael/cliff_sensor_left_link,0.08734,0.13601,0.0214,0.0,0.707106781185,0.0,0.707106781188,0,1494449909937310630,raphael/base_link,raphael/cliff_sensor_right_link,0.085,-0.13601,0.0214,0.0,0.707106781185,0.0,0.707106781188,0,1494449909937310630,raphael/base_link,raphael/gyro_link,0.056,0.062,0.0202,0.0,0.0,0.0,1.0
1494449909395762087,0,1494449909450495867,odom,base_footprint,0.0,0.0,0.0,0.0,0.0,0.0,1.0
1494449909417209539,0,1494449909970924948,raphael/base_footprint,raphael/base_link,0.0,0.0,0.0102,0.0,0.0,0.0,1.0,0,1494449909970924948,raphael/base_link,raphael/caster_back_link,-0.135,0.0,0.009,-0.707106781185,0.0,0.0,0.707106781188,0,1494449909970924948,raphael/base_link,raphael/caster_front_link,0.115,0.0,0.007,-0.707106781185,0.0,0.0,0.707106781188,0,1494449909970924948,raphael/base_link,raphael/cliff_sensor_front_link,0.156,0.0,0.0214,0.0,0.707106781185,0.0,0.707106781188,0,1494449909970924948,raphael/base_link,raphael/cliff_sensor_left_link,0.08734,0.13601,0.0214,0.0,0.707106781185,0.0,0.707106781188,0,1494449909970924948,raphael/base_link,raphael/cliff_sensor_right_link,0.085,-0.13601,0.0214,0.0,0.707106781185,0.0,0.707106781188,0,1494449909970924948,raphael/base_link,raphael/gyro_link,0.056,0.062,0.0202,0.0,0.0,0.0,1.0
1494449909417720207,0,1494449909470381492,odom,base_footprint,0.0,0.0,0.0,0.0,0.0,0.0,1.0
1494449909436197611,0,1494449909490498991,odom,base_footprint,0.0,0.0,0.0,0.0,0.0,0.0,1.0
1494449909486394072,0,1494449909512668481,odom,base_footprint,0.0,0.0,0.0,0.0,0.0,0.0,1.0
