%time,field.header.seq,field.header.stamp,field.header.frame_id,field.time_stamp,field.bumper,field.wheel_drop,field.cliff,field.left_encoder,field.right_encoder,field.left_pwm,field.right_pwm,field.buttons,field.charger,field.battery,field.bottom0,field.bottom1,field.bottom2,field.current0,field.current1,field.over_current,field.digital_input,field.analog_input0,field.analog_input1,field.analog_input2,field.analog_input3
1494449908773128747,24,1494449906828639784,,22620,0,0,0,62379,48960,0,0,0,0,157,1550,1903,1622,0,0,0,0,4081,4066,4067,4075
1494449908773154637,25,1494449906848379493,,22640,0,0,0,62379,48960,0,0,0,0,157,1552,1903,1627,0,0,0,0,4069,4070,4069,4079
1494449908773205397,26,1494449906869025532,,22660,0,0,0,62379,48960,0,0,0,0,157,1552,1904,1647,0,0,0,0,4065,4078,4074,4081
1494449908773215709,27,1494449906888286494,,22680,0,0,0,62379,48960,0,0,0,0,157,1553,1904,1647,0,0,0,0,4074,4072,4076,4082
1494449908773243280,28,1494449906908261411,,22700,0,0,0,62379,48960,0,0,0,0,157,1553,1904,1645,0,0,0,0,4070,4082,4081,4072
1494449908773319868,29,1494449906928211286,,22720,0,0,0,62379,48960,0,0,0,0,157,1552,1905,1646,0,0,0,0,4076,4076,4088,4065
1494449908773324866,30,1494449906948297869,,22740,0,0,0,62379,48960,0,0,0,0,157,1554,1905,1647,0,0,0,0,4078,4083,4065,4063
1494449908773542744,31,1494449906968264286,,22760,0,0,0,62379,48960,0,0,0,0,157,1581,1907,1647,0,0,0,0,4077,4077,4070,4079
1494449908773551484,32,1494449906987240874,,22780,0,0,0,62379,48960,0,0,0,0,157,1581,1907,1624,0,0,0,0,4070,4072,4067,4077
1494449908773565576,33,1494449907007260540,,22800,0,0,0,62379,48960,0,0,0,0,157,1552,1903,1645,0,0,0,0,4064,4072,4071,4081
1494449908773572873,34,1494449907027229957,,22820,0,0,0,62379,48960,0,0,0,0,157,1553,1909,1645,0,0,0,0,4072,4075,4072,4081
1494449908773581063,35,1494449907048159995,,22840,0,0,0,62379,48960,0,0,0,0,157,1577,1909,1627,0,0,0,0,4069,4079,4080,4082
1494449908773594340,36,1494449907068129411,,22860,0,0,0,62379,48960,0,0,0,0,157,1577,1904,1623,0,0,0,0,4072,4080,4084,4069
1494449908773608638,37,1494449907089094699,,22880,0,0,0,62379,48960,0,0,0,0,157,1553,1904,1623,0,0,0,0,4074,4081,4074,4066
1494449908774904393,38,1494449907108174619,,22900,0,0,0,62379,48960,0,0,0,0,157,1576,1904,1624,0,0,0,0,4080,4077,4062,4073
1494449908774922258,39,1494449907128112078,,22920,0,0,0,62379,48960,0,0,0,0,157,1576,1903,1624,0,0,0,0,4074,4069,4069,4080
1494449908774928431,40,1494449907148099911,,22940,0,0,0,62379,48960,0,0,0,0,157,1576,1906,1624,0,0,0,0,4071,4079,4080,4086
1494449908774940480,41,1494449907168166910,,22960,0,0,0,62379,48960,0,0,0,0,157,1563,1906,1643,0,0,0,0,4072,4073,4075,4086
1494449908774951081,42,1494449907189632321,,22980,0,0,0,62379,48960,0,0,0,0,157,1552,1904,1647,0,0,0,0,4067,4076,4079,4081
1494449908774966591,43,1494449907208114160,,23000,0,0,0,62379,48960,0,0,0,0,157,1553,1903,1647,0,0,0,0,4074,4081,4074,4067
1494449908774974091,44,1494449907228096327,,23020,0,0,0,62379,48960,0,0,0,0,157,1553,1903,1646,0,0,0,0,4080,4073,4063,4071
1494449908774984959,45,1494449907248143827,,23040,0,0,0,62379,48960,0,0,0,0,157,1552,1905,1646,0,0,0,0,4069,4070,4073,4075
1494449908774996770,46,1494449907269251947,,23060,0,0,0,62379,48960,0,0,0,0,157,1551,1905,1643,0,0,0,0,4066,4075,4080,4082
1494449908775011780,47,1494449907288236909,,23080,0,0,0,62379,48960,0,0,0,0,157,1552,1904,1647,0,0,0,0,4070,4080,4076,4083
1494449908775017746,48,1494449907308738657,,23100,0,0,0,62379,48960,0,0,0,0,157,1556,1903,1647,0,0,0,0,4071,4079,4085,4072
1494449908775335101,49,1494449907328330117,,23120,0,0,0,62379,48960,0,0,0,0,157,1556,1903,1647,0,0,0,0,4070,4081,4071,4066
1494449908775350497,50,1494449907348869740,,23140,0,0,0,62379,48960,0,0,0,0,157,1552,1907,1647,0,0,0,0,4080,4074,4063,4069
1494449908775365182,51,1494449907368138034,,23160,0,0,0,62379,48960,0,0,0,0,157,1553,1907,1623,0,0,0,0,4074,4073,4064,4075
1494449908775373898,52,1494449907388096909,,23180,0,0,0,62379,48960,0,0,0,0,157,1554,1904,1623,0,0,0,0,4068,4071,4075,4075
1494449908776810081,53,1494449907408229659,,23200,0,0,0,62379,48960,0,0,0,0,157,1554,1904,1637,0,0,0,0,4064,4073,4077,4087
1494449908776828928,54,1494449907428313908,,23220,0,0,0,62379,48960,0,0,0,0,157,1554,1906,1645,0,0,0,0,4068,4076,4076,4086
1494449908776841357,55,1494449907448268325,,23240,0,0,0,62379,48960,0,0,0,0,157,1554,1906,1649,0,0,0,0,4074,4080,4081,4072
1494449908776854523,56,1494449907469983776,,23260,0,0,0,62379,48960,0,0,0,0,157,1551,1909,1649,0,0,0,0,4075,4081,4070,4069
1494449908776887715,57,1494449907488519074,,23280,0,0,0,62379,48960,0,0,0,0,157,1553,1909,1649,0,0,0,0,4074,4072,4064,4075
1494449908776913860,58,1494449907508859572,,23300,0,0,0,62379,48960,0,0,0,0,157,1553,1905,1647,0,0,0,0,4064,4071,4072,4080
1494449908777359332,59,1494449907528707823,,23320,0,0,0,62379,48960,0,0,0,0,157,1551,1904,1640,0,0,0,0,4066,4075,4077,4085
1494449908777364321,60,1494449907548049742,,23340,0,0,0,62379,48960,0,0,0,0,157,1553,1906,1625,0,0,0,0,4069,4075,4078,4074
1494449908777392936,61,1494449907568065325,,23360,0,0,0,62379,48960,0,0,0,0,157,1553,1907,1647,0,0,0,0,4079,4081,4065,4066
1494449908777397647,62,1494449907588154325,,23380,0,0,0,62379,48960,0,0,0,0,157,1551,1907,1647,0,0,0,0,4079,4073,4065,4075
1494449908777407195,63,1494449907608121075,,23400,0,0,0,62379,48960,0,0,0,0,157,1553,1904,1645,0,0,0,0,4065,4074,4076,4080
1494449908777411949,64,1494449907629109904,,23420,0,0,0,62379,48960,0,0,0,0,157,1558,1904,1645,0,0,0,0,4067,4078,4082,4082
1494449908777418418,65,1494449907661019562,,23440,0,0,0,62379,48960,0,0,0,0,157,1558,1901,1622,0,0,0,0,4074,4083,4075,4077
1494449908777424825,66,1494449907669502277,,23460,0,0,0,62379,48960,0,0,0,0,157,1554,1904,1646,0,0,0,0,4073,4078,4074,4066
1494449908777430266,67,1494449907689162612,,23480,0,0,0,62379,48960,0,0,0,0,157,1554,1904,1646,0,0,0,0,4074,4073,4063,4069
1494449908777434441,68,1494449907710526814,,23500,0,0,0,62379,48960,0,0,0,0,157,1554,1903,1645,0,0,0,0,4073,4073,4073,4082
1494449908777441091,69,1494449907729700567,,23520,0,0,0,62379,48960,0,0,0,0,157,1552,1902,1645,0,0,0,0,4069,4076,4070,4078
1494449908777447676,70,1494449907749261402,,23540,0,0,0,62379,48960,0,0,0,0,157,1552,1907,1645,0,0,0,0,4067,4078,4082,4082
1494449908777466175,71,1494449907769578901,,23560,0,0,0,62379,48960,0,0,0,0,157,1551,1907,1645,0,0,0,0,4071,4084,4082,4070
1494449908777473260,72,1494449907789128778,,23580,0,0,0,62379,48960,0,0,0,0,157,1557,1907,1643,0,0,0,0,4075,4081,4069,4067
1494449908777477212,73,1494449907809014403,,23600,0,0,0,62379,48960,0,0,0,0,157,1557,1906,1643,0,0,0,0,4073,4070,4068,4080
1494449908777483331,74,1494449907829142694,,23620,0,0,0,62379,48960,0,0,0,0,157,1554,1906,1641,0,0,0,0,4066,4071,4073,4085
1494449908777491823,75,1494449907848956945,,23640,0,0,0,62379,48960,0,0,0,0,157,1553,1906,1641,0,0,0,0,4069,4073,4074,4085
1494449908777498668,76,1494449907869112944,,23660,0,0,0,62379,48960,0,0,0,0,157,1553,1904,1645,0,0,0,0,4071,4084,4076,4073
1494449908777505506,77,1494449907890196689,,23680,0,0,0,62379,48960,0,0,0,0,157,1557,1903,1645,0,0,0,0,4077,4079,4070,4066
1494449908777511276,78,1494449907911174685,,23700,0,0,0,62379,48960,0,0,0,0,157,1557,1903,1645,0,0,0,0,4074,4074,4069,4073
1494449908777519808,79,1494449907929126152,,23720,0,0,0,62379,48960,0,0,0,0,157,1554,1908,1645,0,0,0,0,4069,4070,4070,4082
1494449908777529219,80,1494449907949027527,,23740,0,0,0,62379,48960,0,0,0,0,157,1552,1908,1630,0,0,0,0,4066,4072,4073,4081
1494449908777545356,81,1494449907969155485,,23760,0,0,0,62379,48960,0,0,0,0,157,1556,1908,1645,0,0,0,0,4073,4076,4077,4084
1494449908777551174,82,1494449907989034277,,23780,0,0,0,62379,48960,0,0,0,0,157,1556,1906,1645,0,0,0,0,4071,4077,4083,4075
1494449908777557568,83,1494449908009004069,,23800,0,0,0,62379,48960,0,0,0,0,157,1554,1906,1642,0,0,0,0,4073,4081,4068,4067
1494449908777563123,84,1494449908030172022,,23820,0,0,0,62379,48960,0,0,0,0,157,1555,1902,1623,0,0,0,0,4080,4074,4064,4072
1494449908777567988,85,1494449908049252192,,23840,0,0,0,62379,48960,0,0,0,0,157,1555,1904,1623,0,0,0,0,4068,4076,4070,4080
1494449908777576543,86,1494449908069046067,,23860,0,0,0,62379,48960,0,0,0,0,157,1555,1904,1644,0,0,0,0,4069,4080,4073,4084
1494449908777708522,87,1494449908089064192,,23880,0,0,0,62379,48960,0,0,0,0,157,1580,1903,1644,0,0,0,0,4071,4077,4077,4074
1494449908777714376,88,1494449908109928188,,23900,0,0,0,62379,48960,0,0,0,0,157,1580,1903,1645,0,0,0,0,4080,4078,4065,4068
1494449908777732975,89,1494449908129113024,,23920,0,0,0,62379,48960,0,0,0,0,157,1580,1906,1645,0,0,0,0,4067,4067,4068,4079
1494449908777739636,90,1494449908149078483,,23940,0,0,0,62379,48960,0,0,0,0,157,1554,1907,1645,0,0,0,0,4064,4072,4073,4083
1494449908777744414,91,1494449908168938566,,23960,0,0,0,62379,48960,0,0,0,0,157,1560,1907,1645,0,0,0,0,4068,4075,4075,4088
1494449908777767334,92,1494449908188947232,,23980,0,0,0,62379,48960,0,0,0,0,157,1560,1902,1647,0,0,0,0,4071,4077,4076,4070
1494449908777773961,93,1494449908210291768,,24000,0,0,0,62379,48960,0,0,0,0,157,1558,1905,1647,0,0,0,0,4074,4079,4072,4065
1494449908777781219,94,1494449908229292230,,24020,0,0,0,62379,48960,0,0,0,0,157,1558,1905,1647,0,0,0,0,4076,4075,4064,4074
1494449908777786265,95,1494449908249186522,,24040,0,0,0,62379,48960,0,0,0,0,157,1553,1904,1647,0,0,0,0,4066,4067,4071,4082
1494449908777792440,96,1494449908270292059,,24060,0,0,0,62379,48960,0,0,0,0,157,1553,1904,1644,0,0,0,0,4064,4075,4076,4077
1494449908777800240,97,1494449908290009060,,24080,0,0,0,62379,48960,0,0,0,0,157,1559,1908,1645,0,0,0,0,4068,4076,4075,4086
1494449908777807289,98,1494449908308896189,,24100,0,0,0,62379,48960,0,0,0,0,157,1559,1908,1645,0,0,0,0,4071,4078,4084,4079
1494449908777812453,99,1494449908329033230,,24120,0,0,0,62379,48960,0,0,0,0,157,1554,1907,1648,0,0,0,0,4073,4079,4069,4065
1494449908777817064,100,1494449908349781143,,24140,0,0,0,62379,48960,0,0,0,0,157,1554,1907,1648,0,0,0,0,4075,4073,4063,4076
1494449908777822712,101,1494449908369014979,,24160,0,0,0,62379,48960,0,0,0,0,157,1554,1906,1648,0,0,0,0,4074,4068,4071,4082
1494449908777901142,102,1494449908389819850,,24180,0,0,0,62379,48960,0,0,0,0,157,1552,1905,1642,0,0,0,0,4070,4071,4072,4084
1494449908777918086,103,1494449908409870225,,24200,0,0,0,62379,48960,0,0,0,0,157,1553,1905,1645,0,0,0,0,4067,4076,4079,4090
1494449908777932359,104,1494449908429830933,,24220,0,0,0,62379,48960,0,0,0,0,157,1558,1904,1645,0,0,0,0,4073,4078,4079,4067
1494449908777937808,105,1494449908449917391,,24240,0,0,0,62379,48960,0,0,0,0,157,1558,1902,1633,0,0,0,0,4080,4086,4069,4073
1494449908777942798,106,1494449908469954015,,24260,0,0,0,62379,48960,0,0,0,0,157,1558,1905,1633,0,0,0,0,4068,4065,4066,4075
1494449908777949137,107,1494449908490692012,,24280,0,0,0,62379,48960,0,0,0,0,157,1553,1905,1647,0,0,0,0,4064,4078,4075,4079
1494449908777993107,108,1494449908509858473,,24300,0,0,0,62379,48960,0,0,0,0,157,1553,1904,1647,0,0,0,0,4073,4074,4075,4086
1494449908778014999,109,1494449908529804723,,24320,0,0,0,62379,48960,0,0,0,0,157,1553,1906,1647,0,0,0,0,4077,4084,4084,4068
1494449908778021739,110,1494449908549905847,,24340,0,0,0,62379,48960,0,0,0,0,157,1550,1910,1646,0,0,0,0,4079,4070,4063,4072
1494449908778030788,111,1494449908569966680,,24360,0,0,0,62379,48960,0,0,0,0,157,1552,1910,1643,0,0,0,0,4067,4067,4069,4081
1494449908778037872,112,1494449908590824260,,24380,0,0,0,62379,48960,0,0,0,0,157,1552,1904,1646,0,0,0,0,4063,4073,4076,4087
1494449908778066597,113,1494449908609938888,,24400,0,0,0,62379,48960,0,0,0,0,157,1555,1904,1646,0,0,0,0,4071,4081,4073,4082
1494449908778093634,114,1494449908630251011,,24420,0,0,0,62379,48960,0,0,0,0,157,1580,1906,1645,0,0,0,0,4076,4082,4064,4060
1494449908778117145,115,1494449908649860721,,24440,0,0,0,62379,48960,0,0,0,0,157,1580,1906,1642,0,0,0,0,4075,4073,4063,4076
1494449908778135042,116,1494449908669868846,,24460,0,0,0,62379,48960,0,0,0,0,157,1573,1905,1645,0,0,0,0,4068,4069,4075,4082
1494449908778181218,117,1494449908690936716,,24480,0,0,0,62379,48960,0,0,0,0,157,1553,1905,1645,0,0,0,0,4067,4074,4075,4084
1494449908778195255,118,1494449908709785720,,24500,0,0,0,62379,48960,0,0,0,0,157,1556,1906,1626,0,0,0,0,4071,4077,4077,4069
1494449908778222263,119,1494449908732790832,,24520,0,0,0,62379,48960,0,0,0,0,157,1556,1906,1625,0,0,0,0,4077,4079,4069,4065
1494449908778238671,120,1494449908749834428,,24540,0,0,0,62379,48960,0,0,0,0,157,1556,1906,1625,0,0,0,0,4075,4077,4066,4069
1494449908778256586,121,1494449908770940173,,24560,0,0,0,62379,48960,0,0,0,0,157,1552,1903,1646,0,0,0,0,4067,4074,4069,4081
1494449908778271659,122,1494449908789995051,,24580,0,0,0,62379,48960,0,0,0,0,157,1552,1903,1647,0,0,0,0,4066,4074,4075,4088
1494449908778345628,123,1494449908813780577,,24600,0,0,0,62379,48960,0,0,0,0,157,1554,1901,1647,0,0,0,0,4072,4080,4082,4072
1494449908778355485,124,1494449908830269050,,24620,0,0,0,62379,48960,0,0,0,0,157,1554,1901,1640,0,0,0,0,4076,4078,4071,4063
1494449908798016962,125,1494449908850172508,,24640,0,0,0,62379,48960,0,0,0,0,157,1554,1896,1649,0,0,0,0,4075,4078,4062,4071
1494449908817666279,126,1494449908871859542,,24660,0,0,0,62379,48960,0,0,0,0,157,1554,1880,1649,0,0,0,0,4076,4067,4067,4077
1494449908835714023,127,1494449908890418965,,24680,0,0,0,62379,48960,0,0,0,0,157,1557,1904,1645,0,0,0,0,4065,4070,4072,4084
1494449908856553216,128,1494449908909717509,,24700,0,0,0,62379,48960,0,0,0,0,157,1557,1907,1644,0,0,0,0,4068,4076,4075,4089
1494449908876716682,129,1494449908929747092,,24720,0,0,0,62379,48960,0,0,0,0,157,1557,1907,1643,0,0,0,0,4072,4078,4077,4074
1494449908895839813,130,1494449908949852341,,24740,0,0,0,62379,48960,0,0,0,0,157,1555,1905,1649,0,0,0,0,4076,4085,4064,4068
1494449908916323683,131,1494449908970941878,,24760,0,0,0,62379,48960,0,0,0,0,157,1554,1905,1649,0,0,0,0,4076,4066,4067,4072
1494449908937235976,132,1494449908991081793,,24780,0,0,0,62379,48960,0,0,0,0,157,1556,1904,1648,0,0,0,0,4070,4071,4071,4077
1494449908958698329,133,1494449909011780415,,24800,0,0,0,62379,48960,0,0,0,0,157,1556,1903,1648,0,0,0,0,4074,4075,4076,4089
1494449908975810770,134,1494449909030779752,,24820,0,0,0,62379,48960,0,0,0,0,157,1554,1903,1648,0,0,0,0,4078,4076,4080,4066
1494449908996431889,135,1494449909050886668,,24840,0,0,0,62379,48960,0,0,0,0,157,1553,1902,1642,0,0,0,0,4082,4074,4061,4070
1494449909015579158,136,1494449909069798005,,24860,0,0,0,62379,48960,0,0,0,0,157,1555,1906,1645,0,0,0,0,4071,4073,4067,4077
1494449909035443875,137,1494449909089866338,,24880,0,0,0,62379,48960,0,0,0,0,157,1569,1906,1645,0,0,0,0,4065,4074,4071,4079
1494449909055009361,138,1494449909109737754,,24900,0,0,0,62379,48960,0,0,0,0,157,1569,1907,1645,0,0,0,0,4075,4080,4080,4084
1494449909077742906,139,1494449909130441001,,24920,0,0,0,62379,48960,0,0,0,0,157,1554,1907,1644,0,0,0,0,4071,4078,4084,4068
1494449909097443817,140,1494449909150845290,,24940,0,0,0,62379,48960,0,0,0,0,157,1551,1907,1622,0,0,0,0,4080,4079,4065,4068
1494449909117048792,141,1494449909170939498,,24960,0,0,0,62379,48960,0,0,0,0,157,1552,1905,1646,0,0,0,0,4077,4075,4065,4075
1494449909139299799,142,1494449909190737706,,24980,0,0,0,62379,48960,0,0,0,0,157,1555,1905,1646,0,0,0,0,4072,4076,4076,4084
1494449909156643583,143,1494449909210801122,,25000,0,0,0,62379,48960,0,0,0,0,157,1558,1905,1646,0,0,0,0,4067,4073,4075,4086
1494449909180882424,144,1494449909230781372,,25020,0,0,0,62379,48960,0,0,0,0,157,1558,1906,1626,0,0,0,0,4075,4074,4077,4085
1494449909196771367,145,1494449909250965412,,25040,0,0,0,62379,48960,0,0,0,0,157,1558,1906,1643,0,0,0,0,4072,4082,4083,4062
1494449909217321753,146,1494449909270820662,,25060,0,0,0,62379,48960,0,0,0,0,157,1551,1906,1643,0,0,0,0,4081,4080,4065,4066
1494449909243046337,147,1494449909290698162,,25080,0,0,0,62379,48960,0,0,0,0,157,1554,1905,1643,0,0,0,0,4075,4069,4066,4079
1494449909256854932,148,1494449909310731495,,25100,0,0,0,62379,48960,0,0,0,0,157,1559,1908,1623,0,0,0,0,4070,4073,4069,4079
1494449909277500095,149,1494449909330794327,,25120,0,0,0,62379,48960,0,0,0,0,157,1559,1908,1623,0,0,0,0,4067,4076,4080,4083
1494449909299486835,150,1494449909351995780,,25140,0,0,0,62379,48960,0,0,0,0,157,1553,1908,1645,0,0,0,0,4076,4079,4076,4074
1494449909317493469,151,1494449909371102908,,25160,0,0,0,62379,48960,0,0,0,0,157,1553,1904,1645,0,0,0,0,4070,4078,4073,4068
1494449909342038463,152,1494449909393482939,,25180,0,0,0,62379,48960,0,0,0,0,157,1554,1904,1641,0,0,0,0,4073,4074,4063,4072
1494449909357680701,153,1494449909412555776,,25200,0,0,0,62379,48960,0,0,0,0,157,1554,1900,1645,0,0,0,0,4067,4069,4066,4078
1494449909379029370,154,1494449909430649992,,25220,0,0,0,62379,48960,0,0,0,0,157,1553,1901,1645,0,0,0,0,4071,4078,4079,4079
1494449909396715523,155,1494449909450843282,,25240,0,0,0,62379,48960,0,0,0,0,157,1558,1905,1644,0,0,0,0,4070,4077,4078,4086
1494449909418009319,156,1494449909470723199,,25260,0,0,0,62379,48960,0,0,0,0,157,1558,1905,1652,0,0,0,0,4070,4077,4079,4075
1494449909438351918,157,1494449909490734698,,25280,0,0,0,62379,48960,0,0,0,0,157,1558,1905,1652,0,0,0,0,4073,4079,4068,4067
1494449909461984232,158,1494449909513427353,,25300,0,0,0,62379,48960,0,0,0,0,157,1558,1903,1647,0,0,0,0,4074,4073,4070,4071
1494449909487717008,159,1494449909531600818,,25320,0,0,0,62379,48960,0,0,0,0,157,1558,1904,1647,0,0,0,0,4067,4070,4070,4082
1494449909496772015,160,1494449909550882987,,25340,0,0,0,62379,48960,0,0,0,0,157,1554,1904,1646,0,0,0,0,4071,4080,4082,4088
1494449909516547377,161,1494449909570678488,,25360,0,0,0,62379,48960,0,0,0,0,157,1562,1904,1647,0,0,0,0,4069,4079,4080,4082
1494449909535888768,162,1494449909590791362,,25380,0,0,0,62379,48960,0,0,0,0,157,1562,1903,1647,0,0,0,0,4076,4081,4075,4073
1494449909558909449,163,1494449909612613312,,25400,0,0,0,62379,48960,0,0,0,0,157,1555,1903,1646,0,0,0,0,4072,4081,4074,4061
1494449909577548507,164,1494449909630653945,,25420,0,0,0,62379,48960,0,0,0,0,157,1550,1903,1646,0,0,0,0,4076,4088,4063,4068
1494449909595988336,165,1494449909650850026,,25440,0,0,0,62379,48960,0,0,0,0,157,1554,1904,1645,0,0,0,0,4074,4071,4063,4074
1494449909615967951,166,1494449909670579902,,25460,0,0,0,62379,48960,0,0,0,0,157,1554,1904,1645,0,0,0,0,4067,4073,4074,4075
1494449909636904723,167,1494449909690727026,,25480,0,0,0,62379,48960,0,0,0,0,157,1553,1903,1645,0,0,0,0,4070,4071,4072,4080
1494449909657270596,168,1494449909711140149,,25500,0,0,0,62379,48960,0,0,0,0,157,1552,1906,1646,0,0,0,0,4067,4075,4079,4082
1494449909679681910,169,1494449909731667854,,25520,0,0,0,62379,48960,0,0,0,0,157,1555,1906,1648,0,0,0,0,4074,4081,4080,4076
1494449909698560596,170,1494449909751715937,,25540,0,0,0,62379,48960,0,0,0,0,157,1569,1906,1648,0,0,0,0,4078,4081,4079,4067
1494449909729258524,171,1494449909771858227,,25560,0,0,0,62379,48960,0,0,0,0,157,1574,1903,1647,0,0,0,0,4076,4085,4066,4067
1494449909739382596,172,1494449909793245054,,25580,0,0,0,62379,48960,0,0,0,0,157,1574,1904,1646,0,0,0,0,4078,4073,4068,4077
1494449909758193244,173,1494449909812718181,,25600,0,0,0,62379,48960,0,0,0,0,157,1560,1904,1645,0,0,0,0,4073,4069,4071,4079
1494449909776006529,174,1494449909830642647,,25620,0,0,0,62379,48960,0,0,0,0,157,1560,1904,1623,0,0,0,0,4071,4069,4072,4083
1494449909796523521,175,1494449909850872604,,25640,0,0,0,62379,48960,0,0,0,0,157,1554,1904,1623,0,0,0,0,4067,4075,4079,4081
1494449909816748991,176,1494449909870802479,,25660,0,0,0,62379,48960,0,0,0,0,157,1553,1904,1622,0,0,0,0,4076,4078,4074,4093
1494449909836587210,177,1494449909890755479,,25680,0,0,0,62379,48960,0,0,0,0,157,1552,1904,1622,0,0,0,0,4074,4080,4078,4069
1494449909860581311,178,1494449909912643554,,25700,0,0,0,62379,48960,0,0,0,0,157,1554,1910,1645,0,0,0,0,4072,4083,4074,4059
1494449909878564649,179,1494449909931853598,,25720,0,0,0,62379,48960,0,0,0,0,157,1567,1910,1645,0,0,0,0,4071,4079,4067,4073
1494449909899207173,180,1494449909953403466,,25740,0,0,0,62379,48960,0,0,0,0,157,1567,1903,1645,0,0,0,0,4073,4073,4064,4076
1494449909918349398,181,1494449909972113429,,25760,0,0,0,62379,48960,0,0,0,0,157,1556,1905,1645,0,0,0,0,4064,4068,4067,4080
1494449909936705264,182,1494449909991591097,,25780,0,0,0,62379,48960,0,0,0,0,157,1552,1905,1642,0,0,0,0,4065,4070,4071,4085
1494449909957491203,183,1494449910012059928,,25800,0,0,0,62379,48960,0,0,0,0,157,1552,1906,1644,0,0,0,0,4067,4074,4077,4081
1494449909976737042,184,1494449910031763262,,25820,0,0,0,62379,48960,0,0,0,0,157,1554,1906,1644,0,0,0,0,4070,4075,4082,4087
1494449909997018631,185,1494449910051573804,,25840,0,0,0,62379,48960,0,0,0,0,157,1559,1903,1643,0,0,0,0,4070,4077,4082,4077
1494449910017881037,186,1494449910071923343,,25860,0,0,0,62379,48960,0,0,0,0,157,1559,1903,1622,0,0,0,0,4076,4077,4079,4065
1494449910041162458,187,1494449910093554752,,25880,0,0,0,62379,48960,0,0,0,0,157,1559,1903,1624,0,0,0,0,4073,4078,4066,4067
1494449910058577511,188,1494449910112676505,,25900,0,0,0,62379,48960,0,0,0,0,157,1552,1906,1645,0,0,0,0,4076,4076,4068,4069
1494449910077745705,189,1494449910131693717,,25920,0,0,0,62379,48960,0,0,0,0,157,1551,1906,1645,0,0,0,0,4067,4068,4072,4081
1494449910096534740,190,1494449910151414009,,25940,0,0,0,62379,48960,0,0,0,0,157,1551,1905,1645,0,0,0,0,4067,4070,4073,4083
1494449910117395497,191,1494449910171528424,,25960,0,0,0,62379,48960,0,0,0,0,157,1552,1904,1651,0,0,0,0,4072,4078,4078,4086
1494449910136852363,192,1494449910191411591,,25980,0,0,0,62379,48960,0,0,0,0,157,1553,1904,1651,0,0,0,0,4075,4073,4075,4085
1494449910158004157,193,1494449910212348419,,26000,0,0,0,62379,48960,0,0,0,0,157,1553,1905,1645,0,0,0,0,4076,4084,4079,4067
1494449910178177031,194,1494449910231510214,,26020,0,0,0,62379,48960,0,0,0,0,157,1554,1905,1646,0,0,0,0,4075,4085,4064,4068
1494449910198909107,195,1494449910251565921,,26040,0,0,0,62379,48960,0,0,0,0,157,1555,1903,1646,0,0,0,0,4074,4070,4065,4075
1494449910217574137,196,1494449910271522129,,26060,0,0,0,62379,48960,0,0,0,0,157,1555,1903,1622,0,0,0,0,4072,4068,4069,4078
1494449910239737232,197,1494449910292495707,,26080,0,0,0,62379,48960,0,0,0,0,157,1556,1903,1622,0,0,0,0,4066,4074,4076,4079
1494449910259590259,198,1494449910313352536,,26100,0,0,0,62379,48960,0,0,0,0,157,1556,1905,1623,0,0,0,0,4070,4073,4078,4086
1494449910277463626,199,1494449910332070666,,26120,0,0,0,62379,48960,0,0,0,0,157,1553,1905,1623,0,0,0,0,4068,4078,4077,4081
1494449910299668469,200,1494449910351561251,,26140,0,0,0,62379,48960,0,0,0,0,157,1553,1902,1643,0,0,0,0,4073,4085,4081,4067
1494449910317004969,201,1494449910371677708,,26160,0,0,0,62379,48960,0,0,0,0,157,1552,1901,1647,0,0,0,0,4077,4085,4067,4064
1494449910336892953,202,1494449910391337500,,26180,0,0,0,62379,48960,0,0,0,0,157,1552,1904,1647,0,0,0,0,4074,4075,4069,4072
1494449910356634418,203,1494449910411411791,,26200,0,0,0,62379,48960,0,0,0,0,157,1552,1904,1625,0,0,0,0,4082,4074,4070,4078
1494449910377541472,204,1494449910431521164,,26220,0,0,0,62379,48960,0,0,0,0,157,1554,1902,1625,0,0,0,0,4073,4068,4069,4081
1494449910403284441,205,1494449910451802787,,26240,0,0,0,62379,48960,0,0,0,0,157,1554,1905,1625,0,0,0,0,4065,4079,4074,4081
1494449910421016395,206,1494449910473510571,,26260,0,0,0,62379,48960,0,0,0,0,157,1555,1905,1646,0,0,0,0,4070,4079,4073,4081
1494449910441427490,207,1494449910493038822,,26280,0,0,0,62379,48960,0,0,0,0,157,1555,1903,1646,0,0,0,0,4067,4073,4073,4082
1494449910460424485,208,1494449910513235279,,26300,0,0,0,62379,48960,0,0,0,0,157,1555,1908,1644,0,0,0,0,4069,4082,4081,4070
1494449910479095002,209,1494449910532860280,,26320,0,0,0,62379,48960,0,0,0,0,157,1555,1908,1645,0,0,0,0,4073,4084,4076,4063
1494449910504566107,210,1494449910552927154,,26340,0,0,0,62379,48960,0,0,0,0,157,1554,1907,1645,0,0,0,0,4073,4079,4066,4067
1494449910522318757,211,1494449910573886399,,26360,0,0,0,62379,48960,0,0,0,0,157,1566,1904,1623,0,0,0,0,4074,4073,4070,4071
1494449910542441293,212,1494449910594047564,,26380,0,0,0,62379,48960,0,0,0,0,157,1566,1904,1623,0,0,0,0,4076,4073,4063,4074
1494449910558390444,213,1494449910612499612,,26400,0,0,0,62379,48960,0,0,0,0,157,1551,1904,1623,0,0,0,0,4067,4071,4075,4075
1494449910577316261,214,1494449910631661615,,26420,0,0,0,62379,48960,0,0,0,0,157,1551,1904,1631,0,0,0,0,4068,4070,4072,4085
1494449910596987208,215,1494449910651630947,,26440,0,0,0,62379,48960,0,0,0,0,157,1553,1904,1631,0,0,0,0,4067,4075,4076,4087
1494449910617681395,216,1494449910672405985,,26460,0,0,0,62379,48960,0,0,0,0,157,1553,1904,1626,0,0,0,0,4067,4076,4081,4090
1494449910638714576,217,1494449910692591067,,26480,0,0,0,62379,48960,0,0,0,0,157,1555,1904,1622,0,0,0,0,4071,4079,4084,4071
1494449910664717598,218,1494449910713020481,,26500,0,0,0,62379,48960,0,0,0,0,157,1555,1905,1624,0,0,0,0,4078,4077,4070,4065
1494449910679708968,219,1494449910732643523,,26520,0,0,0,62379,48960,0,0,0,0,157,1555,1905,1624,0,0,0,0,4070,4078,4063,4066
1494449910700202688,220,1494449910752597898,,26540,0,0,0,62379,48960,0,0,0,0,157,1555,1903,1621,0,0,0,0,4078,4071,4061,4074
1494449910718518230,221,1494449910772623564,,26560,0,0,0,62379,48960,0,0,0,0,157,1552,1903,1645,0,0,0,0,4072,4075,4068,4076
1494449910740817162,222,1494449910793362018,,26580,0,0,0,62379,48960,0,0,0,0,157,1552,1904,1645,0,0,0,0,4068,4076,4069,4079
1494449910758759053,223,1494449910812830394,,26600,0,0,0,62379,48960,0,0,0,0,157,1552,1904,1647,0,0,0,0,4068,4077,4071,4081
1494449910779077140,224,1494449910832481187,,26620,0,0,0,62379,48960,0,0,0,0,157,1553,1904,1647,0,0,0,0,4070,4076,4075,4086
1494449910797711936,225,1494449910852397686,,26640,0,0,0,62379,48960,0,0,0,0,157,1559,1903,1644,0,0,0,0,4071,4081,4084,4068
1494449910818268641,226,1494449910872310019,,26660,0,0,0,62379,48960,0,0,0,0,157,1559,1902,1625,0,0,0,0,4078,4078,4070,4063
1494449910837720160,227,1494449910892390893,,26680,0,0,0,62379,48960,0,0,0,0,157,1552,1902,1625,0,0,0,0,4075,4078,4061,4069
1494449910858324488,228,1494449910912312559,,26700,0,0,0,62379,48960,0,0,0,0,157,1555,1905,1626,0,0,0,0,4080,4073,4063,4074
1494449910880588289,229,1494449910933568720,,26720,0,0,0,62379,48960,0,0,0,0,157,1556,1905,1626,0,0,0,0,4073,4069,4068,4077
1494449910899706875,230,1494449910953250054,,26740,0,0,0,62379,48960,0,0,0,0,157,1556,1903,1622,0,0,0,0,4066,4076,4076,4079
1494449910920037482,231,1494449910973417803,,26760,0,0,0,62379,48960,0,0,0,0,157,1552,1903,1622,0,0,0,0,4067,4079,4072,4081
1494449910942203335,232,1494449910994502547,,26780,0,0,0,62379,48960,0,0,0,0,157,1563,1902,1622,0,0,0,0,4067,4076,4081,4085
1494449910959577512,233,1494449911012590346,,26800,0,0,0,62379,48960,0,0,0,0,157,1563,1902,1643,0,0,0,0,4070,4077,4084,4094
1494449910978525093,234,1494449911032517345,,26820,0,0,0,62379,48960,0,0,0,0,157,1561,1902,1643,0,0,0,0,4073,4082,4078,4073
1494449910998590031,235,1494449911053265716,,26840,0,0,0,62379,48960,0,0,0,0,157,1554,1905,1642,0,0,0,0,4070,4079,4070,4069
1494449911021245367,236,1494449911074273211,,26860,0,0,0,62379,48960,0,0,0,0,157,1554,1905,1645,0,0,0,0,4073,4083,4069,4066
1494449911059783536,237,1494449911093169090,,26880,0,0,0,62379,48960,0,0,0,0,157,1554,1903,1646,0,0,0,0,4073,4071,4065,4074
1494449911071743680,238,1494449911112542300,,26900,0,0,0,62379,48960,0,0,0,0,157,1557,1903,1646,0,0,0,0,4068,4069,4069,4077
1494449911079623649,239,1494449911132644798,,26920,0,0,0,62379,48960,0,0,0,0,157,1557,1905,1625,0,0,0,0,4072,4074,4074,4082
1494449911097802721,240,1494449911152634631,,26940,0,0,0,62379,48960,0,0,0,0,157,1553,1905,1625,0,0,0,0,4066,4074,4074,4081
1494449911120133136,241,1494449911172329881,,26960,0,0,0,62379,48960,0,0,0,0,157,1552,1908,1645,0,0,0,0,4069,4078,4074,4083
1494449911138757923,242,1494449911192494713,,26980,0,0,0,62379,48960,0,0,0,0,157,1552,1908,1645,0,0,0,0,4068,4076,4081,4083
1494449911158405759,243,1494449911212258838,,27000,0,0,0,62379,48960,0,0,0,0,157,1553,1903,1645,0,0,0,0,4071,4080,4083,4082
1494449911179117030,244,1494449911233285541,,27020,0,0,0,62379,48960,0,0,0,0,157,1553,1904,1625,0,0,0,0,4070,4078,4081,4077
1494449911199994884,245,1494449911253130374,,27040,0,0,0,62379,48960,0,0,0,0,157,1551,1904,1625,0,0,0,0,4074,4083,4068,4062
1494449911228426407,246,1494449911273082623,,27060,0,0,0,62379,48960,0,0,0,0,157,1551,1903,1623,0,0,0,0,4074,4082,4072,4066
1494449911238194909,247,1494449911292528916,,27080,0,0,0,62379,48960,0,0,0,0,157,1565,1904,1646,0,0,0,0,4079,4073,4063,4072
1494449911259408925,248,1494449911313345203,,27100,0,0,0,62379,48960,0,0,0,0,157,1565,1905,1646,0,0,0,0,4076,4077,4064,4074
1494449911278328298,249,1494449911332167874,,27120,0,0,0,62379,48960,0,0,0,0,157,1554,1905,1641,0,0,0,0,4069,4071,4073,4075
1494449911339446148,250,1494449911352094915,,27140,0,0,0,62379,48960,0,0,0,0,157,1554,1904,1623,0,0,0,0,4063,4074,4077,4080
1494449911351144218,251,1494449911372593787,,27160,0,0,0,62379,48960,0,0,0,0,157,1554,1904,1647,0,0,0,0,4067,4074,4074,4082
1494449911351165506,252,1494449911392352954,,27180,0,0,0,62379,48960,0,0,0,0,157,1554,1902,1648,0,0,0,0,4073,4077,4074,4083
1494449911357596813,253,1494449911412183745,,27200,0,0,0,62379,48960,0,0,0,0,157,1554,1900,1648,0,0,0,0,4072,4080,4076,4078
1494449911379144357,254,1494449911433207615,,27220,0,0,0,62379,48960,0,0,0,0,157,1551,1904,1647,0,0,0,0,4072,4082,4078,4075
1494449911399793961,255,1494449911453165906,,27240,0,0,0,62379,48960,0,0,0,0,157,1552,1905,1645,0,0,0,0,4073,4083,4074,4062
1494449911427749716,256,1494449911473108863,,27260,0,0,0,62379,48960,0,0,0,0,157,1555,1905,1648,0,0,0,0,4072,4079,4070,4073
1494449911439177943,257,1494449911493360111,,27280,0,0,0,62379,48960,0,0,0,0,157,1563,1904,1648,0,0,0,0,4074,4076,4068,4071
1494449911460163952,258,1494449911513899025,,27300,0,0,0,62379,48960,0,0,0,0,157,1563,1904,1645,0,0,0,0,4079,4076,4068,4074
1494449911477374150,259,1494449911532131198,,27320,0,0,0,62379,48960,0,0,0,0,157,1553,1903,1645,0,0,0,0,4080,4067,4067,4075
1494449911498054461,260,1494449911552122155,,27340,0,0,0,62379,48960,0,0,0,0,157,1554,1905,1644,0,0,0,0,4071,4068,4069,4079
1494449911519011090,261,1494449911573063817,,27360,0,0,0,62379,48960,0,0,0,0,157,1611,1905,1644,0,0,0,0,4068,4071,4072,4079
1494449911538187324,262,1494449911593099441,,27380,0,0,0,62379,48960,0,0,0,0,157,1611,1905,1642,0,0,0,0,4065,4074,4076,4089
1494449911560904053,263,1494449911613763520,,27400,0,0,0,62379,48960,0,0,0,0,157,1557,1905,1626,0,0,0,0,4068,4077,4077,4086
1494449911578902863,264,1494449911633112605,,27420,0,0,0,62379,48960,0,0,0,0,157,1553,1905,1626,0,0,0,0,4069,4077,4080,4085
1494449911598340436,265,1494449911653053646,,27440,0,0,0,62379,48960,0,0,0,0,157,1553,1905,1647,0,0,0,0,4076,4084,4085,4080
1494449911619519191,266,1494449911672989187,,27460,0,0,0,62379,48960,0,0,0,0,157,1553,1905,1647,0,0,0,0,4077,4076,4072,4064
1494449911640123914,267,1494449911693165602,,27480,0,0,0,62379,48960,0,0,0,0,157,1553,1905,1645,0,0,0,0,4077,4079,4067,4067
1494449911658561571,268,1494449911712999727,,27500,0,0,0,62379,48960,0,0,0,0,157,1552,1905,1644,0,0,0,0,4075,4075,4064,4074
1494449911683185858,269,1494449911733768764,,27520,0,0,0,62379,48960,0,0,0,0,157,1567,1908,1643,0,0,0,0,4081,4072,4065,4074
1494449911702012994,270,1494449911755344257,,27540,0,0,0,62379,48960,0,0,0,0,157,1567,1908,1623,0,0,0,0,4066,4072,4076,4078
1494449911722165349,271,1494449911773743304,,27560,0,0,0,62379,48960,0,0,0,0,157,1561,1908,1622,0,0,0,0,4067,4073,4078,4085
1494449911739726607,272,1494449911793113681,,27580,0,0,0,62379,48960,0,0,0,0,157,1575,1905,1623,0,0,0,0,4070,4079,4076,4085
1494449911760170795,273,1494449911814013260,,27600,0,0,0,62379,48960,0,0,0,0,157,1583,1909,1624,0,0,0,0,4072,4082,4076,4074
1494449911784139707,274,1494449911833341845,,27620,0,0,0,62379,48960,0,0,0,0,157,1583,1909,1646,0,0,0,0,4071,4077,4078,4067
1494449911799812988,275,1494449911853268927,,27640,0,0,0,62379,48960,0,0,0,0,157,1570,1905,1649,0,0,0,0,4076,4085,4074,4072
1494449911821149007,276,1494449911873586008,,27660,0,0,0,62379,48960,0,0,0,0,157,1570,1904,1649,0,0,0,0,4076,4080,4063,4068
1494449911842968814,277,1494449911893341467,,27680,0,0,0,62379,48960,0,0,0,0,157,1552,1904,1644,0,0,0,0,4076,4074,4064,4075
1494449911862151755,278,1494449911913576423,,27700,0,0,0,62379,48960,0,0,0,0,157,1552,1904,1644,0,0,0,0,4067,4070,4071,4079
1494449911881837906,279,1494449911933883338,,27720,0,0,0,62379,48960,0,0,0,0,157,1552,1904,1661,0,0,0,0,4066,4071,4072,4085
1494449911900086999,280,1494449911953425797,,27740,0,0,0,62379,48960,0,0,0,0,157,1552,1904,1661,0,0,0,0,4066,4074,4076,4087
1494449911922030636,281,1494449911973988794,,27760,0,0,0,62379,48960,0,0,0,0,157,1553,1902,1643,0,0,0,0,4076,4074,4077,4069
1494449911940856051,282,1494449911993968709,,27780,0,0,0,62379,48960,0,0,0,0,157,1555,1901,1645,0,0,0,0,4077,4082,4079,4064
1494449911958951860,283,1494449912012952504,,27800,0,0,0,62379,48960,0,0,0,0,157,1555,1895,1645,0,0,0,0,4075,4081,4069,4067
1494449911979378759,284,1494449912032965836,,27820,0,0,0,62379,48960,0,0,0,0,157,1554,1904,1645,0,0,0,0,4073,4073,4068,4071
1494449911999658899,285,1494449912053027960,,27840,0,0,0,62379,48960,0,0,0,0,157,1552,1904,1626,0,0,0,0,4068,4070,4073,4076
1494449912026919490,286,1494449912072937917,,27860,0,0,0,62379,48960,0,0,0,0,157,1552,1904,1622,0,0,0,0,4063,4071,4074,4086
1494449912073735175,287,1494449912092926416,,27880,0,0,0,62379,48960,0,0,0,0,157,1549,1905,1645,0,0,0,0,4072,4075,4076,4085
1494449912073794055,288,1494449912113528412,,27900,0,0,0,62379,48960,0,0,0,0,157,1555,1905,1645,0,0,0,0,4075,4082,4075,4089
1494449912080460270,289,1494449912133766244,,27920,0,0,0,62379,48960,0,0,0,0,157,1555,1905,1645,0,0,0,0,4071,4078,4078,4076
1494449912098480489,290,1494449912153055204,,27940,0,0,0,62379,48960,0,0,0,0,157,1556,1905,1646,0,0,0,0,4070,4079,4073,4067
1494449912118224761,291,1494449912172925411,,27960,0,0,0,62379,48960,0,0,0,0,157,1556,1905,1646,0,0,0,0,4075,4086,4069,4070
1494449912148152651,292,1494449912194356779,,27980,0,0,0,62379,48960,0,0,0,0,157,1556,1903,1645,0,0,0,0,4073,4071,4063,4073
1494449912161574563,293,1494449912214360028,,28000,0,0,0,62379,48960,0,0,0,0,157,1555,1903,1645,0,0,0,0,4070,4067,4072,4079
1494449912180518015,294,1494449912234131486,,28020,0,0,0,62379,48960,0,0,0,0,157,1555,1904,1641,0,0,0,0,4063,4070,4073,4085
1494449912200959545,295,1494449912254455567,,28040,0,0,0,62379,48960,0,0,0,0,157,1557,1904,1621,0,0,0,0,4068,4073,4072,4081
1494449912220240316,296,1494449912273944610,,28060,0,0,0,62379,48960,0,0,0,0,157,1557,1906,1624,0,0,0,0,4068,4075,4075,4086
1494449912239474762,297,1494449912292901238,,28080,0,0,0,62379,48960,0,0,0,0,157,1578,1907,1624,0,0,0,0,4070,4079,4083,4076
1494449912258943898,298,1494449912313013153,,28100,0,0,0,62379,48960,0,0,0,0,157,1578,1907,1646,0,0,0,0,4072,4077,4078,4068
1494449912278211599,299,1494449912332901569,,28120,0,0,0,62379,48960,0,0,0,0,157,1552,1907,1652,0,0,0,0,4076,4079,4068,4067
1494449912302598779,300,1494449912353696023,,28140,0,0,0,62379,48960,0,0,0,0,157,1555,1908,1652,0,0,0,0,4077,4072,4061,4072
1494449912321837916,301,1494449912375143307,,28160,0,0,0,62379,48960,0,0,0,0,157,1555,1908,1623,0,0,0,0,4080,4074,4065,4076
1494449912341816876,302,1494449912394049602,,28180,0,0,0,62379,48960,0,0,0,0,157,1554,1904,1634,0,0,0,0,4068,4069,4070,4081
1494449912361791674,303,1494449912413895352,,28200,0,0,0,62379,48960,0,0,0,0,157,1554,1904,1645,0,0,0,0,4066,4073,4073,4082
1494449912380791506,304,1494449912433853642,,28220,0,0,0,62379,48960,0,0,0,0,157,1551,1904,1648,0,0,0,0,4069,4077,4081,4083
1494449912400563225,305,1494449912453854641,,28240,0,0,0,62379,48960,0,0,0,0,157,1560,1904,1648,0,0,0,0,4073,4082,4076,4088
1494449912419842308,306,1494449912474030972,,28260,0,0,0,62379,48960,0,0,0,0,157,1560,1904,1646,0,0,0,0,4078,4076,4077,4075
1494449912444293410,307,1494449912494730468,,28280,0,0,0,62379,48960,0,0,0,0,157,1560,1901,1645,0,0,0,0,4071,4078,4081,4073
1494449912460005177,308,1494449912514242261,,28300,0,0,0,62379,48960,0,0,0,0,157,1560,1905,1645,0,0,0,0,4076,4084,4073,4067
1494449912478982763,309,1494449912533830595,,28320,0,0,0,62379,48960,0,0,0,0,157,1554,1905,1642,0,0,0,0,4075,4079,4064,4066
1494449912709348616,310,1494449912553978551,,28340,0,0,0,62379,48960,0,0,0,0,157,1551,1904,1645,0,0,0,0,4075,4073,4070,4071
1494449912709465604,311,1494449912575293170,,28360,0,0,0,62379,48960,0,0,0,0,157,1556,1905,1647,0,0,0,0,4075,4067,4069,4076
1494449912709474702,312,1494449912594028090,,28380,0,0,0,62379,48960,0,0,0,0,157,1556,1905,1647,0,0,0,0,4071,4068,4071,4080
1494449912709482774,313,1494449912614624545,,28400,0,0,0,62379,48960,0,0,0,0,157,1552,1905,1645,0,0,0,0,4068,4080,4074,4085
1494449912709503622,314,1494449912634412295,,28420,0,0,0,62379,48960,0,0,0,0,157,1552,1901,1645,0,0,0,0,4076,4075,4078,4085
1494449912709507979,315,1494449912654101628,,28440,0,0,0,62379,48960,0,0,0,0,157,1552,1900,1645,0,0,0,0,4073,4077,4080,4074
1494449912709542518,316,1494449912674015961,,28460,0,0,0,62379,48960,0,0,0,0,157,1552,1901,1646,0,0,0,0,4080,4077,4066,4065
1494449912709548367,317,1494449912694189250,,28480,0,0,0,62379,48960,0,0,0,0,157,1551,1905,1646,0,0,0,0,4077,4075,4065,4075
1494449912709566907,318,1494449912714055000,,28500,0,0,0,62379,48960,0,0,0,0,157,1553,1905,1645,0,0,0,0,4086,4074,4066,4074
1494449912709571075,319,1494449912734121832,,28520,0,0,0,62379,48960,0,0,0,0,157,1553,1904,1646,0,0,0,0,4069,4076,4069,4078
1494449912709596197,320,1494449912754993327,,28540,0,0,0,62379,48960,0,0,0,0,157,1559,1904,1646,0,0,0,0,4064,4073,4073,4082
1494449912722918033,321,1494449912774162704,,28560,0,0,0,62379,48960,0,0,0,0,157,1559,1903,1646,0,0,0,0,4069,4079,4073,4083
1494449912741424007,322,1494449912794045745,,28580,0,0,0,62379,48960,0,0,0,0,157,1559,1903,1646,0,0,0,0,4069,4074,4082,4087
1494449912761786403,323,1494449912814067369,,28600,0,0,0,62379,48960,0,0,0,0,157,1555,1903,1643,0,0,0,0,4072,4082,4074,4084
1494449912780973642,324,1494449912834635324,,28620,0,0,0,62379,48960,0,0,0,0,157,1555,1905,1624,0,0,0,0,4072,4076,4077,4071
1494449912804443938,325,1494449912854065200,,28640,0,0,0,62379,48960,0,0,0,0,157,1555,1906,1624,0,0,0,0,4073,4083,4070,4067
1494449912818932713,326,1494449912873735450,,28660,0,0,0,62379,48960,0,0,0,0,157,1555,1906,1650,0,0,0,0,4073,4080,4071,4072
1494449912839077363,327,1494449912893728116,,28680,0,0,0,62379,48960,0,0,0,0,157,1551,1906,1650,0,0,0,0,4075,4074,4066,4069
1494449912861849812,328,1494449912913716281,,28700,0,0,0,62379,48960,0,0,0,0,157,1559,1904,1651,0,0,0,0,4079,4068,4066,4076
1494449912880385962,329,1494449912934812817,,28720,0,0,0,62379,48960,0,0,0,0,157,1559,1904,1651,0,0,0,0,4066,4071,4072,4079
1494449912901737195,330,1494449912954936399,,28740,0,0,0,62379,48960,0,0,0,0,157,1571,1906,1651,0,0,0,0,4066,4075,4076,4079
1494449912921411242,331,1494449912975197396,,28760,0,0,0,62379,48960,0,0,0,0,157,1571,1906,1651,0,0,0,0,4069,4075,4078,4090
1494449912941106865,332,1494449912994855897,,28780,0,0,0,62379,48960,0,0,0,0,157,1554,1903,1648,0,0,0,0,4074,4074,4077,4072
1494449912964696831,333,1494449913014861520,,28800,0,0,0,62379,48960,0,0,0,0,157,1554,1903,1648,0,0,0,0,4076,4077,4078,4066
1494449912979138282,334,1494449913033721857,,28820,0,0,0,62379,48960,0,0,0,0,157,1553,1903,1645,0,0,0,0,4077,4083,4068,4061
1494449913000467195,335,1494449913053715814,,28840,0,0,0,62379,48960,0,0,0,0,157,1553,1903,1646,0,0,0,0,4080,4079,4065,4067
1494449913019030281,336,1494449913073696104,,28860,0,0,0,62379,48960,0,0,0,0,157,1553,1903,1652,0,0,0,0,4075,4071,4070,4073
1494449913041677943,337,1494449913094324934,,28880,0,0,0,62379,48960,0,0,0,0,157,1553,1903,1652,0,0,0,0,4078,4072,4070,4072
1494449913065758686,338,1494449913114160475,,28900,0,0,0,62379,48960,0,0,0,0,157,1557,1905,1650,0,0,0,0,4075,4076,4076,4083
1494449913080335259,339,1494449913134787512,,28920,0,0,0,62379,48960,0,0,0,0,157,1557,1905,1645,0,0,0,0,4066,4070,4077,4082
1494449913100434892,340,1494449913154692803,,28940,0,0,0,62379,48960,0,0,0,0,157,1554,1905,1643,0,0,0,0,4068,4076,4080,4080
1494449913122370064,341,1494449913174723593,,28960,0,0,0,62379,48960,0,0,0,0,157,1554,1903,1648,0,0,0,0,4071,4081,4075,4086
1494449913139856148,342,1494449913194671758,,28980,0,0,0,62379,48960,0,0,0,0,157,1552,1903,1648,0,0,0,0,4078,4078,4077,4071
1494449913161003387,343,1494449913214657424,,29000,0,0,0,62379,48960,0,0,0,0,157,1552,1906,1646,0,0,0,0,4073,4082,4069,4067
1494449913180976432,344,1494449913234738714,,29020,0,0,0,62379,48960,0,0,0,0,157,1552,1906,1645,0,0,0,0,4077,4072,4061,4073
1494449913200496244,345,1494449913254834129,,29040,0,0,0,62379,48960,0,0,0,0,157,1554,1904,1645,0,0,0,0,4082,4067,4066,4073
1494449913224212233,346,1494449913274655961,,29060,0,0,0,62379,48960,0,0,0,0,157,1554,1904,1645,0,0,0,0,4067,4075,4071,4077
1494449913240726610,347,1494449913294613710,,29080,0,0,0,62379,48960,0,0,0,0,157,1550,1904,1645,0,0,0,0,4064,4072,4071,4079
1494449913263538012,348,1494449913315719037,,29100,0,0,0,62379,48960,0,0,0,0,157,1551,1904,1645,0,0,0,0,4065,4075,4074,4085
1494449913280593953,349,1494449913335402996,,29120,0,0,0,62379,48960,0,0,0,0,157,1559,1904,1645,0,0,0,0,4069,4079,4080,4084
1494449913302080709,350,1494449913354937621,,29140,0,0,0,62379,48960,0,0,0,0,157,1559,1905,1647,0,0,0,0,4072,4078,4081,4074
1494449913321026806,351,1494449913374743704,,29160,0,0,0,62379,48960,0,0,0,0,157,1554,1905,1647,0,0,0,0,4072,4081,4073,4063
1494449913340400995,352,1494449913394784911,,29180,0,0,0,62379,48960,0,0,0,0,157,1571,1905,1645,0,0,0,0,4074,4077,4062,4073
1494449913360985984,353,1494449913415021867,,29200,0,0,0,62379,48960,0,0,0,0,157,1576,1905,1645,0,0,0,0,4074,4071,4066,4077
1494449913380230747,354,1494449913434565284,,29220,0,0,0,62379,48960,0,0,0,0,157,1576,1904,1645,0,0,0,0,4070,4074,4068,4079
1494449913400660061,355,1494449913454545366,,29240,0,0,0,62379,48960,0,0,0,0,157,1556,1904,1643,0,0,0,0,4070,4070,4071,4083
1494449913421066691,356,1494449913474791155,,29260,0,0,0,62379,48960,0,0,0,0,157,1556,1903,1643,0,0,0,0,4075,4073,4076,4083
1494449913444362459,357,1494449913494902695,,29280,0,0,0,62379,48960,0,0,0,0,157,1552,1903,1625,0,0,0,0,4075,4074,4077,4078
1494449913462701923,358,1494449913515913023,,29300,0,0,0,62379,48960,0,0,0,0,157,1552,1903,1650,0,0,0,0,4077,4077,4079,4073
1494449913480206626,359,1494449913534586693,,29320,0,0,0,62379,48960,0,0,0,0,157,1554,1905,1650,0,0,0,0,4072,4079,4069,4063
1494449913500249462,360,1494449913554691067,,29340,0,0,0,62379,48960,0,0,0,0,157,1554,1906,1644,0,0,0,0,4075,4085,4063,4067
1494449913520917372,361,1494449913574738273,,29360,0,0,0,62379,48960,0,0,0,0,157,1557,1906,1644,0,0,0,0,4077,4076,4064,4074
1494449913540928335,362,1494449913594585148,,29380,0,0,0,62379,48960,0,0,0,0,157,1557,1904,1644,0,0,0,0,4072,4068,4070,4080
1494449913561272314,363,1494449913614883145,,29400,0,0,0,62379,48960,0,0,0,0,157,1551,1904,1644,0,0,0,0,4065,4072,4078,4080
1494449913582398464,364,1494449913634924560,,29420,0,0,0,62379,48960,0,0,0,0,157,1553,1904,1644,0,0,0,0,4065,4074,4078,4088
1494449913600140745,365,1494449913654517269,,29440,0,0,0,62379,48960,0,0,0,0,157,1553,1902,1645,0,0,0,0,4071,4083,4078,4074
1494449913640283437,366,1494449913674612517,,29460,0,0,0,62379,48960,0,0,0,0,157,1555,1902,1645,0,0,0,0,4078,4076,4071,4065
1494449913643906324,367,1494449913695652344,,29480,0,0,0,62379,48960,0,0,0,0,157,1555,1901,1645,0,0,0,0,4080,4077,4060,4070
1494449913661145941,368,1494449913715677801,,29500,0,0,0,62379,48960,0,0,0,0,157,1552,1900,1641,0,0,0,0,4075,4070,4070,4071
1494449913681082604,369,1494449913735632050,,29520,0,0,0,62379,48960,0,0,0,0,157,1551,1905,1645,0,0,0,0,4070,4073,4067,4077
1494449913702774189,370,1494449913757294417,,29540,0,0,0,62379,48960,0,0,0,0,157,1556,1905,1645,0,0,0,0,4065,4070,4071,4083
1494449913721282100,371,1494449913775822922,,29560,0,0,0,62379,48960,0,0,0,0,157,1556,1904,1645,0,0,0,0,4071,4070,4073,4080
1494449913740499369,372,1494449913794579342,,29580,0,0,0,62379,48960,0,0,0,0,157,1551,1904,1626,0,0,0,0,4069,4080,4073,4082
1494449913761460010,373,1494449913814739298,,29600,0,0,0,62379,48960,0,0,0,0,157,1552,1904,1624,0,0,0,0,4068,4075,4075,4088
1494449913783142800,374,1494449913834561881,,29620,0,0,0,62379,48960,0,0,0,0,157,1558,1905,1624,0,0,0,0,4069,4078,4077,4091
1494449913801154348,375,1494449913854598004,,29640,0,0,0,62379,48960,0,0,0,0,157,1558,1905,1623,0,0,0,0,4069,4077,4080,4076
1494449913820044246,376,1494449913874506170,,29660,0,0,0,62379,48960,0,0,0,0,157,1558,1905,1623,0,0,0,0,4074,4082,4077,4068
1494449913841350353,377,1494449913895501206,,29680,0,0,0,62379,48960,0,0,0,0,157,1557,1907,1621,0,0,0,0,4072,4078,4071,4064
1494449913861868882,378,1494449913915556163,,29700,0,0,0,62379,48960,0,0,0,0,157,1557,1907,1620,0,0,0,0,4078,4079,4065,4068
1494449913884699025,379,1494449913935697036,,29720,0,0,0,62379,48960,0,0,0,0,157,1554,1904,1620,0,0,0,0,4079,4076,4066,4072
1494449913903596846,380,1494449913956472156,,29740,0,0,0,62379,48960,0,0,0,0,157,1556,1905,1624,0,0,0,0,4072,4070,4067,4079
1494449913923223696,381,1494449913977200527,,29760,0,0,0,62379,48960,0,0,0,0,157,1556,1905,1624,0,0,0,0,4069,4068,4074,4080
1494449913942856918,382,1494449913995700490,,29780,0,0,0,62379,48960,0,0,0,0,157,1552,1905,1624,0,0,0,0,4067,4075,4069,4080
1494449913961040820,383,1494449914015542614,,29800,0,0,0,62379,48960,0,0,0,0,157,1552,1904,1647,0,0,0,0,4070,4076,4077,4085
1494449913981165753,384,1494449914035471405,,29820,0,0,0,62379,48960,0,0,0,0,157,1552,1904,1647,0,0,0,0,4074,4080,4079,4088
1494449914001888465,385,1494449914055612111,,29840,0,0,0,62379,48960,0,0,0,0,157,1553,1904,1639,0,0,0,0,4075,4073,4077,4084
1494449914023824943,386,1494449914076587063,,29860,0,0,0,62379,48960,0,0,0,0,157,1555,1904,1643,0,0,0,0,4071,4079,4080,4077
1494449914041007346,387,1494449914095691024,,29880,0,0,0,62379,48960,0,0,0,0,157,1555,1904,1645,0,0,0,0,4075,4079,4072,4064
1494449914061798014,388,1494449914115865813,,29900,0,0,0,62379,48960,0,0,0,0,157,1555,1903,1645,0,0,0,0,4073,4087,4066,4066
1494449914082659326,389,1494449914135482521,,29920,0,0,0,62379,48960,0,0,0,0,157,1554,1903,1646,0,0,0,0,4079,4073,4062,4072
1494449914101997728,390,1494449914155550895,,29940,0,0,0,62379,48960,0,0,0,0,157,1553,1908,1646,0,0,0,0,4075,4073,4072,4074
1494449914121783932,391,1494449914176136766,,29960,0,0,0,62379,48960,0,0,0,0,157,1554,1908,1646,0,0,0,0,4069,4073,4068,4077
1494449914141422046,392,1494449914195454433,,29980,0,0,0,62379,48960,0,0,0,0,157,1554,1907,1623,0,0,0,0,4072,4070,4072,4079
1494449914160599751,393,1494449914215439390,,30000,0,0,0,62379,48960,0,0,0,0,157,1556,1905,1643,0,0,0,0,4069,4074,4076,4085
1494449914180644519,394,1494449914235511347,,30020,0,0,0,62379,48960,0,0,0,0,157,1556,1905,1644,0,0,0,0,4067,4080,4076,4082
1494449914201362320,395,1494449914255453970,,30040,0,0,0,62379,48960,0,0,0,0,157,1555,1905,1644,0,0,0,0,4070,4080,4081,4090
1494449914223586206,396,1494449914276769921,,30060,0,0,0,62379,48960,0,0,0,0,157,1554,1904,1628,0,0,0,0,4071,4079,4084,4073
1494449914241488899,397,1494449914295455842,,30080,0,0,0,62379,48960,0,0,0,0,157,1554,1904,1623,0,0,0,0,4071,4079,4082,4071
1494449914260723366,398,1494449914315475715,,30100,0,0,0,62379,48960,0,0,0,0,157,1553,1914,1644,0,0,0,0,4077,4079,4067,4060
1494449914281672147,399,1494449914335462839,,30120,0,0,0,62379,48960,0,0,0,0,157,1553,1914,1644,0,0,0,0,4074,4076,4062,4068
1494449914301149276,400,1494449914355440462,,30140,0,0,0,62379,48960,0,0,0,0,157,1552,1904,1644,0,0,0,0,4074,4076,4069,4072
1494449914320771160,401,1494449914375514835,,30160,0,0,0,62379,48960,0,0,0,0,157,1553,1904,1646,0,0,0,0,4081,4069,4066,4079
1494449914343865268,402,1494449914396169289,,30180,0,0,0,62379,48960,0,0,0,0,157,1555,1904,1646,0,0,0,0,4076,4073,4074,4081
1494449914360744396,403,1494449914415475832,,30200,0,0,0,62379,48960,0,0,0,0,157,1555,1904,1646,0,0,0,0,4064,4070,4072,4083
1494449914381879191,404,1494449914435550497,,30220,0,0,0,62379,48960,0,0,0,0,157,1554,1903,1642,0,0,0,0,4067,4073,4080,4087
1494449914403091614,405,1494449914456571158,,30240,0,0,0,62379,48960,0,0,0,0,157,1554,1903,1620,0,0,0,0,4068,4079,4078,4082
1494449914421999296,406,1494449914476052325,,30260,0,0,0,62379,48960,0,0,0,0,157,1554,1905,1622,0,0,0,0,4069,4076,4078,4090
1494449914442520349,407,1494449914496296781,,30280,0,0,0,62379,48960,0,0,0,0,157,1554,1905,1624,0,0,0,0,4070,4076,4077,4075
1494449914460988848,408,1494449914515552324,,30300,0,0,0,62379,48960,0,0,0,0,157,1554,1904,1624,0,0,0,0,4078,4082,4077,4066
1494449914480732804,409,1494449914535517864,,30320,0,0,0,62379,48960,0,0,0,0,157,1574,1904,1624,0,0,0,0,4073,4079,4072,4068
1494449914500952725,410,1494449914555423696,,30340,0,0,0,62379,48960,0,0,0,0,157,1574,1907,1622,0,0,0,0,4075,4082,4065,4069
1494449914521000207,411,1494449914575489528,,30360,0,0,0,62379,48960,0,0,0,0,157,1568,1907,1622,0,0,0,0,4080,4077,4060,4071
1494449914542452102,412,1494449914596431981,,30380,0,0,0,62379,48960,0,0,0,0,157,1556,1907,1644,0,0,0,0,4075,4069,4066,4076
1494449914561443294,413,1494449914615448233,,30400,0,0,0,62379,48960,0,0,0,0,157,1555,1905,1644,0,0,0,0,4074,4073,4069,4078
1494449914582014043,414,1494449914635412690,,30420,0,0,0,62379,48960,0,0,0,0,157,1553,1905,1642,0,0,0,0,4063,4072,4074,4085
1494449914601737321,415,1494449914656394601,,30440,0,0,0,62379,48960,0,0,0,0,157,1554,1900,1648,0,0,0,0,4074,4074,4075,4083
1494449914621849410,416,1494449914676605640,,30460,0,0,0,62379,48960,0,0,0,0,157,1560,1904,1648,0,0,0,0,4070,4075,4081,4088
1494449914643648625,417,1494449914697713759,,30480,0,0,0,62379,48960,0,0,0,0,157,1560,1906,1645,0,0,0,0,4072,4077,4079,4079
1494449914663159565,418,1494449914717439800,,30500,0,0,0,62379,48960,0,0,0,0,157,1560,1908,1645,0,0,0,0,4071,4081,4086,4064
1494449914683936877,419,1494449914736366886,,30520,0,0,0,62379,48960,0,0,0,0,157,1553,1908,1645,0,0,0,0,4077,4086,4074,4070
1494449914704983464,420,1494449914755392014,,30540,0,0,0,62379,48960,0,0,0,0,157,1553,1906,1645,0,0,0,0,4073,4088,4062,4072
1494449914722591270,421,1494449914776371216,,30560,0,0,0,62379,48960,0,0,0,0,157,1556,1906,1647,0,0,0,0,4076,4077,4064,4075
1494449914742555516,422,1494449914796498673,,30580,0,0,0,62379,48960,0,0,0,0,157,1556,1906,1647,0,0,0,0,4068,4068,4072,4074
1494449914765022159,423,1494449914817930165,,30600,0,0,0,62379,48960,0,0,0,0,157,1551,1903,1647,0,0,0,0,4063,4076,4076,4079
1494449914785702025,424,1494449914838727285,,30620,0,0,0,62379,48960,0,0,0,0,157,1552,1902,1645,0,0,0,0,4067,4074,4080,4085
1494449914806472963,425,1494449914856448793,,30640,0,0,0,62379,48960,0,0,0,0,157,1555,1906,1645,0,0,0,0,4068,4078,4078,4090
1494449914822590297,426,1494449914876352375,,30660,0,0,0,62379,48960,0,0,0,0,157,1557,1906,1645,0,0,0,0,4071,4082,4078,4072
1494449914841859481,427,1494449914896323374,,30680,0,0,0,62379,48960,0,0,0,0,157,1557,1906,1646,0,0,0,0,4078,4081,4068,4063
1494449914864438400,428,1494449914916326997,,30700,0,0,0,62379,48960,0,0,0,0,157,1553,1905,1646,0,0,0,0,4078,4079,4065,4067
1494449914883650082,429,1494449914937027409,,30720,0,0,0,62379,48960,0,0,0,0,157,1552,1902,1644,0,0,0,0,4079,4073,4061,4069
1494449914908799799,430,1494449914957335698,,30740,0,0,0,62379,48960,0,0,0,0,157,1553,1905,1648,0,0,0,0,4073,4069,4066,4075
1494449914922236002,431,1494449914976215576,,30760,0,0,0,62379,48960,0,0,0,0,157,1563,1905,1650,0,0,0,0,4070,4067,4068,4075
1494449914942016572,432,1494449914996319241,,30780,0,0,0,62379,48960,0,0,0,0,157,1563,1906,1650,0,0,0,0,4067,4069,4072,4078
1494449914962501673,433,1494449915017160735,,30800,0,0,0,62379,48960,0,0,0,0,157,1563,1906,1650,0,0,0,0,4065,4072,4077,4085
1494449914981755006,434,1494449915036237362,,30820,0,0,0,62379,48960,0,0,0,0,157,1557,1903,1646,0,0,0,0,4069,4074,4074,4083
1494449915011024509,435,1494449915058554851,,30840,0,0,0,62379,48960,0,0,0,0,157,1557,1903,1646,0,0,0,0,4071,4072,4075,4082
1494449915026855589,436,1494449915077455479,,30860,0,0,0,62379,48960,0,0,0,0,157,1557,1905,1623,0,0,0,0,4073,4077,4074,4083
1494449915041764825,437,1494449915096304440,,30880,0,0,0,62379,48960,0,0,0,0,157,1553,1905,1645,0,0,0,0,4068,4081,4077,4082
1494449915062817960,438,1494449915116151481,,30900,0,0,0,62379,48960,0,0,0,0,157,1552,1905,1645,0,0,0,0,4074,4080,4073,4084
1494449915081711543,439,1494449915136278020,,30920,0,0,0,62379,48960,0,0,0,0,157,1556,1903,1645,0,0,0,0,4075,4076,4077,4089
1494449915106431628,440,1494449915156187477,,30940,0,0,0,62379,48960,0,0,0,0,157,1556,1903,1654,0,0,0,0,4074,4076,4077,4084
1494449915124504544,441,1494449915177775718,,30960,0,0,0,62379,48960,0,0,0,0,157,1554,1904,1654,0,0,0,0,4069,4076,4076,4075
1494449915145621416,442,1494449915197026428,,30980,0,0,0,62379,48960,0,0,0,0,157,1554,1904,1646,0,0,0,0,4070,4080,4083,4070
1494449915162991427,443,1494449915217293300,,31000,0,0,0,62379,48960,0,0,0,0,157,1555,1903,1648,0,0,0,0,4072,4079,4085,4063
1494449915181884906,444,1494449915236544593,,31020,0,0,0,62379,48960,0,0,0,0,157,1562,1902,1648,0,0,0,0,4075,4079,4072,4065
1494449915202331012,445,1494449915256117051,,31040,0,0,0,62379,48960,0,0,0,0,157,1562,1903,1648,0,0,0,0,4074,4078,4073,4068
1494449915221424505,446,1494449915276149841,,31060,0,0,0,62379,48960,0,0,0,0,157,1552,1911,1645,0,0,0,0,4078,4085,4067,4065
1494449915245169799,447,1494449915298062873,,31080,0,0,0,62379,48960,0,0,0,0,157,1555,1911,1645,0,0,0,0,4075,4079,4071,4069
1494449915263423120,448,1494449915316919334,,31100,0,0,0,62379,48960,0,0,0,0,157,1555,1903,1648,0,0,0,0,4072,4084,4071,4063
1494449915284041568,449,1494449915336884249,,31120,0,0,0,62379,48960,0,0,0,0,157,1553,1903,1648,0,0,0,0,4074,4084,4066,4064
1494449915303235676,450,1494449915357226121,,31140,0,0,0,62379,48960,0,0,0,0,157,1552,1904,1646,0,0,0,0,4080,4083,4071,4070
1494449915326209378,451,1494449915378731863,,31160,0,0,0,62379,48960,0,0,0,0,157,1552,1911,1644,0,0,0,0,4077,4081,4063,4071
1494449915345712638,452,1494449915398211988,,31180,0,0,0,62379,48960,0,0,0,0,157,1554,1911,1621,0,0,0,0,4073,4070,4059,4068
1494449915365673537,453,1494449915417758572,,31200,0,0,0,62379,48960,0,0,0,0,157,1554,1902,1623,0,0,0,0,4072,4073,4062,4075
1494449915386608460,454,1494449915437747445,,31220,0,0,0,62379,48960,0,0,0,0,157,1557,1902,1625,0,0,0,0,4080,4072,4064,4072
1494449915406923662,455,1494449915457968900,,31240,0,0,0,62379,48960,0,0,0,0,157,1557,1903,1626,0,0,0,0,4075,4073,4063,4071
1494449915430273104,456,1494449915477978274,,31260,0,0,0,62379,48960,0,0,0,0,157,1555,1905,1646,0,0,0,0,4075,4071,4069,4073
1494449915443590769,457,1494449915497789731,,31280,0,0,0,62379,48960,0,0,0,0,157,1555,1905,1646,0,0,0,0,4080,4075,4063,4072
1494449915462127524,458,1494449915516410110,,31300,0,0,0,62379,48960,0,0,0,0,157,1553,1903,1643,0,0,0,0,4081,4073,4061,4074
1494449915482448901,459,1494449915536332567,,31320,0,0,0,62379,48960,0,0,0,0,157,1553,1903,1645,0,0,0,0,4069,4068,4074,4075
1494449915502955928,460,1494449915556298940,,31340,0,0,0,62379,48960,0,0,0,0,157,1553,1904,1645,0,0,0,0,4070,4070,4074,4081
1494449915523579603,461,1494449915576426021,,31360,0,0,0,62379,48960,13,-13,0,0,157,1553,1908,1643,0,0,0,0,4066,4071,4072,4081
1494449915543405193,462,1494449915597217683,,31380,0,0,0,62379,48960,13,-13,0,0,157,1553,1908,1627,0,0,0,0,4065,4076,4072,4081
1494449915563646466,463,1494449915617129806,,31400,0,0,0,62379,48960,13,-13,0,0,157,1560,1908,1622,0,0,0,0,4065,4073,4077,4087
1494449915582699679,464,1494449915637118929,,31420,0,0,0,62379,48960,13,-13,0,0,157,1560,1906,1622,0,0,0,0,4072,4072,4074,4087
1494449915602604283,465,1494449915657130553,,31440,0,0,0,62379,48960,13,-13,0,0,157,1556,1906,1646,0,0,0,0,4069,4077,4080,4084
1494449915626940919,466,1494449915677061468,,31460,0,0,0,62379,48959,13,-13,0,0,157,1556,1906,1649,0,0,0,0,4072,4080,4074,4073
1494449915643987702,467,1494449915697049549,,31480,0,0,0,62383,48955,11,-11,0,0,157,1554,1905,1649,0,0,0,0,4077,4074,4075,4072
1494449915666038956,468,1494449915718193459,,31500,0,0,0,62384,48951,11,-9,0,0,157,1555,1902,1646,0,0,0,0,4075,4075,4078,4069
1494449915685253577,469,1494449915737637960,,31520,0,0,0,62387,48950,9,-9,0,0,157,1555,1903,1623,0,0,0,0,4067,4078,4079,4070
1494449915704337330,470,1494449915757988915,,31540,0,0,0,62388,48949,11,-10,0,0,157,1577,1903,1624,0,0,0,0,4071,4081,4076,4062
1494449915728298010,471,1494449915776994501,,31560,0,0,0,62391,48948,10,-12,0,0,157,1577,1902,1624,0,1,0,0,4072,4082,4068,4065
1494449915743836258,472,1494449915797084998,,31580,0,0,0,62393,48947,10,-12,0,0,157,1574,1906,1645,1,1,0,0,4071,4079,4063,4071
1494449915762716793,473,1494449915817162121,,31600,0,0,0,62395,48946,10,-12,0,0,157,1552,1906,1645,1,1,0,0,4076,4069,4061,4067
1494449915785209044,474,1494449915838825487,,31620,0,0,0,62396,48944,11,-11,0,0,157,1554,1906,1648,0,1,0,0,4074,4074,4063,4072
1494449915802811434,475,1494449915857063243,,31640,0,0,0,62399,48944,11,-12,0,0,157,1557,1904,1683,1,1,0,0,4073,4067,4065,4074
1494449915824630182,476,1494449915877022200,,31660,0,0,0,62400,48942,11,-12,0,0,157,1559,1904,1683,1,1,0,0,4065,4071,4073,4074
1494449915848890756,477,1494449915897627154,,31680,0,0,0,62401,48940,11,-12,0,0,157,1559,1903,1646,1,1,0,0,4064,4076,4075,4078
1494449915885383808,478,1494449915916981738,,31700,0,0,0,62403,48939,12,-11,0,0,157,1555,1880,1646,1,1,0,0,4067,4073,4073,4086
1494449915885390396,479,1494449915936992653,,31720,0,0,0,62405,48939,11,-12,0,0,157,1556,1884,1634,1,1,0,0,4067,4075,4074,4087
1494449915905867899,480,1494449915957458357,,31740,0,0,0,62407,48937,11,-12,0,0,157,1556,1904,1634,0,1,0,0,4071,4076,4077,4070
1494449915932864976,481,1494449915978180811,,31760,0,0,0,62407,48936,12,-12,0,0,157,1556,1904,1631,1,1,0,0,4070,4077,4068,4064
1494449915950447924,482,1494449915997292438,,31780,0,0,0,62408,48935,12,-12,0,0,157,1555,1904,1631,1,1,0,0,4071,4079,4066,4067
1494449915964536712,483,1494449916017348811,,31800,0,0,0,62409,48934,13,-12,0,0,157,1554,1903,1631,1,1,0,0,4080,4075,4053,4067
1494449915983197393,484,1494449916037496766,,31820,0,0,0,62411,48932,12,-12,0,0,157,1558,1902,1625,1,1,0,0,4071,4070,4067,4071
1494449916004472533,485,1494449916058208553,,31840,0,0,0,62412,48931,12,-12,0,0,157,1558,1902,1625,1,1,0,0,4067,4065,4065,4076
1494449916022967755,486,1494449916077309430,,31860,0,0,0,62413,48930,12,-12,0,0,157,1552,1903,1624,1,1,0,0,4067,4072,4067,4077
1494449916042785609,487,1494449916097331636,,31880,0,0,0,62415,48929,12,-12,0,0,157,1553,1904,1634,1,1,0,0,4069,4075,4069,4079
1494449916063632039,488,1494449916117236759,,31900,0,0,0,62416,48928,12,-13,0,0,157,1575,1904,1684,1,1,0,0,4065,4073,4075,4088
1494449916083892876,489,1494449916137570298,,31920,0,0,0,62417,48927,12,-13,0,0,157,1575,1904,1684,1,1,0,0,4071,4072,4074,4089
1494449916104517204,490,1494449916157976544,,31940,0,0,0,62419,48926,12,-13,0,0,157,1557,1904,1627,1,1,0,0,4069,4074,4077,4078
1494449916123632825,491,1494449916176990338,,31960,0,0,0,62420,48925,26,-27,0,0,157,1582,1904,1687,1,1,0,0,4071,4076,4083,4069
1494449916143492193,492,1494449916196861419,,31980,0,0,0,62429,48917,22,-23,0,0,157,1582,1906,1687,4,4,0,0,4081,4074,4073,4057
1494449916162504508,493,1494449916217035500,,32000,0,0,0,62436,48908,20,-20,0,0,157,1582,1906,1687,4,4,0,0,4082,4082,4063,4066
1494449916182780026,494,1494449916237583121,,32020,0,0,0,62444,48900,17,-16,0,0,157,1581,1905,1622,3,3,0,0,4073,4076,4066,4069
1494449916202975249,495,1494449916257141329,,32040,0,0,0,62455,48889,16,-15,0,0,157,1576,1902,1622,2,2,0,0,4073,4067,4065,4074
1494449916222425862,496,1494449916277121785,,32060,0,0,0,62467,48877,14,-14,0,0,157,1575,1901,1622,1,1,0,0,4064,4070,4074,4075
1494449916242718986,497,1494449916297183700,,32080,0,0,0,62479,48866,12,-12,0,0,157,1576,1918,1621,1,1,0,0,4063,4072,4076,4078
1494449916262607932,498,1494449916317064240,,32100,0,0,0,62488,48856,13,-13,0,0,157,1578,1918,1622,1,0,0,0,4071,4077,4070,4083
1494449916282785224,499,1494449916337048696,,32120,0,0,0,62498,48846,14,-14,0,0,157,1578,1903,1622,1,1,0,0,4070,4080,4073,4083
1494449916304016588,500,1494449916358040065,,32140,0,0,0,62509,48836,14,-14,0,0,157,1579,1903,1623,1,0,0,0,4072,4073,4076,4091
1494449916324522098,501,1494449916378100646,,32160,0,0,0,62520,48827,13,-15,0,0,157,1579,1903,1623,1,1,0,0,4073,4079,4080,4075
1494449916344561415,502,1494449916397897520,,32180,0,0,0,62530,48819,13,-16,0,0,157,1581,1902,1623,1,1,0,0,4067,4076,4076,4069
1494449916363401437,503,1494449916418056476,,32200,0,0,0,62540,48811,14,-17,0,0,157,1581,1907,1622,1,1,0,0,4076,4077,4070,4067
