%time,field.header.seq,field.header.stamp,field.header.frame_id,field.time_stamp,field.bumper,field.wheel_drop,field.cliff,field.left_encoder,field.right_encoder,field.left_pwm,field.right_pwm,field.buttons,field.charger,field.battery,field.bottom0,field.bottom1,field.bottom2,field.current0,field.current1,field.over_current,field.digital_input,field.analog_input0,field.analog_input1,field.analog_input2,field.analog_input3
1494527312573389312,0,1494527311842127078,,54760,0,0,0,60319,27363,0,0,0,0,152,1575,1905,1623,0,0,0,0,4063,4069,4071,4082
1494527312573400194,1,1494527311861420319,,54780,0,0,0,60319,27363,0,0,0,0,152,1575,1905,1624,0,0,0,0,4066,4076,4077,4079
1494527312573405912,2,1494527311881573058,,54800,0,0,0,60319,27363,0,0,0,0,152,1577,1905,1624,0,0,0,0,4069,4075,4076,4060
1494527312573411678,3,1494527311901607922,,54820,0,0,0,60319,27363,0,0,0,0,152,1577,1905,1624,0,0,0,0,4077,4074,4059,4070
1494527312573417633,4,1494527311922412326,,54840,0,0,0,60319,27363,0,0,0,0,152,1581,1904,1600,0,0,0,0,4063,4072,4072,4076
1494527312573431087,5,1494527311941915567,,54860,0,0,0,60319,27363,0,0,0,0,152,1581,1905,1619,0,0,0,0,4063,4071,4070,4079
1494527312573437072,6,1494527311961486932,,54880,0,0,0,60319,27363,0,0,0,0,152,1575,1905,1620,0,0,0,0,4072,4073,4074,4076
1494527312573688523,7,1494527311981497546,,54900,0,0,0,60319,27363,0,0,0,0,152,1576,1905,1620,0,0,0,0,4068,4077,4067,4066
1494527312573711023,8,1494527312001501452,,54920,0,0,0,60319,27363,0,0,0,0,152,1576,1904,1620,0,0,0,0,4075,4070,4061,4068
1494527312573732942,9,1494527312022212647,,54940,0,0,0,60319,27363,0,0,0,0,152,1577,1907,1623,0,0,0,0,4065,4073,4070,4079
1494527312573866303,10,1494527312041440221,,54960,0,0,0,60319,27363,0,0,0,0,152,1577,1907,1623,0,0,0,0,4068,4077,4073,4076
1494527312573879635,11,1494527312061379751,,54980,0,0,0,60319,27363,0,0,0,0,152,1575,1905,1624,0,0,0,0,4071,4072,4073,4079
1494527312573888669,12,1494527312081369948,,55000,0,0,0,60319,27363,0,0,0,0,152,1577,1918,1624,0,0,0,0,4071,4077,4072,4059
1494527312573908889,13,1494527312102385642,,55020,0,0,0,60319,27363,0,0,0,0,152,1577,1918,1621,0,0,0,0,4071,4074,4059,4076
1494527312573923143,14,1494527312122274673,,55040,0,0,0,60319,27363,0,0,0,0,152,1574,1918,1621,0,0,0,0,4065,4066,4067,4078
1494527312573932798,15,1494527312141860996,,55060,0,0,0,60319,27363,0,0,0,0,152,1574,1903,1626,0,0,0,0,4062,4067,4069,4076
1494527312573948354,16,1494527312161628818,,55080,0,0,0,60319,27363,0,0,0,0,152,1571,1903,1626,0,0,0,0,4067,4072,4073,4085
1494527312573956475,17,1494527312181522432,,55100,0,0,0,60319,27363,0,0,0,0,152,1572,1905,1626,0,0,0,0,4072,4078,4078,4075
1494527312575663888,18,1494527312201294296,,55120,0,0,0,60319,27363,0,0,0,0,152,1578,1909,1622,0,0,0,0,4071,4073,4067,4067
1494527312575671791,19,1494527312221541826,,55140,0,0,0,60319,27363,0,0,0,0,152,1578,1909,1622,0,0,0,0,4071,4073,4068,4072
1494527312575711367,20,1494527312241606398,,55160,0,0,0,60319,27363,0,0,0,0,152,1572,1906,1622,0,0,0,0,4068,4069,4071,4074
1494527312575716386,21,1494527312264508753,,55180,0,0,0,60319,27363,0,0,0,0,152,1551,1904,1623,0,0,0,0,4065,4070,4073,4080
1494527312575723944,22,1494527312281487750,,55200,0,0,0,60319,27363,0,0,0,0,152,1551,1906,1623,0,0,0,0,4063,4072,4075,4086
1494527312575730662,23,1494527312302532277,,55220,0,0,0,60319,27363,0,0,0,0,152,1573,1906,1623,0,0,0,0,4074,4074,4076,4067
1494527312575737934,24,1494527312362474785,,55280,0,0,0,60319,27363,0,0,0,0,152,1574,1903,1617,0,0,0,0,4062,4069,4067,4073
1494527312575743253,25,1494527312382623023,,55300,0,0,0,60319,27363,0,0,0,0,152,1574,1912,1601,0,0,0,0,4071,4076,4069,4079
1494527312575750137,26,1494527312401439723,,55320,0,0,0,60319,27363,0,0,0,0,152,1577,1912,1624,0,0,0,0,4073,4078,4071,4067
1494527312575761844,27,1494527312421548503,,55340,0,0,0,60319,27363,0,0,0,0,152,1587,1905,1627,0,0,0,0,4076,4075,4061,4063
1494527312575796293,28,1494527312441709158,,55360,0,0,0,60319,27363,0,0,0,0,152,1587,1903,1627,0,0,0,0,4078,4066,4064,4075
1494527312575808093,29,1494527312461237814,,55380,0,0,0,60319,27363,0,0,0,0,152,1586,1903,1626,0,0,0,0,4070,4068,4068,4074
1494527312575815365,30,1494527312482341841,,55400,0,0,0,60319,27363,0,0,0,0,152,1575,1905,1622,0,0,0,0,4066,4075,4077,4082
1494527312575828721,31,1494527312502545454,,55420,0,0,0,60319,27363,0,0,0,0,152,1568,1905,1622,0,0,0,0,4068,4074,4074,4068
1494527312575836644,32,1494527312522327318,,55440,0,0,0,60319,27363,0,0,0,0,152,1568,1905,1622,0,0,0,0,4071,4078,4063,4067
1494527312575845527,33,1494527312542334140,,55460,0,0,0,60319,27363,0,0,0,0,152,1575,1905,1623,0,0,0,0,4078,4070,4062,4072
1494527312575859788,34,1494527312562313379,,55480,0,0,0,60319,27363,0,0,0,0,152,1575,1912,1623,0,0,0,0,4067,4073,4067,4074
1494527312575866508,35,1494527312582269951,,55500,0,0,0,60319,27363,0,0,0,0,152,1573,1912,1620,0,0,0,0,4064,4073,4077,4078
1494527312575904418,36,1494527312602392314,,55520,0,0,0,60319,27363,0,0,0,0,152,1578,1905,1621,0,0,0,0,4071,4074,4074,4070
1494527312575910800,37,1494527312622476094,,55540,0,0,0,60319,27363,0,0,0,0,152,1578,1903,1621,0,0,0,0,4070,4075,4070,4067
1494527312575920846,38,1494527312642400791,,55560,0,0,0,60319,27363,0,0,0,0,152,1578,1902,1619,0,0,0,0,4074,4069,4062,4069
1494527312575926572,39,1494527312666018020,,55580,0,0,0,60319,27363,0,0,0,0,152,1573,1902,1621,0,0,0,0,4069,4066,4067,4075
1494527312575934119,40,1494527312685436385,,55600,0,0,0,60319,27363,0,0,0,0,152,1580,1902,1622,0,0,0,0,4065,4078,4068,4076
1494527312576008055,41,1494527312702694506,,55620,0,0,0,60319,27363,0,0,0,0,152,1580,1905,1622,0,0,0,0,4068,4075,4074,4079
1494527312576034228,42,1494527312722288120,,55640,0,0,0,60319,27363,0,0,0,0,152,1575,1905,1623,0,0,0,0,4072,4074,4073,4072
1494527312576066761,43,1494527312743028565,,55660,0,0,0,60319,27363,0,0,0,0,152,1575,1905,1632,0,0,0,0,4070,4075,4072,4058
1494527312576072088,44,1494527312762319347,,55680,0,0,0,60319,27363,0,0,0,0,152,1575,1904,1632,0,0,0,0,4075,4068,4061,4068
1494527312576078794,45,1494527312782416544,,55700,0,0,0,60319,27363,0,0,0,0,152,1578,1903,1623,0,0,0,0,4066,4064,4068,4077
1494527312576085421,46,1494527312802444616,,55720,0,0,0,60319,27363,0,0,0,0,152,1578,1904,1622,0,0,0,0,4066,4067,4069,4074
1494527312576234826,47,1494527312822646771,,55740,0,0,0,60319,27363,0,0,0,0,152,1584,1904,1621,0,0,0,0,4063,4072,4073,4084
1494527312576243790,48,1494527312842415218,,55760,0,0,0,60319,27363,0,0,0,0,152,1584,1904,1621,0,0,0,0,4067,4077,4079,4080
1494527312576362609,49,1494527312863402162,,55780,0,0,0,60319,27363,0,0,0,0,152,1552,1904,1621,0,0,0,0,4069,4078,4072,4065
1494527312576369270,50,1494527312882232071,,55800,0,0,0,60319,27363,0,0,0,0,152,1551,1903,1620,0,0,0,0,4072,4070,4063,4074
1494527312576486929,51,1494527312902142768,,55820,0,0,0,60319,27363,0,0,0,0,152,1555,1903,1622,0,0,0,0,4065,4071,4071,4079
1494527312576495722,52,1494527312922332547,,55840,0,0,0,60319,27363,0,0,0,0,152,1564,1906,1622,0,0,0,0,4069,4070,4072,4078
1494527312576609725,53,1494527312942247036,,55860,0,0,0,60319,27363,0,0,0,0,152,1564,1906,1622,0,0,0,0,4068,4073,4073,4072
1494527312576719839,54,1494527312962751857,,55880,0,0,0,60319,27363,0,0,0,0,152,1574,1905,1626,0,0,0,0,4069,4075,4063,4063
1494527312576865391,55,1494527312982132055,,55900,0,0,0,60319,27363,0,0,0,0,152,1582,1904,1626,0,0,0,0,4077,4066,4062,4072
1494527312576871324,56,1494527313002577209,,55920,0,0,0,60319,27363,0,0,0,0,152,1582,1904,1625,0,0,0,0,4060,4070,4068,4080
1494527312576877366,57,1494527313022263240,,55940,0,0,0,60319,27363,0,0,0,0,152,1554,1919,1621,0,0,0,0,4070,4078,4073,4082
1494527312576883856,58,1494527313043133100,,55960,0,0,0,60319,27363,0,0,0,0,152,1552,1919,1623,0,0,0,0,4070,4080,4073,4066
1494527312577885552,59,1494527313063220921,,55980,0,0,0,60319,27363,0,0,0,0,152,1574,1907,1623,0,0,0,0,4068,4078,4062,4067
1494527312599526352,60,1494527313083187409,,56000,0,0,0,60319,27363,0,0,0,0,152,1574,1904,1622,0,0,0,0,4074,4065,4069,4076
1494527312616789157,61,1494527313103087314,,56020,0,0,0,60319,27363,0,0,0,0,152,1573,1904,1622,0,0,0,0,4067,4073,4072,4080
1494527312638173562,62,1494527313123148968,,56040,0,0,0,60319,27363,0,0,0,0,152,1576,1908,1623,0,0,0,0,4066,4076,4070,4079
1494527312656775573,63,1494527313142413499,,56060,0,0,0,60319,27363,0,0,0,0,152,1587,1908,1623,0,0,0,0,4068,4075,4080,4073
1494527312678057530,64,1494527313163338485,,56080,0,0,0,60319,27363,0,0,0,0,152,1587,1902,1629,0,0,0,0,4069,4076,4063,4070
1494527312702012671,65,1494527313183140765,,56100,0,0,0,60319,27363,0,0,0,0,152,1574,1902,1629,0,0,0,0,4075,4067,4064,4071
1494527312717251078,66,1494527313203184919,,56120,0,0,0,60319,27363,0,0,0,0,152,1570,1904,1622,0,0,0,0,4066,4073,4072,4080
1494527312737960919,67,1494527313223114657,,56140,0,0,0,60319,27363,0,0,0,0,152,1574,1904,1622,0,0,0,0,4070,4071,4072,4080
1494527312773362564,68,1494527313243062645,,56160,0,0,0,60319,27363,0,0,0,0,152,1574,1902,1625,0,0,0,0,4067,4074,4077,4075
1494527312784315386,69,1494527313263044800,,56180,0,0,0,60319,27363,0,0,0,0,152,1574,1904,1630,0,0,0,0,4068,4075,4063,4064
1494527312796686393,70,1494527313283113954,,56200,0,0,0,60319,27363,0,0,0,0,152,1573,1906,1630,0,0,0,0,4074,4069,4063,4070
1494527312816883156,71,1494527313303037192,,56220,0,0,0,60319,27363,0,0,0,0,152,1576,1906,1624,0,0,0,0,4067,4067,4069,4076
1494527312840095537,72,1494527313323627636,,56240,0,0,0,60319,27363,0,0,0,0,152,1577,1906,1621,0,0,0,0,4063,4071,4070,4083
1494527312857097224,73,1494527313342997501,,56260,0,0,0,60319,27363,0,0,0,0,152,1577,1903,1625,0,0,0,0,4068,4074,4076,4076
1494527312876676784,74,1494527313363044864,,56280,0,0,0,60319,27363,0,0,0,0,152,1577,1904,1625,0,0,0,0,4072,4083,4068,4062
1494527312897253348,75,1494527313383191851,,56300,0,0,0,60319,27363,0,0,0,0,152,1576,1904,1622,0,0,0,0,4070,4068,4061,4071
1494527312918262284,76,1494527313403288422,,56320,0,0,0,60319,27363,0,0,0,0,152,1577,1904,1617,0,0,0,0,4067,4068,4069,4076
1494527312940055524,77,1494527313424125407,,56340,0,0,0,60319,27363,0,0,0,0,152,1577,1904,1623,0,0,0,0,4068,4078,4076,4078
1494527312957974614,78,1494527313443108356,,56360,0,0,0,60319,27363,0,0,0,0,152,1574,1905,1623,0,0,0,0,4067,4076,4075,4068
1494527312976882928,79,1494527313463140261,,56380,0,0,0,60319,27363,0,0,0,0,152,1574,1907,1620,0,0,0,0,4069,4079,4066,4065
1494527313010198316,80,1494527313483260582,,56400,0,0,0,60319,27363,0,0,0,0,152,1574,1909,1625,0,0,0,0,4064,4065,4068,4080
1494527313018796628,81,1494527313502948904,,56420,0,0,0,60319,27363,0,0,0,0,152,1577,1909,1627,0,0,0,0,4068,4070,4071,4079
1494527313036375403,82,1494527313523079308,,56440,0,0,0,60319,27363,0,0,0,0,152,1577,1903,1627,0,0,0,0,4071,4077,4077,4085
1494527313060126739,83,1494527313544459000,,56460,0,0,0,60319,27363,0,0,0,0,152,1576,1903,1624,0,0,0,0,4071,4078,4066,4062
1494527313078949680,84,1494527313563909614,,56480,0,0,0,60319,27363,0,0,0,0,152,1584,1904,1624,0,0,0,0,4077,4070,4060,4069
1494527313099614492,85,1494527313583698228,,56500,0,0,0,60319,27363,0,0,0,0,152,1584,1904,1623,0,0,0,0,4067,4067,4069,4079
1494527313120453915,86,1494527313603614508,,56520,0,0,0,60319,27363,0,0,0,0,152,1575,1903,1623,0,0,0,0,4064,4072,4074,4079
1494527313141663719,87,1494527313625955781,,56540,0,0,0,60319,27363,0,0,0,0,152,1573,1904,1623,0,0,0,0,4073,4079,4073,4085
1494527313161711129,88,1494527313645315979,,56560,0,0,0,60319,27363,0,0,0,0,152,1573,1904,1622,0,0,0,0,4070,4079,4072,4064
1494527313181844278,89,1494527313665267425,,56580,0,0,0,60319,27363,0,0,0,0,152,1572,1906,1622,0,0,0,0,4071,4070,4063,4074
1494527313201092185,90,1494527313685591787,,56600,0,0,0,60319,27363,0,0,0,0,152,1573,1906,1624,0,0,0,0,4069,4065,4067,4074
1494527313220171719,91,1494527313705008443,,56620,0,0,0,60319,27363,0,0,0,0,152,1573,1906,1624,0,0,0,0,4064,4072,4070,4081
1494527313239739752,92,1494527313725381096,,56640,0,0,0,60319,27363,0,0,0,0,152,1570,1906,1622,0,0,0,0,4067,4075,4079,4081
1494527313258528884,93,1494527313742996841,,56660,0,0,0,60319,27363,0,0,0,0,152,1570,1904,1621,0,0,0,0,4069,4079,4082,4071
1494527313277810075,94,1494527313763205745,,56680,0,0,0,60319,27363,0,0,0,0,152,1565,1904,1621,0,0,0,0,4073,4076,4064,4070
1494527313297447785,95,1494527313783366815,,56700,0,0,0,60319,27363,0,0,0,0,152,1573,1906,1621,0,0,0,0,4064,4062,4063,4075
1494527313319018754,96,1494527313804033968,,56720,0,0,0,60319,27363,0,0,0,0,152,1573,1906,1620,0,0,0,0,4061,4069,4069,4080
1494527313340599226,97,1494527313824078247,,56740,0,0,0,60319,27363,0,0,0,0,152,1577,1930,1624,0,0,0,0,4067,4076,4077,4084
1494527313357465494,98,1494527313844058693,,56760,0,0,0,60319,27363,0,0,0,0,152,1586,1930,1624,0,0,0,0,4069,4074,4077,4072
1494527313398778927,99,1494527313863988557,,56780,0,0,0,60319,27363,0,0,0,0,152,1586,1930,1621,0,0,0,0,4070,4076,4067,4070
1494527313401284463,100,1494527313883863628,,56800,0,0,0,60319,27363,0,0,0,0,152,1586,1905,1621,0,0,0,0,4072,4066,4063,4073
1494527313418994632,101,1494527313904038365,,56820,0,0,0,60319,27363,0,0,0,0,152,1570,1905,1622,0,0,0,0,4068,4068,4068,4076
1494527313438351156,102,1494527313923978937,,56840,0,0,0,60319,27363,0,0,0,0,152,1577,1905,1622,0,0,0,0,4066,4071,4071,4081
1494527313457878615,103,1494527313943948508,,56860,0,0,0,60319,27363,0,0,0,0,152,1577,1902,1623,0,0,0,0,4073,4079,4072,4071
1494527313480262398,104,1494527313964003037,,56880,0,0,0,60319,27363,0,0,0,0,152,1577,1903,1623,0,0,0,0,4069,4077,4068,4064
1494527313498859177,105,1494527313985050064,,56900,0,0,0,60319,27363,0,0,0,0,152,1554,1903,1622,0,0,0,0,4078,4073,4059,4070
1494527313521209881,106,1494527314004000763,,56920,0,0,0,60319,27363,0,0,0,0,152,1554,1908,1622,0,0,0,0,4067,4068,4067,4075
1494527313539626975,107,1494527314024442624,,56940,0,0,0,60319,27363,0,0,0,0,152,1570,1908,1622,0,0,0,0,4068,4075,4069,4079
1494527313558550095,108,1494527314043894529,,56960,0,0,0,60319,27363,0,0,0,0,152,1572,1908,1622,0,0,0,0,4069,4078,4073,4083
1494527313578770458,109,1494527314064170557,,56980,0,0,0,60319,27363,0,0,0,0,152,1572,1908,1623,0,0,0,0,4075,4074,4077,4062
1494527313598031800,110,1494527314084025336,,57000,0,0,0,60319,27363,0,0,0,0,152,1577,1908,1630,0,0,0,0,4071,4086,4058,4067
1494527313624079817,111,1494527314104160281,,57020,0,0,0,60319,27363,0,0,0,0,152,1577,1906,1630,0,0,0,0,4070,4067,4067,4075
1494527313639116277,112,1494527314123955852,,57040,0,0,0,60319,27363,0,0,0,0,152,1577,1904,1630,0,0,0,0,4061,4074,4072,4076
1494527313868043607,113,1494527314143870506,,57060,0,0,0,60319,27363,0,0,0,0,152,1573,1904,1623,0,0,0,0,4065,4076,4077,4081
1494527313868074023,114,1494527314164279617,,57080,0,0,0,60319,27363,0,0,0,0,152,1575,1905,1625,0,0,0,0,4067,4075,4077,4072
1494527313868096028,115,1494527314185473559,,57100,0,0,0,60319,27363,0,0,0,0,152,1575,1913,1625,0,0,0,0,4069,4078,4072,4064
1494527313868176534,116,1494527314203871884,,57120,0,0,0,60319,27363,0,0,0,0,152,1575,1913,1622,0,0,0,0,4071,4070,4065,4069
1494527313868198290,117,1494527314224405328,,57140,0,0,0,60319,27363,0,0,0,0,152,1574,1905,1624,0,0,0,0,4073,4062,4066,4075
1494527313868217268,118,1494527314244231941,,57160,0,0,0,60319,27363,0,0,0,0,152,1574,1905,1624,0,0,0,0,4060,4069,4068,4078
1494527313868236799,119,1494527314264108470,,57180,0,0,0,60319,27363,0,0,0,0,152,1575,1904,1624,0,0,0,0,4066,4076,4076,4080
1494527313868254366,120,1494527314283858166,,57200,0,0,0,60319,27363,0,0,0,0,152,1575,1904,1624,0,0,0,0,4073,4079,4079,4074
1494527313868271325,121,1494527314303758112,,57220,0,0,0,60319,27363,0,0,0,0,152,1575,1905,1623,0,0,0,0,4072,4080,4084,4060
1494527313868289922,122,1494527314323753474,,57240,0,0,0,60319,27363,0,0,0,0,152,1575,1905,1627,0,0,0,0,4075,4082,4059,4067
1494527313868309200,123,1494527314343844419,,57260,0,0,0,60319,27363,0,0,0,0,152,1574,1905,1627,0,0,0,0,4070,4065,4065,4071
1494527313881518685,124,1494527314365530235,,57280,0,0,0,60319,27363,0,0,0,0,152,1574,1906,1633,0,0,0,0,4063,4073,4074,4079
1494527313900634486,125,1494527314384784016,,57300,0,0,0,60319,27363,0,0,0,0,152,1574,1908,1633,0,0,0,0,4067,4072,4072,4078
1494527313918137505,126,1494527314405056294,,57320,0,0,0,60319,27363,0,0,0,0,152,1575,1908,1623,0,0,0,0,4071,4080,4076,4065
1494527313938059409,127,1494527314424904156,,57340,0,0,0,60319,27363,0,0,0,0,152,1575,1904,1623,0,0,0,0,4077,4083,4057,4068
1494527313958686012,128,1494527314444699144,,57360,0,0,0,60319,27363,0,0,0,0,152,1576,1904,1623,0,0,0,0,4069,4071,4071,4074
1494527313980620623,129,1494527314465663837,,57380,0,0,0,60319,27363,0,0,0,0,152,1578,1903,1621,0,0,0,0,4062,4071,4071,4084
1494527313998805784,130,1494527314484035328,,57400,0,0,0,60319,27363,0,0,0,0,152,1578,1901,1600,0,0,0,0,4063,4073,4073,4086
1494527314020810843,131,1494527314505017604,,57420,0,0,0,60319,27363,0,0,0,0,152,1578,1905,1620,0,0,0,0,4068,4076,4074,4066
1494527314039601073,132,1494527314524712967,,57440,0,0,0,60319,27363,0,0,0,0,152,1576,1905,1622,0,0,0,0,4070,4081,4066,4067
1494527314058537564,133,1494527314544711829,,57460,0,0,0,60319,27363,0,0,0,0,152,1576,1905,1624,0,0,0,0,4067,4063,4066,4075
1494527314079788633,134,1494527314564747691,,57480,0,0,0,60319,27363,0,0,0,0,152,1573,1905,1624,0,0,0,0,4064,4072,4074,4080
1494527314101201632,135,1494527314585401843,,57500,0,0,0,60319,27363,0,0,0,0,152,1574,1905,1624,0,0,0,0,4063,4073,4073,4085
1494527314119777258,136,1494527314605310247,,57520,0,0,0,60319,27363,0,0,0,0,152,1574,1904,1623,0,0,0,0,4071,4080,4079,4060
1494527314139773063,137,1494527314625414943,,57540,0,0,0,60319,27363,0,0,0,0,152,1554,1905,1619,0,0,0,0,4073,4076,4058,4067
1494527314160420452,138,1494527314645340097,,57560,0,0,0,60319,27363,0,0,0,0,152,1552,1905,1623,0,0,0,0,4069,4072,4065,4072
1494527314178459435,139,1494527314664779002,,57580,0,0,0,60319,27363,0,0,0,0,152,1572,1906,1623,0,0,0,0,4066,4075,4070,4075
1494527314198636609,140,1494527314684784031,,57600,0,0,0,60319,27363,0,0,0,0,152,1576,1906,1623,0,0,0,0,4066,4074,4080,4089
1494527314218228087,141,1494527314704706351,,57620,0,0,0,60319,27363,0,0,0,0,152,1580,1904,1623,0,0,0,0,4073,4083,4071,4062
1494527314238513646,142,1494527314724764588,,57640,0,0,0,60319,27363,0,0,0,0,152,1580,1904,1622,0,0,0,0,4072,4070,4066,4070
1494527314261987111,143,1494527314745708489,,57660,0,0,0,60319,27363,0,0,0,0,152,1577,1908,1622,0,0,0,0,4063,4069,4067,4080
1494527314284804955,144,1494527314766127684,,57680,0,0,0,60319,27363,0,0,0,0,152,1584,1908,1622,0,0,0,0,4065,4070,4072,4083
1494527314301182254,145,1494527314786848336,,57700,0,0,0,60319,27363,0,0,0,0,152,1584,1903,1622,0,0,0,0,4071,4077,4071,4079
1494527314319226918,146,1494527314804866453,,57720,0,0,0,60319,27363,0,0,0,0,152,1578,1902,1620,0,0,0,0,4074,4080,4073,4068
1494527314341026579,147,1494527314824914982,,57740,0,0,0,60319,27363,0,0,0,0,152,1574,1902,1619,0,0,0,0,4071,4077,4065,4069
1494527314359967121,148,1494527314845228718,,57760,0,0,0,60319,27363,0,0,0,0,152,1570,1902,1619,0,0,0,0,4072,4072,4067,4072
1494527314379586148,149,1494527314864794706,,57780,0,0,0,60319,27363,0,0,0,0,152,1574,1902,1620,0,0,0,0,4066,4067,4071,4081
1494527314399260288,150,1494527314884784068,,57800,0,0,0,60319,27363,0,0,0,0,152,1576,1905,1620,0,0,0,0,4068,4075,4069,4079
1494527314420566571,151,1494527314904741681,,57820,0,0,0,60319,27363,0,0,0,0,152,1576,1905,1625,0,0,0,0,4067,4071,4076,4083
1494527314442164229,152,1494527314925727290,,57840,0,0,0,60319,27363,0,0,0,0,152,1576,1905,1626,0,0,0,0,4068,4074,4075,4062
1494527314459250644,153,1494527314944701780,,57860,0,0,0,60319,27363,0,0,0,0,152,1576,1904,1626,0,0,0,0,4076,4082,4060,4068
1494527314481267064,154,1494527314965812097,,57880,0,0,0,60319,27363,0,0,0,0,152,1576,1903,1612,0,0,0,0,4075,4067,4062,4073
1494527314501491778,155,1494527314985638168,,57900,0,0,0,60319,27363,0,0,0,0,152,1574,1904,1600,0,0,0,0,4066,4073,4066,4076
1494527314519431714,156,1494527315005611239,,57920,0,0,0,60319,27363,0,0,0,0,152,1577,1904,1621,0,0,0,0,4063,4071,4070,4081
1494527314546763709,157,1494527315025015143,,57940,0,0,0,60319,27363,0,0,0,0,152,1577,1903,1621,0,0,0,0,4067,4073,4074,4087
1494527314561099883,158,1494527315045696461,,57960,0,0,0,60319,27363,0,0,0,0,152,1577,1907,1621,0,0,0,0,4070,4075,4066,4058
1494527314588699746,159,1494527315070427393,,57980,0,0,0,60319,27363,0,0,0,0,152,1552,1923,1621,0,0,0,0,4075,4069,4065,4069
1494527314602510184,160,1494527315086785723,,58000,0,0,0,60319,27363,0,0,0,0,152,1575,1923,1621,0,0,0,0,4066,4065,4064,4072
1494527314619716102,161,1494527315105363338,,58020,0,0,0,60319,27363,0,0,0,0,152,1575,1904,1621,0,0,0,0,4062,4070,4068,4079
1494527314639192372,162,1494527315125675407,,58040,0,0,0,60319,27363,0,0,0,0,152,1562,1904,1620,0,0,0,0,4066,4071,4073,4084
1494527314660066330,163,1494527315145645977,,58060,0,0,0,60319,27363,0,0,0,0,152,1551,1904,1620,0,0,0,0,4069,4074,4077,4074
1494527314681420250,164,1494527315165682713,,58080,0,0,0,60319,27363,0,0,0,0,152,1550,1904,1623,0,0,0,0,4075,4081,4065,4065
1494527314699213040,165,1494527315185711574,,58100,0,0,0,60319,27363,0,0,0,0,152,1552,1903,1623,0,0,0,0,4071,4071,4067,4069
1494527314723529006,166,1494527315207814388,,58120,0,0,0,60319,27363,0,0,0,0,152,1570,1905,1624,0,0,0,0,4065,4070,4072,4075
1494527314739976066,167,1494527315225888505,,58140,0,0,0,60319,27363,0,0,0,0,152,1576,1905,1624,0,0,0,0,4065,4073,4070,4081
1494527314760355456,168,1494527315245776825,,58160,0,0,0,60319,27363,0,0,0,0,152,1576,1905,1624,0,0,0,0,4067,4075,4080,4084
1494527314779955898,169,1494527315265559645,,58180,0,0,0,60319,27363,0,0,0,0,152,1577,1904,1624,0,0,0,0,4074,4075,4067,4061
1494527314800407299,170,1494527315285909589,,58200,0,0,0,60319,27363,0,0,0,0,152,1577,1905,1624,0,0,0,0,4075,4075,4060,4071
1494527314821181471,171,1494527315306641740,,58220,0,0,0,60319,27363,0,0,0,0,152,1577,1905,1623,0,0,0,0,4066,4069,4074,4079
1494527314841326696,172,1494527315325991895,,58240,0,0,0,60319,27363,0,0,0,0,152,1553,1904,1622,0,0,0,0,4065,4070,4072,4083
1494527314860180383,173,1494527315346025465,,58260,0,0,0,60319,27363,0,0,0,0,152,1572,1905,1623,0,0,0,0,4067,4076,4079,4084
1494527314880844333,174,1494527315367186448,,58280,0,0,0,60319,27363,0,0,0,0,152,1576,1905,1623,0,0,0,0,4074,4074,4068,4061
1494527314899501616,175,1494527315385929855,,58300,0,0,0,60319,27363,0,0,0,0,152,1576,1905,1622,0,0,0,0,4070,4072,4066,4070
1494527314919182659,176,1494527315405578217,,58320,0,0,0,60319,27363,0,0,0,0,152,1589,1905,1621,0,0,0,0,4066,4066,4069,4078
1494527314939133688,177,1494527315425491245,,58340,0,0,0,60319,27363,0,0,0,0,152,1589,1903,1624,0,0,0,0,4068,4071,4073,4080
1494527314966075062,178,1494527315448625265,,58360,0,0,0,60319,27363,0,0,0,0,152,1577,1903,1624,0,0,0,0,4069,4072,4074,4087
1494527314981517554,179,1494527315467169547,,58380,0,0,0,60319,27363,0,0,0,0,152,1577,1904,1627,0,0,0,0,4069,4076,4068,4062
1494527314999101894,180,1494527315485518663,,58400,0,0,0,60319,27363,0,0,0,0,152,1577,1904,1627,0,0,0,0,4072,4080,4066,4072
1494527315021333124,181,1494527315506499355,,58420,0,0,0,60319,27363,0,0,0,0,152,1577,1903,1627,0,0,0,0,4068,4065,4067,4078
1494527315039700116,182,1494527315525469177,,58440,0,0,0,60319,27363,0,0,0,0,152,1573,1904,1620,0,0,0,0,4069,4068,4070,4078
1494527315063484189,183,1494527315545588580,,58460,0,0,0,60319,27363,0,0,0,0,152,1573,1910,1619,0,0,0,0,4066,4074,4078,4079
1494527315081040712,184,1494527315565524817,,58480,0,0,0,60319,27363,0,0,0,0,152,1579,1910,1620,0,0,0,0,4069,4075,4068,4061
1494527315100661669,185,1494527315585619553,,58500,0,0,0,60319,27363,0,0,0,0,152,1579,1902,1620,0,0,0,0,4072,4072,4063,4074
1494527315119619431,186,1494527315605686372,,58520,0,0,0,60319,27363,0,0,0,0,152,1579,1903,1621,0,0,0,0,4065,4070,4072,4076
1494527315139414897,187,1494527315625498026,,58540,0,0,0,60319,27363,0,0,0,0,152,1579,1903,1622,0,0,0,0,4070,4069,4069,4081
1494527315160405265,188,1494527315645582554,,58560,0,0,0,60319,27363,0,0,0,0,152,1552,1905,1622,0,0,0,0,4072,4078,4072,4073
1494527315183564476,189,1494527315666550038,,58580,0,0,0,60319,27363,0,0,0,0,152,1553,1905,1622,0,0,0,0,4070,4078,4070,4069
1494527315203320515,190,1494527315687429480,,58600,0,0,0,60319,27363,0,0,0,0,152,1564,1904,1624,0,0,0,0,4078,4066,4070,4071
1494527315229050140,191,1494527315706524635,,58620,0,0,0,60319,27363,0,0,0,0,152,1582,1904,1624,0,0,0,0,4067,4074,4067,4076
1494527315240345360,192,1494527315727231620,,58640,0,0,0,60319,27363,0,0,0,0,152,1582,1903,1624,0,0,0,0,4072,4072,4074,4082
1494527315265069644,193,1494527315747243690,,58660,0,0,0,60319,27363,0,0,0,0,152,1572,1903,1625,0,0,0,0,4072,4079,4081,4066
1494527315280311002,194,1494527315766454845,,58680,0,0,0,60319,27363,0,0,0,0,152,1579,1903,1625,0,0,0,0,4072,4082,4063,4067
1494527315299099761,195,1494527315785528750,,58700,0,0,0,60319,27363,0,0,0,0,152,1579,1904,1625,0,0,0,0,4064,4067,4069,4080
1494527315319073007,196,1494527315805742570,,58720,0,0,0,60319,27363,0,0,0,0,152,1576,1904,1622,0,0,0,0,4063,4071,4075,4076
1494527315340908403,197,1494527315826397554,,58740,0,0,0,60319,27363,0,0,0,0,152,1576,1906,1621,0,0,0,0,4068,4078,4078,4081
1494527315363980753,198,1494527315846395666,,58760,0,0,0,60319,27363,0,0,0,0,152,1571,1907,1621,0,0,0,0,4074,4081,4076,4059
1494527315384226274,199,1494527315866386444,,58780,0,0,0,60319,27363,0,0,0,0,152,1567,1907,1628,0,0,0,0,4074,4069,4066,4077
1494527315401394974,200,1494527315886554055,,58800,0,0,0,60319,27363,0,0,0,0,152,1554,1926,1628,0,0,0,0,4062,4069,4071,4081
1494527315421841487,201,1494527315906682041,,58820,0,0,0,60319,27363,0,0,0,0,152,1571,1926,1621,0,0,0,0,4068,4076,4073,4081
1494527315440266844,202,1494527315926847777,,58840,0,0,0,60319,27363,0,0,0,0,152,1576,1923,1621,0,0,0,0,4068,4076,4066,4064
1494527315466089306,203,1494527315947152679,,58860,0,0,0,60319,27363,0,0,0,0,152,1576,1903,1622,0,0,0,0,4076,4076,4060,4071
1494527315480945193,204,1494527315966777125,,58880,0,0,0,60319,27363,0,0,0,0,152,1575,1903,1622,0,0,0,0,4062,4065,4066,4073
1494527315515337900,205,1494527315986521903,,58900,0,0,0,60319,27363,0,0,0,0,152,1552,1905,1622,0,0,0,0,4069,4077,4072,4082
1494527315522411338,206,1494527316006871722,,58920,0,0,0,60319,27363,0,0,0,0,152,1553,1928,1621,0,0,0,0,4073,4075,4064,4063
1494527315541788250,207,1494527316026519084,,58940,0,0,0,60319,27363,0,0,0,0,152,1575,1928,1621,0,0,0,0,4072,4070,4064,4076
1494527315561942061,208,1494527316046401778,,58960,0,0,0,60319,27363,0,0,0,0,152,1575,1928,1627,0,0,0,0,4065,4068,4067,4075
1494527315581601738,209,1494527316067553344,,58980,0,0,0,60319,27363,0,0,0,0,152,1575,1911,1627,0,0,0,0,4069,4076,4075,4084
1494527315602968422,210,1494527316088483494,,59000,0,0,0,60319,27363,0,0,0,0,152,1576,1905,1623,0,0,0,0,4073,4074,4075,4062
1494527315621153065,211,1494527316106586818,,59020,0,0,0,60319,27363,0,0,0,0,152,1576,1904,1623,0,0,0,0,4070,4072,4060,4074
1494527315640219468,212,1494527316126431471,,59040,0,0,0,60319,27363,0,0,0,0,152,1575,1904,1623,0,0,0,0,4061,4070,4070,4082
1494527315660806405,213,1494527316147278871,,59060,0,0,0,60319,27363,0,0,0,0,152,1571,1905,1623,0,0,0,0,4070,4080,4075,4079
1494527315680124283,214,1494527316166476692,,59080,0,0,0,60319,27363,0,0,0,0,152,1556,1905,1624,0,0,0,0,4076,4080,4078,4066
1494527315700152990,215,1494527316186351553,,59100,0,0,0,60319,27363,0,0,0,0,152,1556,1906,1624,0,0,0,0,4073,4076,4065,4068
1494527315719585535,216,1494527316206391247,,59120,0,0,0,60319,27363,0,0,0,0,152,1551,1906,1622,0,0,0,0,4064,4068,4074,4080
1494527315741269697,217,1494527316226812440,,59140,0,0,0,60319,27363,0,0,0,0,152,1576,1904,1622,0,0,0,0,4067,4070,4071,4080
1494527315761639258,218,1494527316247505674,,59160,0,0,0,60319,27363,0,0,0,0,152,1576,1904,1618,0,0,0,0,4068,4077,4082,4063
1494527315781618921,219,1494527316267307452,,59180,0,0,0,60319,27363,0,0,0,0,152,1579,1904,1622,0,0,0,0,4077,4069,4061,4071
1494527315800917848,220,1494527316287323062,,59200,0,0,0,60319,27363,0,0,0,0,152,1579,1905,1622,0,0,0,0,4061,4071,4075,4075
1494527315820963958,221,1494527316307433923,,59220,0,0,0,60319,27363,0,0,0,0,152,1576,1905,1626,0,0,0,0,4067,4074,4078,4086
1494527315841126701,222,1494527316327529158,,59240,0,0,0,60319,27363,0,0,0,0,152,1576,1905,1626,0,0,0,0,4069,4077,4071,4062
1494527315860213757,223,1494527316346448230,,59260,0,0,0,60319,27363,0,0,0,0,152,1570,1905,1623,0,0,0,0,4070,4069,4062,4073
1494527315880301240,224,1494527316366447091,,59280,0,0,0,60319,27363,0,0,0,0,152,1576,1928,1621,0,0,0,0,4064,4068,4069,4081
1494527315901198581,225,1494527316386415077,,59300,0,0,0,60319,27363,0,0,0,0,152,1576,1928,1621,0,0,0,0,4066,4074,4079,4081
1494527315922560917,226,1494527316407041602,,59320,0,0,0,60319,27363,0,0,0,0,152,1574,1904,1620,0,0,0,0,4074,4074,4074,4063
1494527315940881820,227,1494527316426568673,,59340,0,0,0,60319,27363,0,0,0,0,152,1574,1905,1619,0,0,0,0,4070,4076,4059,4068
1494527315962847800,228,1494527316447707697,,59360,0,0,0,60319,27363,0,0,0,0,152,1577,1905,1619,0,0,0,0,4064,4067,4069,4079
1494527315983590123,229,1494527316467583850,,59380,0,0,0,60319,27363,0,0,0,0,152,1579,1907,1619,0,0,0,0,4064,4073,4076,4083
1494527316003323056,230,1494527316487628502,,59400,0,0,0,60319,27363,0,0,0,0,152,1579,1907,1622,0,0,0,0,4067,4075,4078,4075
1494527316023860617,231,1494527316507981778,,59420,0,0,0,60319,27363,0,0,0,0,152,1575,1907,1622,0,0,0,0,4069,4084,4061,4072
1494527316044318466,232,1494527316527905806,,59440,0,0,0,60319,27363,0,0,0,0,152,1571,1904,1622,0,0,0,0,4068,4073,4069,4072
1494527316060439857,233,1494527316547228502,,59460,0,0,0,60319,27363,0,0,0,0,152,1570,1907,1624,0,0,0,0,4069,4070,4071,4079
1494527316082848965,234,1494527316567240904,,59480,0,0,0,60319,27363,0,0,0,0,152,1575,1907,1624,0,0,0,0,4071,4075,4074,4070
1494527316104978303,235,1494527316587730722,,59500,0,0,0,60319,27363,0,0,0,0,152,1575,1905,1622,0,0,0,0,4075,4080,4057,4068
1494527316122035173,236,1494527316607289834,,59520,0,0,0,60319,27363,0,0,0,0,152,1575,1904,1622,0,0,0,0,4065,4065,4067,4077
1494527316144326442,237,1494527316628204109,,59540,0,0,0,60319,27363,0,0,0,0,152,1578,1904,1623,0,0,0,0,4063,4073,4072,4081
1494527316168143789,238,1494527316650671546,,59560,0,0,0,60319,27363,0,0,0,0,152,1578,1904,1623,0,0,0,0,4074,4072,4075,4064
1494527316186673310,239,1494527316667539165,,59580,0,0,0,60319,27363,0,0,0,0,152,1578,1905,1624,0,0,0,0,4075,4075,4065,4072
1494527316202341509,240,1494527316687406401,,59600,0,0,0,60319,27363,0,0,0,0,152,1578,1905,1624,0,0,0,0,4069,4074,4067,4075
1494527316221380044,241,1494527316707467387,,59620,0,0,0,60319,27363,0,0,0,0,152,1578,1910,1623,0,0,0,0,4070,4076,4077,4084
1494527316241178002,242,1494527316727269040,,59640,0,0,0,60319,27363,0,0,0,0,152,1575,1910,1623,0,0,0,0,4074,4079,4073,4067
1494527316260603083,243,1494527316747425400,,59660,0,0,0,60319,27363,0,0,0,0,152,1575,1910,1624,0,0,0,0,4071,4070,4065,4071
1494527316315409696,244,1494527316767824343,,59680,0,0,0,60319,27363,0,0,0,0,152,1568,1905,1624,0,0,0,0,4064,4071,4072,4075
1494527316334562878,245,1494527316788010286,,59700,0,0,0,60319,27363,0,0,0,0,152,1577,1905,1621,0,0,0,0,4065,4077,4076,4079
1494527316343521305,246,1494527316810812389,,59720,0,0,0,60319,27363,0,0,0,0,152,1577,1904,1621,0,0,0,0,4071,4079,4075,4073
1494527316345790710,247,1494527316830311251,,59740,0,0,0,60319,27363,0,0,0,0,152,1558,1903,1622,0,0,0,0,4071,4077,4068,4065
1494527316361055642,248,1494527316847179079,,59760,0,0,0,60319,27363,0,0,0,0,152,1558,1905,1623,0,0,0,0,4073,4065,4064,4078
1494527316415042688,249,1494527316868330062,,59780,0,0,0,60319,27363,0,0,0,0,152,1579,1905,1623,0,0,0,0,4063,4071,4071,4083
1494527316429400465,250,1494527316888144340,,59800,0,0,0,60319,27363,0,0,0,0,152,1579,1912,1625,0,0,0,0,4064,4071,4071,4088
1494527316429423183,251,1494527316907324869,,59820,0,0,0,60319,27363,0,0,0,0,152,1556,1912,1627,0,0,0,0,4068,4077,4066,4070
1494527316441288745,252,1494527316927984270,,59840,0,0,0,60319,27363,0,0,0,0,152,1573,1912,1627,0,0,0,0,4067,4066,4065,4072
1494527316460614141,253,1494527316947244591,,59860,0,0,0,60319,27363,0,0,0,0,152,1578,1905,1622,0,0,0,0,4070,4069,4071,4078
1494527316480626443,254,1494527316967235077,,59880,0,0,0,60319,27363,0,0,0,0,152,1578,1905,1623,0,0,0,0,4072,4073,4074,4071
1494527316521065386,255,1494527316997870408,,59900,0,0,0,60319,27363,0,0,0,0,152,1582,1904,1623,0,0,0,0,4076,4082,4060,4068
1494527316524969113,256,1494527317008493169,,59920,0,0,0,60319,27363,0,0,0,0,152,1582,1905,1624,0,0,0,0,4072,4073,4074,4082
1494527316546049215,257,1494527317028738945,,59940,0,0,0,60319,27363,0,0,0,0,152,1576,1905,1624,0,0,0,0,4065,4071,4075,4083
1494527316563070601,258,1494527317048982596,,59960,0,0,0,60319,27363,0,0,0,0,152,1578,1905,1623,0,0,0,0,4067,4075,4073,4072
1494527316604512111,259,1494527317069385705,,59980,0,0,0,60319,27363,0,0,0,0,152,1578,1911,1620,0,0,0,0,4071,4076,4066,4063
1494527316633636876,260,1494527317088507984,,60000,0,0,0,60319,27363,0,0,0,0,152,1578,1911,1621,0,0,0,0,4077,4073,4060,4071
1494527316633730714,261,1494527317108126762,,60020,0,0,0,60319,27363,0,0,0,0,152,1574,1907,1622,0,0,0,0,4066,4074,4070,4074
1494527316641534484,262,1494527317128120330,,60040,0,0,0,60319,27363,0,0,0,0,152,1576,1904,1623,0,0,0,0,4072,4070,4073,4079
1494527316663084654,263,1494527317148324440,,60060,0,0,0,60319,27363,0,0,0,0,152,1576,1904,1623,0,0,0,0,4067,4078,4081,4072
1494527316681270254,264,1494527317168096092,,60080,0,0,0,60319,27363,0,0,0,0,152,1576,1904,1622,0,0,0,0,4071,4077,4063,4067
1494527316703112602,265,1494527317189383740,,60100,0,0,0,60319,27363,0,0,0,0,152,1574,1930,1627,0,0,0,0,4070,4072,4072,4080
1494527316721804293,266,1494527317208247645,,60120,0,0,0,60319,27363,0,0,0,0,152,1558,1930,1627,0,0,0,0,4066,4077,4075,4077
1494527316750341017,267,1494527317228174214,,60140,0,0,0,60319,27363,0,0,0,0,152,1553,1904,1623,0,0,0,0,4067,4078,4078,4071
1494527316764244379,268,1494527317248846947,,60160,0,0,0,60319,27363,0,0,0,0,152,1576,1907,1604,0,0,0,0,4070,4076,4066,4069
1494527316782035013,269,1494527317268069517,,60180,0,0,0,60319,27363,0,0,0,0,152,1576,1907,1622,0,0,0,0,4070,4066,4065,4076
1494527316803511342,270,1494527317288196044,,60200,0,0,0,60319,27363,0,0,0,0,152,1574,1905,1622,0,0,0,0,4066,4076,4073,4076
1494527316821885370,271,1494527317308044821,,60220,0,0,0,60319,27363,0,0,0,0,152,1574,1904,1622,0,0,0,0,4069,4077,4072,4083
1494527316842361491,272,1494527317328545513,,60240,0,0,0,60319,27363,0,0,0,0,152,1576,1904,1622,0,0,0,0,4069,4078,4082,4065
1494527316862100704,273,1494527317348068666,,60260,0,0,0,60319,27363,0,0,0,0,152,1576,1905,1621,0,0,0,0,4071,4069,4063,4073
1494527316884225437,274,1494527317368506525,,60280,0,0,0,60319,27363,0,0,0,0,152,1580,1905,1621,0,0,0,0,4069,4072,4064,4074
1494527316905546397,275,1494527317390089880,,60300,0,0,0,60319,27363,0,0,0,0,152,1580,1905,1619,0,0,0,0,4068,4068,4069,4076
1494527316924924138,276,1494527317408536953,,60320,0,0,0,60319,27363,0,0,0,0,152,1553,1905,1618,0,0,0,0,4068,4077,4075,4081
1494527316942390791,277,1494527317428471063,,60340,0,0,0,60319,27363,0,0,0,0,152,1573,1907,1608,0,0,0,0,4069,4075,4070,4065
1494527316965057677,278,1494527317448042633,,60360,0,0,0,60319,27363,0,0,0,0,152,1575,1907,1608,0,0,0,0,4076,4075,4059,4068
1494527316982380812,279,1494527317468429450,,60380,0,0,0,60319,27363,0,0,0,0,152,1576,1907,1603,0,0,0,0,4063,4067,4065,4077
1494527317002887348,280,1494527317488023686,,60400,0,0,0,60319,27363,0,0,0,0,152,1576,1902,1618,0,0,0,0,4069,4070,4071,4078
1494527317036138311,281,1494527317508651419,,60420,0,0,0,60319,27363,0,0,0,0,152,1576,1903,1620,0,0,0,0,4067,4074,4073,4085
1494527317046229949,282,1494527317527913281,,60440,0,0,0,60319,27363,0,0,0,0,152,1574,1903,1623,0,0,0,0,4069,4078,4083,4065
1494527317061814879,283,1494527317548028724,,60460,0,0,0,60319,27363,0,0,0,0,152,1574,1906,1623,0,0,0,0,4075,4067,4061,4068
1494527317082384130,284,1494527317568942290,,60480,0,0,0,60319,27363,0,0,0,0,152,1574,1906,1623,0,0,0,0,4071,4071,4063,4073
1494527317104241529,285,1494527317588929233,,60500,0,0,0,60319,27363,0,0,0,0,152,1574,1904,1623,0,0,0,0,4067,4074,4076,4082
1494527317125702864,286,1494527317608949010,,60520,0,0,0,60319,27363,0,0,0,0,152,1574,1908,1624,0,0,0,0,4066,4073,4071,4082
1494527317145364396,287,1494527317629492119,,60540,0,0,0,60319,27363,0,0,0,0,152,1574,1908,1624,0,0,0,0,4067,4077,4080,4070
1494527317168947447,288,1494527317649474020,,60560,0,0,0,60319,27363,0,0,0,0,152,1576,1908,1624,0,0,0,0,4070,4079,4072,4065
1494527317181850213,289,1494527317667966260,,60580,0,0,0,60319,27363,0,0,0,0,152,1576,1906,1621,0,0,0,0,4075,4067,4062,4070
1494527317206555499,290,1494527317687914870,,60600,0,0,0,60319,27363,0,0,0,0,152,1576,1904,1622,0,0,0,0,4065,4068,4069,4078
1494527317223003930,291,1494527317709053643,,60620,0,0,0,60319,27363,0,0,0,0,152,1564,1904,1622,0,0,0,0,4070,4070,4071,4079
1494527317243247906,292,1494527317729048962,,60640,0,0,0,60319,27363,0,0,0,0,152,1564,1904,1623,0,0,0,0,4070,4078,4072,4090
1494527317266089282,293,1494527317749587903,,60660,0,0,0,60319,27363,0,0,0,0,152,1556,1904,1625,0,0,0,0,4072,4080,4070,4065
1494527317283743933,294,1494527317769176015,,60680,0,0,0,60319,27363,0,0,0,0,152,1573,1902,1625,0,0,0,0,4069,4071,4060,4071
1494527317303098334,295,1494527317789028917,,60700,0,0,0,60319,27363,0,0,0,0,152,1573,1907,1625,0,0,0,0,4066,4066,4065,4075
1494527317322679553,296,1494527317808917485,,60720,0,0,0,60319,27363,0,0,0,0,152,1573,1907,1621,0,0,0,0,4063,4070,4072,4082
1494527317346393116,297,1494527317828941887,,60740,0,0,0,60319,27363,0,0,0,0,152,1573,1907,1620,0,0,0,0,4068,4078,4077,4079
1494527317363804367,298,1494527317849059788,,60760,0,0,0,60319,27363,0,0,0,0,152,1573,1904,1619,0,0,0,0,4070,4076,4075,4067
1494527317384405061,299,1494527317869375147,,60780,0,0,0,60319,27363,0,0,0,0,152,1576,1903,1619,0,0,0,0,4075,4077,4060,4066
1494527317404252727,300,1494527317889633340,,60800,0,0,0,60319,27363,0,0,0,0,152,1576,1905,1622,0,0,0,0,4070,4067,4063,4073
1494527317423607847,301,1494527317909439117,,60820,0,0,0,60319,27363,0,0,0,0,152,1575,1905,1622,0,0,0,0,4067,4068,4070,4077
1494527317448052813,302,1494527317929406852,,60840,0,0,0,60319,27363,0,0,0,0,152,1575,1904,1624,0,0,0,0,4067,4074,4078,4085
1494527317463774832,303,1494527317950072585,,60860,0,0,0,60319,27363,0,0,0,0,152,1575,1905,1624,0,0,0,0,4071,4081,4079,4062
1494527317482518767,304,1494527317968856532,,60880,0,0,0,60319,27363,0,0,0,0,152,1611,1906,1622,0,0,0,0,4067,4074,4060,4066
1494527317502186722,305,1494527317988860434,,60900,0,0,0,60319,27363,0,0,0,0,152,1611,1906,1623,0,0,0,0,4074,4072,4069,4071
1494527317523299889,306,1494527318008974127,,60920,0,0,0,60319,27363,0,0,0,0,152,1571,1906,1623,0,0,0,0,4063,4070,4068,4075
1494527317543494883,307,1494527318028982694,,60940,0,0,0,60319,27363,0,0,0,0,152,1573,1903,1627,0,0,0,0,4065,4072,4073,4081
1494527317563185057,308,1494527318049189386,,60960,0,0,0,60319,27363,0,0,0,0,152,1577,1903,1627,0,0,0,0,4068,4074,4078,4073
1494527317583552832,309,1494527318068977496,,60980,0,0,0,60319,27363,0,0,0,0,152,1577,1906,1627,0,0,0,0,4075,4075,4065,4065
1494527317603609183,310,1494527318088963856,,61000,0,0,0,60319,27363,0,0,0,0,152,1579,1906,1621,0,0,0,0,4071,4069,4063,4073
1494527317623117579,311,1494527318109354631,,61020,0,0,0,60319,27363,0,0,0,0,152,1579,1907,1623,0,0,0,0,4064,4069,4068,4078
1494527317644094644,312,1494527318130508987,,61040,0,0,0,60319,27363,0,0,0,0,152,1578,1907,1623,0,0,0,0,4062,4071,4072,4084
1494527317666046230,313,1494527318150371055,,61060,0,0,0,60319,27363,0,0,0,0,152,1577,1907,1622,0,0,0,0,4067,4073,4076,4076
1494527317684691407,314,1494527318170193665,,61080,0,0,0,60319,27363,0,0,0,0,152,1577,1906,1622,0,0,0,0,4069,4075,4070,4068
1494527317705949297,315,1494527318190162274,,61100,0,0,0,60319,27363,0,0,0,0,152,1574,1903,1617,0,0,0,0,4074,4075,4064,4067
1494527317723584148,316,1494527318210137800,,61120,0,0,0,60319,27363,0,0,0,0,152,1574,1900,1621,0,0,0,0,4064,4067,4068,4077
1494527317743758538,317,1494527318228812538,,61140,0,0,0,60319,27363,0,0,0,0,152,1573,1904,1621,0,0,0,0,4064,4071,4070,4079
1494527317763375522,318,1494527318248886606,,61160,0,0,0,60319,27363,0,0,0,0,152,1553,1916,1620,0,0,0,0,4066,4073,4073,4071
1494527317784537447,319,1494527318269462380,,61180,0,0,0,60319,27363,0,0,0,0,152,1576,1916,1620,0,0,0,0,4075,4075,4065,4064
1494527317805050190,320,1494527318288873949,,61200,0,0,0,60319,27363,0,0,0,0,152,1578,1916,1601,0,0,0,0,4071,4069,4063,4074
1494527317823317405,321,1494527318308838017,,61220,0,0,0,60319,27363,0,0,0,0,152,1578,1905,1622,0,0,0,0,4062,4070,4074,4077
1494527317845832600,322,1494527318330008748,,61240,0,0,0,60319,27363,0,0,0,0,152,1575,1905,1622,0,0,0,0,4064,4072,4071,4081
1494527317863928068,323,1494527318349961233,,61260,0,0,0,60319,27363,0,0,0,0,152,1577,1905,1622,0,0,0,0,4069,4075,4075,4067
1494527317886764539,324,1494527318370805298,,61280,0,0,0,60319,27363,0,0,0,0,152,1577,1905,1624,0,0,0,0,4071,4081,4070,4070
1494527317903602911,325,1494527318389767202,,61300,0,0,0,60319,27363,0,0,0,0,152,1577,1904,1624,0,0,0,0,4069,4065,4068,4079
1494527317926145702,326,1494527318409768436,,61320,0,0,0,60319,27363,0,0,0,0,152,1573,1904,1620,0,0,0,0,4065,4073,4069,4079
1494527317943697780,327,1494527318429748045,,61340,0,0,0,60319,27363,0,0,0,0,152,1576,1904,1620,0,0,0,0,4070,4072,4074,4080
1494527317964001299,328,1494527318450066696,,61360,0,0,0,60319,27363,0,0,0,0,152,1576,1903,1623,0,0,0,0,4074,4080,4064,4063
1494527317985728476,329,1494527318470565845,,61380,0,0,0,60319,27363,0,0,0,0,152,1576,1902,1623,0,0,0,0,4072,4071,4065,4073
1494527318005656913,330,1494527318490121122,,61400,0,0,0,60319,27363,0,0,0,0,152,1573,1902,1623,0,0,0,0,4067,4067,4069,4079
1494527318027628997,331,1494527318511097562,,61420,0,0,0,60319,27363,0,0,0,0,152,1573,1906,1622,0,0,0,0,4068,4071,4070,4077
1494527318044542271,332,1494527318529932675,,61440,0,0,0,60319,27363,0,0,0,0,152,1575,1906,1620,0,0,0,0,4071,4071,4073,4081
1494527318064328464,333,1494527318549745285,,61460,0,0,0,60319,27363,0,0,0,0,152,1575,1906,1622,0,0,0,0,4069,4077,4084,4062
1494527318084675148,334,1494527318570102643,,61480,0,0,0,60319,27363,0,0,0,0,152,1575,1902,1623,0,0,0,0,4075,4082,4065,4070
1494527318105886194,335,1494527318590171169,,61500,0,0,0,60319,27363,0,0,0,0,152,1578,1905,1627,0,0,0,0,4064,4063,4065,4075
1494527318128735389,336,1494527318610387236,,61520,0,0,0,60319,27363,0,0,0,0,152,1578,1905,1627,0,0,0,0,4065,4070,4074,4082
1494527318145080417,337,1494527318630210929,,61540,0,0,0,60319,27363,0,0,0,0,152,1576,1904,1621,0,0,0,0,4067,4073,4077,4086
1494527318166282579,338,1494527318650602704,,61560,0,0,0,60319,27363,0,0,0,0,152,1577,1905,1621,0,0,0,0,4074,4078,4073,4068
1494527318183132477,339,1494527318669708399,,61580,0,0,0,60319,27363,0,0,0,0,152,1577,1905,1621,0,0,0,0,4076,4077,4062,4066
1494527318204378555,340,1494527318689669050,,61600,0,0,0,60319,27363,0,0,0,0,152,1577,1906,1624,0,0,0,0,4075,4063,4065,4074
1494527318230574739,341,1494527318710996156,,61620,0,0,0,60319,27363,0,0,0,0,152,1578,1906,1624,0,0,0,0,4062,4069,4072,4081
1494527318246960055,342,1494527318730251517,,61640,0,0,0,60319,27363,0,0,0,0,152,1578,1925,1624,0,0,0,0,4069,4073,4074,4084
1494527318265644633,343,1494527318751046499,,61660,0,0,0,60319,27363,0,0,0,0,152,1578,1925,1623,0,0,0,0,4070,4074,4078,4073
1494527318286158020,344,1494527318770658901,,61680,0,0,0,60319,27363,0,0,0,0,152,1578,1903,1621,0,0,0,0,4070,4077,4069,4068
1494527318305120449,345,1494527318790209679,,61700,0,0,0,60319,27363,0,0,0,0,152,1575,1903,1621,0,0,0,0,4077,4066,4066,4072
1494527318324883503,346,1494527318810198455,,61720,0,0,0,60319,27363,0,0,0,0,152,1572,1903,1625,0,0,0,0,4062,4071,4074,4075
1494527318344711837,347,1494527318829632941,,61740,0,0,0,60319,27363,0,0,0,0,152,1575,1903,1625,0,0,0,0,4065,4074,4078,4082
1494527318364132736,348,1494527318849729133,,61760,0,0,0,60319,27363,0,0,0,0,152,1575,1903,1625,0,0,0,0,4071,4081,4077,4065
1494527318387479560,349,1494527318869708701,,61780,0,0,0,60319,27363,0,0,0,0,152,1575,1904,1624,0,0,0,0,4076,4078,4061,4066
1494527318406164841,350,1494527318890813224,,61800,0,0,0,60319,27363,0,0,0,0,152,1574,1907,1624,0,0,0,0,4078,4065,4065,4072
1494527318427560415,351,1494527318910870166,,61820,0,0,0,60319,27363,0,0,0,0,152,1574,1907,1623,0,0,0,0,4064,4074,4069,4078
1494527318446694094,352,1494527318932332521,,61840,0,0,0,60319,27363,0,0,0,0,152,1574,1903,1622,0,0,0,0,4065,4074,4077,4085
1494527318465232122,353,1494527318950701719,,61860,0,0,0,60319,27363,0,0,0,0,152,1574,1904,1623,0,0,0,0,4068,4075,4079,4070
1494527318484703698,354,1494527318970753911,,61880,0,0,0,60319,27363,0,0,0,0,152,1574,1904,1623,0,0,0,0,4077,4082,4059,4069
1494527318503385464,355,1494527318989609607,,61900,0,0,0,60319,27363,0,0,0,0,152,1573,1904,1622,0,0,0,0,4063,4067,4066,4077
1494527318523233181,356,1494527319009722508,,61920,0,0,0,60319,27363,0,0,0,0,152,1552,1904,1622,0,0,0,0,4063,4072,4074,4085
1494527318548581312,357,1494527319032780607,,61940,0,0,0,60319,27363,0,0,0,0,152,1577,1904,1622,0,0,0,0,4068,4076,4074,4073
1494527318566457622,358,1494527319052277884,,61960,0,0,0,60319,27363,0,0,0,0,152,1577,1934,1622,0,0,0,0,4074,4077,4063,4064
1494527318584687141,359,1494527319070790830,,61980,0,0,0,60319,27363,0,0,0,0,152,1577,1934,1622,0,0,0,0,4069,4068,4063,4077
1494527318603715010,360,1494527319090588023,,62000,0,0,0,60319,27363,0,0,0,0,152,1573,1906,1622,0,0,0,0,4068,4067,4068,4076
1494527318627200317,361,1494527319110845589,,62020,0,0,0,60319,27363,0,0,0,0,152,1573,1904,1625,0,0,0,0,4065,4077,4075,4079
1494527318645629032,362,1494527319130566615,,62040,0,0,0,60319,27363,0,0,0,0,152,1572,1904,1625,0,0,0,0,4069,4073,4077,4076
1494527318666755409,363,1494527319151221639,,62060,0,0,0,60319,27363,0,0,0,0,152,1573,1904,1624,0,0,0,0,4070,4074,4067,4067
1494527318694485025,364,1494527319173668073,,62080,0,0,0,60319,27363,0,0,0,0,152,1573,1904,1624,0,0,0,0,4070,4070,4068,4073
1494527318708241783,365,1494527319193600057,,62100,0,0,0,60319,27363,0,0,0,0,152,1578,1903,1627,0,0,0,0,4069,4066,4068,4075
1494527318724946469,366,1494527319211001924,,62120,0,0,0,60319,27363,0,0,0,0,152,1578,1903,1627,0,0,0,0,4068,4071,4072,4078
1494527318747234165,367,1494527319230986616,,62140,0,0,0,60319,27363,0,0,0,0,152,1576,1904,1627,0,0,0,0,4070,4071,4073,4083
1494527318767463830,368,1494527319251407056,,62160,0,0,0,60319,27363,0,0,0,0,152,1576,1906,1621,0,0,0,0,4068,4079,4086,4061
1494527318787928014,369,1494527319272374454,,62180,0,0,0,60319,27363,0,0,0,0,152,1576,1906,1621,0,0,0,0,4077,4080,4058,4068
1494527318805806243,370,1494527319291959730,,62200,0,0,0,60319,27363,0,0,0,0,152,1575,1903,1625,0,0,0,0,4068,4062,4066,4072
1494527318825347110,371,1494527319310972800,,62220,0,0,0,60319,27363,0,0,0,0,152,1577,1903,1625,0,0,0,0,4066,4074,4069,4079
1494527318847328893,372,1494527319330722535,,62240,0,0,0,60319,27363,0,0,0,0,152,1577,1903,1625,0,0,0,0,4066,4075,4078,4081
1494527318863896264,373,1494527319350700185,,62260,0,0,0,60319,27363,0,0,0,0,152,1575,1905,1621,0,0,0,0,4070,4074,4076,4071
1494527318883960030,374,1494527319370495252,,62280,0,0,0,60319,27363,0,0,0,0,152,1575,1905,1621,0,0,0,0,4070,4079,4067,4066
1494527318905682164,375,1494527319390928818,,62300,0,0,0,60319,27363,0,0,0,0,152,1574,1925,1621,0,0,0,0,4070,4066,4068,4075
1494527318940674172,376,1494527319412118632,,62320,0,0,0,60319,27363,0,0,0,0,152,1576,1925,1627,0,0,0,0,4062,4068,4066,4075
1494527318952220147,377,1494527319430772203,,62340,0,0,0,60319,27363,0,0,0,0,152,1576,1925,1627,0,0,0,0,4067,4073,4073,4082
1494527318966617259,378,1494527319451581142,,62360,0,0,0,60319,27363,0,0,0,0,152,1576,1905,1627,0,0,0,0,4070,4076,4083,4067
1494527318985012721,379,1494527319470602420,,62380,0,0,0,60319,27363,0,0,0,0,152,1576,1906,1625,0,0,0,0,4073,4069,4060,4068
1494527319006607837,380,1494527319491524276,,62400,0,0,0,60319,27363,0,0,0,0,152,1575,1906,1621,0,0,0,0,4067,4069,4071,4075
1494527319028550758,381,1494527319512652465,,62420,0,0,0,60319,27363,0,0,0,0,152,1575,1903,1620,0,0,0,0,4063,4071,4069,4079
1494527319051313926,382,1494527319532096492,,62440,0,0,0,60319,27363,0,0,0,0,152,1576,1903,1620,0,0,0,0,4072,4078,4079,4089
1494527319064292439,383,1494527319550814729,,62460,0,0,0,60319,27363,0,0,0,0,152,1576,1904,1618,0,0,0,0,4069,4073,4072,4063
1494527319101132098,384,1494527319570479589,,62480,0,0,0,60319,27363,0,0,0,0,152,1575,1904,1618,0,0,0,0,4069,4077,4060,4074
1494527319113032315,385,1494527319590777447,,62500,0,0,0,60319,27363,0,0,0,0,152,1574,1907,1616,0,0,0,0,4066,4070,4070,4078
1494527319124735001,386,1494527319610671806,,62520,0,0,0,60319,27363,0,0,0,0,152,1576,1907,1621,0,0,0,0,4062,4070,4074,4076
1494527319152513322,387,1494527319632527242,,62540,0,0,0,60319,27363,0,0,0,0,152,1576,1923,1621,0,0,0,0,4072,4077,4071,4082
1494527319171362262,388,1494527319652236602,,62560,0,0,0,60319,27363,0,0,0,0,152,1576,1923,1621,0,0,0,0,4069,4077,4080,4065
1494527319187340714,389,1494527319671928086,,62580,0,0,0,60319,27363,0,0,0,0,152,1576,1910,1621,0,0,0,0,4070,4071,4060,4067
1494527319206211187,390,1494527319691746196,,62600,0,0,0,60319,27363,0,0,0,0,152,1573,1901,1622,0,0,0,0,4065,4067,4069,4079
1494527319224831338,391,1494527319711516263,,62620,0,0,0,60319,27363,0,0,0,0,152,1574,1908,1624,0,0,0,0,4066,4073,4078,4082
1494527319245689932,392,1494527319731496039,,62640,0,0,0,60319,27363,0,0,0,0,152,1574,1908,1624,0,0,0,0,4069,4074,4078,4073
1494527319266042577,393,1494527319752011146,,62660,0,0,0,60319,27363,0,0,0,0,152,1572,1906,1621,0,0,0,0,4070,4078,4070,4065
1494527319287734526,394,1494527319772816794,,62680,0,0,0,60319,27363,0,0,0,0,152,1576,1906,1623,0,0,0,0,4077,4073,4068,4073
1494527319304889182,395,1494527319791415865,,62700,0,0,0,60319,27363,0,0,0,0,152,1578,1906,1623,0,0,0,0,4063,4069,4070,4081
1494527319326457460,396,1494527319811596764,,62720,0,0,0,60319,27363,0,0,0,0,152,1578,1906,1621,0,0,0,0,4065,4073,4071,4080
1494527319346872735,397,1494527319832805828,,62740,0,0,0,60319,27363,0,0,0,0,152,1574,1905,1621,0,0,0,0,4070,4080,4078,4066
1494527319365912047,398,1494527319851938814,,62760,0,0,0,60319,27363,0,0,0,0,152,1561,1905,1623,0,0,0,0,4070,4077,4062,4066
1494527319386775050,399,1494527319871955756,,62780,0,0,0,60319,27363,0,0,0,0,152,1561,1903,1623,0,0,0,0,4071,4068,4063,4073
1494527319406515366,400,1494527319892248947,,62800,0,0,0,60319,27363,0,0,0,0,152,1553,1903,1622,0,0,0,0,4063,4068,4070,4080
1494527319427658957,401,1494527319911438267,,62820,0,0,0,60319,27363,0,0,0,0,152,1577,1904,1622,0,0,0,0,4070,4075,4068,4079
1494527319445060306,402,1494527319931530292,,62840,0,0,0,60319,27363,0,0,0,0,152,1577,1906,1626,0,0,0,0,4068,4073,4074,4071
1494527319469020421,403,1494527319951444900,,62860,0,0,0,60319,27363,0,0,0,0,152,1554,1912,1626,0,0,0,0,4069,4073,4071,4067
1494527319496137224,404,1494527319972070757,,62880,0,0,0,60319,27363,0,0,0,0,152,1554,1912,1626,0,0,0,0,4069,4066,4062,4072
1494527319506969941,405,1494527319992701447,,62900,0,0,0,60319,27363,0,0,0,0,152,1580,1912,1626,0,0,0,0,4063,4068,4066,4075
1494527319526522658,406,1494527320012560473,,62920,0,0,0,60319,27363,0,0,0,0,152,1580,1903,1625,0,0,0,0,4065,4076,4078,4080
1494527319545488210,407,1494527320031781916,,62940,0,0,0,60319,27363,0,0,0,0,152,1578,1902,1621,0,0,0,0,4075,4080,4079,4071
1494527319565494431,408,1494527320051395359,,62960,0,0,0,60319,27363,0,0,0,0,152,1578,1905,1620,0,0,0,0,4069,4077,4062,4067
1494527319615112608,409,1494527320071498008,,62980,0,0,0,60319,27363,0,0,0,0,152,1570,1905,1600,0,0,0,0,4078,4070,4062,4073
1494527319622059397,410,1494527320092470280,,63000,0,0,0,60319,27363,0,0,0,0,152,1552,1904,1624,0,0,0,0,4065,4067,4068,4076
1494527319629030027,411,1494527320115214755,,63020,0,0,0,60319,27363,0,0,0,0,152,1552,1923,1624,0,0,0,0,4068,4073,4075,4085
1494527319646843700,412,1494527320132208205,,63040,0,0,0,60319,27363,0,0,0,0,152,1553,1923,1624,0,0,0,0,4075,4079,4075,4064
1494527319666282350,413,1494527320151817022,,63060,0,0,0,60319,27363,0,0,0,0,152,1573,1907,1623,0,0,0,0,4069,4084,4059,4070
1494527319689641890,414,1494527320171805297,,63080,0,0,0,60319,27363,0,0,0,0,152,1573,1907,1623,0,0,0,0,4066,4067,4069,4079
1494527319705983407,415,1494527320192108696,,63100,0,0,0,60319,27363,0,0,0,0,152,1576,1908,1621,0,0,0,0,4063,4072,4075,4079
1494527319726728173,416,1494527320212389428,,63120,0,0,0,60319,27363,0,0,0,0,152,1576,1908,1622,0,0,0,0,4069,4078,4073,4085
1494527319746755656,417,1494527320232312453,,63140,0,0,0,60319,27363,0,0,0,0,152,1574,1905,1623,0,0,0,0,4071,4076,4068,4064
1494527319770568663,418,1494527320252393936,,63160,0,0,0,60319,27363,0,0,0,0,152,1575,1904,1625,0,0,0,0,4073,4069,4063,4076
1494527319786823645,419,1494527320272625751,,63180,0,0,0,60319,27363,0,0,0,0,152,1575,1902,1626,0,0,0,0,4065,4068,4069,4080
1494527319808893860,420,1494527320292994983,,63200,0,0,0,60319,27363,0,0,0,0,152,1574,1903,1626,0,0,0,0,4066,4071,4075,4083
1494527319828224938,421,1494527320312218635,,63220,0,0,0,60319,27363,0,0,0,0,152,1559,1903,1625,0,0,0,0,4067,4074,4076,4072
1494527319847000587,422,1494527320332346868,,63240,0,0,0,60319,27363,0,0,0,0,152,1568,1911,1625,0,0,0,0,4075,4075,4061,4065
1494527319871050351,423,1494527320352725891,,63260,0,0,0,60319,27363,0,0,0,0,152,1574,1911,1623,0,0,0,0,4063,4067,4067,4078
1494527319886859942,424,1494527320373033123,,63280,0,0,0,60319,27363,0,0,0,0,152,1574,1903,1623,0,0,0,0,4063,4070,4075,4082
1494527319909066529,425,1494527320392466441,,63300,0,0,0,60319,27363,0,0,0,0,152,1574,1903,1622,0,0,0,0,4065,4074,4075,4084
1494527319927073538,426,1494527320412571549,,63320,0,0,0,60319,27363,0,0,0,0,152,1574,1903,1621,0,0,0,0,4074,4075,4067,4063
1494527319949023128,427,1494527320433497154,,63340,0,0,0,60319,27363,0,0,0,0,152,1577,1902,1624,0,0,0,0,4078,4067,4061,4070
1494527319971275974,428,1494527320452492140,,63360,0,0,0,60319,27363,0,0,0,0,152,1577,1902,1624,0,0,0,0,4063,4068,4069,4080
1494527319987072376,429,1494527320472608623,,63380,0,0,0,60319,27363,0,0,0,0,152,1582,1902,1626,0,0,0,0,4067,4072,4075,4086
1494527320006159270,430,1494527320492221857,,63400,0,0,0,60319,27363,0,0,0,0,152,1582,1902,1626,0,0,0,0,4070,4077,4073,4059
1494527320027868867,431,1494527320512211590,,63420,0,0,0,60319,27363,0,0,0,0,152,1582,1907,1622,0,0,0,0,4075,4077,4067,4069
1494527320045946759,432,1494527320532324447,,63440,0,0,0,60319,27363,0,0,0,0,152,1574,1907,1626,0,0,0,0,4063,4068,4069,4077
1494527320067870089,433,1494527320553192344,,63460,0,0,0,60319,27363,0,0,0,0,152,1570,1903,1626,0,0,0,0,4068,4077,4076,4085
1494527320158199471,434,1494527320573225452,,63480,0,0,0,60319,27363,0,0,0,0,152,1577,1903,1626,0,0,0,0,4067,4076,4080,4069
1494527320158375263,435,1494527320596692217,,63500,0,0,0,60319,27363,0,0,0,0,152,1577,1903,1623,0,0,0,0,4071,4080,4069,4068
1494527320158396920,436,1494527320612553462,,63520,0,0,0,60319,27363,0,0,0,0,152,1573,1905,1623,0,0,0,0,4074,4066,4066,4076
1494527320158414467,437,1494527320632285862,,63540,0,0,0,60319,27363,0,0,0,0,152,1572,1905,1622,0,0,0,0,4063,4072,4074,4077
1494527320166528622,438,1494527320652488386,,63560,0,0,0,60319,27363,0,0,0,0,152,1574,1903,1621,0,0,0,0,4067,4077,4078,4081
1494527320185914949,439,1494527320672351328,,63580,0,0,0,60319,27363,0,0,0,0,152,1574,1904,1621,0,0,0,0,4069,4075,4080,4061
1494527320205707407,440,1494527320692181270,,63600,0,0,0,60319,27363,0,0,0,0,152,1574,1906,1621,0,0,0,0,4076,4075,4057,4069
1494527320232679338,441,1494527320713640832,,63620,0,0,0,60319,27363,0,0,0,0,152,1574,1906,1621,0,0,0,0,4065,4069,4066,4077
1494527320249524973,442,1494527320732877609,,63640,0,0,0,60319,27363,0,0,0,0,152,1569,1905,1620,0,0,0,0,4065,4077,4072,4078
1494527320265813225,443,1494527320752194385,,63660,0,0,0,60319,27363,0,0,0,0,152,1573,1905,1622,0,0,0,0,4069,4080,4073,4071
1494527320287702346,444,1494527320773343740,,63680,0,0,0,60319,27363,0,0,0,0,152,1573,1905,1622,0,0,0,0,4073,4082,4071,4061
1494527320305533145,445,1494527320792222810,,63700,0,0,0,60319,27363,0,0,0,0,152,1573,1904,1624,0,0,0,0,4071,4069,4063,4075
1494527320327461975,446,1494527320813365414,,63720,0,0,0,60319,27363,0,0,0,0,152,1555,1903,1625,0,0,0,0,4066,4066,4068,4078
1494527320347455144,447,1494527320833309106,,63740,0,0,0,60319,27363,0,0,0,0,152,1554,1903,1628,0,0,0,0,4065,4071,4070,4080
1494527320368249215,448,1494527320853360005,,63760,0,0,0,60319,27363,0,0,0,0,152,1577,1904,1628,0,0,0,0,4070,4075,4075,4071
1494527320386682094,449,1494527320872264450,,63780,0,0,0,60319,27363,0,0,0,0,152,1577,1906,1600,0,0,0,0,4070,4076,4071,4067
1494527320406526485,450,1494527320892209558,,63800,0,0,0,60319,27363,0,0,0,0,152,1577,1906,1620,0,0,0,0,4071,4070,4062,4072
1494527320426148387,451,1494527320912130416,,63820,0,0,0,60319,27363,0,0,0,0,152,1572,1904,1623,0,0,0,0,4062,4072,4073,4077
1494527320446652859,452,1494527320932242232,,63840,0,0,0,60319,27363,0,0,0,0,152,1572,1904,1624,0,0,0,0,4067,4077,4072,4082
1494527320468560082,453,1494527320953592628,,63860,0,0,0,60319,27363,0,0,0,0,152,1577,1903,1624,0,0,0,0,4066,4075,4074,4068
1494527320489121760,454,1494527320973606819,,63880,0,0,0,60319,27363,0,0,0,0,152,1579,1925,1623,0,0,0,0,4071,4074,4061,4072
1494527320509568873,455,1494527320993135512,,63900,0,0,0,60319,27363,0,0,0,0,152,1579,1925,1623,0,0,0,0,4065,4069,4073,4074
1494527320527053618,456,1494527321013282952,,63920,0,0,0,60319,27363,0,0,0,0,152,1577,1925,1622,0,0,0,0,4063,4074,4073,4086
1494527320548953779,457,1494527321033079477,,63940,0,0,0,60319,27363,0,0,0,0,152,1577,1907,1621,0,0,0,0,4067,4075,4074,4073
1494527320566689622,458,1494527321053116251,,63960,0,0,0,60319,27363,0,0,0,0,152,1577,1907,1619,0,0,0,0,4068,4077,4062,4068
1494527320590744724,459,1494527321075008102,,63980,0,0,0,60319,27363,0,0,0,0,152,1577,1903,1622,0,0,0,0,4075,4072,4067,4069
1494527320610629111,460,1494527321093676047,,64000,0,0,0,60319,27363,0,0,0,0,152,1589,1902,1629,0,0,0,0,4063,4069,4069,4077
1494527320626318455,461,1494527321113048489,,64020,0,0,0,60319,27363,0,0,0,0,152,1589,1903,1629,0,0,0,0,4066,4068,4071,4081
1494527320647429991,462,1494527321133201388,,64040,0,0,0,60319,27363,0,0,0,0,152,1575,1905,1629,0,0,0,0,4067,4075,4074,4070
1494527320668652037,463,1494527321154273742,,64060,0,0,0,60319,27363,0,0,0,0,152,1576,1907,1623,0,0,0,0,4072,4081,4062,4064
1494527320692350238,464,1494527321173176436,,64080,0,0,0,60319,27363,0,0,0,0,152,1581,1907,1623,0,0,0,0,4077,4066,4062,4070
1494527320706680127,465,1494527321193203001,,64100,0,0,0,60319,27363,0,0,0,0,152,1581,1902,1623,0,0,0,0,4066,4067,4067,4075
1494527320729307318,466,1494527321213884648,,64120,0,0,0,60319,27363,0,0,0,0,152,1573,1904,1623,0,0,0,0,4066,4072,4070,4080
1494527320748126139,467,1494527321233519215,,64140,0,0,0,60319,27363,0,0,0,0,152,1575,1906,1621,0,0,0,0,4071,4081,4079,4067
1494527320768721558,468,1494527321253559072,,64160,0,0,0,60319,27363,0,0,0,0,152,1575,1906,1620,0,0,0,0,4076,4078,4063,4067
1494527320792227859,469,1494527321273837387,,64180,0,0,0,60319,27363,0,0,0,0,152,1572,1905,1620,0,0,0,0,4072,4068,4063,4072
1494527320816468723,470,1494527321293577370,,64200,0,0,0,60319,27363,0,0,0,0,152,1553,1902,1621,0,0,0,0,4063,4070,4071,4081
1494527320835106135,471,1494527321313142395,,64220,0,0,0,60319,27363,0,0,0,0,152,1597,1903,1621,0,0,0,0,4068,4076,4076,4083
1494527320849186458,472,1494527321334034042,,64240,0,0,0,60319,27363,0,0,0,0,152,1597,1903,1621,0,0,0,0,4068,4075,4079,4070
1494527320866511824,473,1494527321353016694,,64260,0,0,0,60319,27363,0,0,0,0,152,1597,1903,1624,0,0,0,0,4069,4079,4063,4065
1494527320886744096,474,1494527321373043426,,64280,0,0,0,60319,27363,0,0,0,0,152,1574,1904,1625,0,0,0,0,4072,4070,4063,4072
1494527320908794202,475,1494527321393109241,,64300,0,0,0,60319,27363,0,0,0,0,152,1574,1906,1625,0,0,0,0,4066,4072,4072,4080
1494527320930619613,476,1494527321413629347,,64320,0,0,0,60319,27363,0,0,0,0,152,1571,1906,1625,0,0,0,0,4067,4078,4071,4081
1494527320947057908,477,1494527321433397205,,64340,0,0,0,60319,27363,0,0,0,0,152,1553,1906,1622,0,0,0,0,4069,4079,4073,4071
1494527320966650553,478,1494527321453007689,,64360,0,0,0,60319,27363,0,0,0,0,152,1555,1906,1619,0,0,0,0,4074,4075,4066,4064
1494527320987320404,479,1494527321473224295,,64380,0,0,0,60319,27363,0,0,0,0,152,1574,1906,1620,0,0,0,0,4071,4070,4062,4071
1494527321006917149,480,1494527321493085736,,64400,0,0,0,60319,27363,0,0,0,0,152,1574,1903,1622,0,0,0,0,4067,4072,4067,4076
