%time,field.linear.x,field.linear.y,field.linear.z,field.angular.x,field.angular.y,field.angular.z
1494526715252338062,0.05,0.0,0.0,0.0,0.0,0.0
1494526715304960439,0.05,0.0,0.0,0.0,0.0,0.0
1494526715352422951,0.05,0.0,0.0,0.0,0.0,0.0
1494526715404112015,0.05,0.0,0.0,0.0,0.0,0.0
1494526715451193307,0.05,0.0,0.0,0.0,0.0,0.0
1494526715501601629,0.05,0.0,0.0,0.0,0.0,0.0
1494526715551313813,0.05,0.0,0.0,0.0,0.0,0.0
1494526715603799978,0.05,0.0,0.0,0.0,0.0,0.0
1494526715651242355,0.05,0.0,0.0,0.0,0.0,0.0
1494526715706463179,0.05,0.0,0.0,0.0,0.0,0.0
1494526715751840313,0.05,0.0,0.0,0.0,0.0,0.0
1494526715809132385,0.05,0.0,0.0,0.0,0.0,0.0
1494526715862518125,0.1,0.0,0.0,0.0,0.0,0.0
1494526715901683361,0.1,0.0,0.0,0.0,0.0,0.0
1494526715951622660,0.1,0.0,0.0,0.0,0.0,0.0
1494526716001331145,0.1,0.0,0.0,0.0,0.0,0.0
1494526716052053498,0.1,0.0,0.0,0.0,0.0,0.0
1494526716102229583,0.1,0.0,0.0,0.0,0.0,0.0
1494526716151190345,0.1,0.0,0.0,0.0,0.0,0.0
1494526716201235283,0.1,0.0,0.0,0.0,0.0,0.0
1494526716251112448,0.15,0.0,0.0,0.0,0.0,0.0
1494526716301990773,0.15,0.0,0.0,0.0,0.0,0.0
1494526716352102016,0.15,0.0,0.0,0.0,0.0,0.0
1494526716401922696,0.15,0.0,0.0,0.0,0.0,0.0
1494526716453085776,0.15,0.0,0.0,0.0,0.0,0.0
1494526716501486414,0.15,0.0,0.0,0.0,0.0,0.0
1494526716563759960,0.15,0.0,0.0,0.0,0.0,0.0
1494526716605155491,0.15,0.0,0.0,0.0,0.0,0.0
1494526716657104773,0.15,0.0,0.0,0.0,0.0,0.0
1494526716701324940,0.15,0.0,0.0,0.0,0.0,0.0
1494526716752578323,0.15,0.0,0.0,0.0,0.0,0.0
1494526716801100957,0.15,0.0,0.0,0.0,0.0,0.0
1494526716864353725,0.15,0.0,0.0,0.0,0.0,0.0
1494526716901697422,0.15,0.0,0.0,0.0,0.0,0.0
1494526716951836048,0.2,0.0,0.0,0.0,0.0,0.0
1494526717001383308,0.2,0.0,0.0,0.0,0.0,0.0
1494526717052218781,0.2,0.0,0.0,0.0,0.0,0.0
1494526717101313279,0.2,0.0,0.0,0.0,0.0,0.0
1494526717151369271,0.2,0.0,0.0,0.0,0.0,0.0
1494526717201990721,0.2,0.0,0.0,0.0,0.0,0.0
1494526717251587960,0.2,0.0,0.0,0.0,0.0,0.0
1494526717301617193,0.2,0.0,0.0,0.0,0.0,0.0
1494526717351075197,0.25,0.0,0.0,0.0,0.0,0.0
1494526717404897380,0.25,0.0,0.0,0.0,0.0,0.0
1494526717451153663,0.25,0.0,0.0,0.0,0.0,0.0
1494526717502450729,0.25,0.0,0.0,0.0,0.0,0.0
1494526717551691064,0.25,0.0,0.0,0.0,0.0,0.0
1494526717601864374,0.25,0.0,0.0,0.0,0.0,0.0
1494526717652514066,0.25,0.0,0.0,0.0,0.0,0.0
1494526717702306066,0.25,0.0,0.0,0.0,0.0,0.0
1494526717753161185,0.25,0.0,0.0,0.0,0.0,0.0
1494526717801725482,0.25,0.0,0.0,0.0,0.0,0.0
1494526717857440771,0.25,0.0,0.0,0.0,0.0,0.0
1494526717901497186,0.25,0.0,0.0,0.0,0.0,0.0
1494526717951138241,0.25,0.0,0.0,0.0,0.0,0.0
1494526718001405796,0.25,0.0,0.0,0.0,0.0,0.0
1494526718051294873,0.25,0.0,0.0,0.0,0.0,0.0
1494526718102247104,0.25,0.0,0.0,0.0,0.0,0.0
1494526718151076571,0.25,0.0,0.0,0.0,0.0,0.0
1494526718204195449,0.25,0.0,0.0,0.0,0.0,0.0
1494526718255555693,0.25,0.0,0.0,0.0,0.0,0.0
1494526718303044426,0.25,0.0,0.0,0.0,0.0,0.0
1494526718351458175,0.25,0.0,0.0,0.0,0.0,0.0
1494526718401813544,0.25,0.0,0.0,0.0,0.0,0.0
1494526718451274449,0.25,0.0,0.0,0.0,0.0,0.0
1494526718502706167,0.25,0.0,0.0,0.0,0.0,0.0
1494526718551152575,0.3,0.0,0.0,0.0,0.0,0.0
1494526718601869875,0.3,0.0,0.0,0.0,0.0,0.0
1494526718651711271,0.3,0.0,0.0,0.0,0.0,0.0
1494526718701245115,0.3,0.0,0.0,0.0,0.0,0.0
1494526718751695431,0.3,0.0,0.0,0.0,0.0,0.0
1494526718801688933,0.3,0.0,0.0,0.0,0.0,0.0
1494526718851288615,0.3,0.0,0.0,0.0,0.0,0.0
1494526718902663142,0.3,0.0,0.0,0.0,0.0,0.0
1494526718951180434,0.3,0.0,0.0,0.0,0.0,0.0
1494526719001302634,0.3,0.0,0.0,0.0,0.0,0.0
1494526719051403636,0.3,0.0,0.0,0.0,0.0,0.0
1494526719103056055,0.3,0.0,0.0,0.0,0.0,0.0
1494526719155762796,0.3,0.0,0.0,0.0,0.0,0.0
1494526719201997636,0.3,0.0,0.0,0.0,0.0,0.0
1494526719253001251,0.3,0.0,0.0,0.0,0.0,0.0
1494526719302903985,0.3,0.0,0.0,0.0,0.0,0.0
1494526719351120602,0.3,0.0,0.0,0.0,0.0,0.0
1494526719401168311,0.3,0.0,0.0,0.0,0.0,0.0
1494526719455303239,0.3,0.0,0.0,0.0,0.0,0.0
1494526719503449888,0.3,0.0,0.0,0.0,0.0,0.0
1494526719551281701,0.3,0.0,0.0,0.0,0.0,0.0
1494526719601545432,0.3,0.0,0.0,0.0,0.0,0.0
1494526719650969200,0.3,0.0,0.0,0.0,0.0,0.0
1494526719709447810,0.3,0.0,0.0,0.0,0.0,0.0
1494526719753689118,0.3,0.0,0.0,0.0,0.0,0.0
1494526719801348548,0.3,0.0,0.0,0.0,0.0,0.0
1494526719851317039,0.3,0.0,0.0,0.0,0.0,0.0
1494526719909917321,0.3,0.0,0.0,0.0,0.0,0.0
1494526719951568162,0.3,0.0,0.0,0.0,0.0,0.0
1494526720023197582,0.3,0.0,0.0,0.0,0.0,0.0
1494526720051858593,0.3,0.0,0.0,0.0,0.0,0.0
1494526720102458620,0.3,0.0,0.0,0.0,0.0,0.0
1494526720151042350,0.3,0.0,0.0,0.0,0.0,0.0
1494526720201520659,0.3,0.0,0.0,0.0,0.0,0.0
1494526720251527658,0.3,0.0,0.0,0.0,0.0,0.0
1494526720301708914,0.3,0.0,0.0,0.0,0.0,0.0
1494526720351554218,0.3,0.0,0.0,0.0,0.0,0.0
1494526720401502789,0.3,0.0,0.0,0.0,0.0,0.0
1494526720450927654,0.3,0.0,0.0,0.0,0.0,0.0
1494526720501542622,0.3,0.0,0.0,0.0,0.0,0.0
1494526720552227970,0.3,0.0,0.0,0.0,0.0,0.0
1494526720601389490,0.3,0.0,0.0,0.0,0.0,0.0
1494526720665058816,0.3,0.0,0.0,0.0,0.0,0.0
1494526720718429122,0.3,0.0,0.0,0.0,0.0,0.0
1494526720753090776,0.3,0.0,0.0,0.0,0.0,0.0
1494526720802567380,0.3,0.0,0.0,0.0,0.0,0.0
1494526720856179347,0.3,0.0,0.0,0.0,0.0,0.0
1494526720902586541,0.3,0.0,0.0,0.0,0.0,0.0
1494526720953116108,0.3,0.0,0.0,0.0,0.0,0.0
1494526721004517558,0.3,0.0,0.0,0.0,0.0,0.0
1494526721052621736,0.3,0.0,0.0,0.0,0.0,0.0
1494526721101245040,0.3,0.0,0.0,0.0,0.0,0.0
1494526721151673951,0.3,0.0,0.0,0.0,0.0,0.0
1494526721201217337,0.3,0.0,0.0,0.0,0.0,0.0
1494526721251093412,0.3,0.0,0.0,0.0,0.0,0.0
1494526721301176678,0.3,0.0,0.0,0.0,0.0,0.0
1494526721379875696,0.3,0.0,0.0,0.0,0.0,0.0
1494526721401039942,0.3,0.0,0.0,0.0,0.0,0.0
1494526721452004287,0.3,0.0,0.0,0.0,0.0,0.0
1494526721501495292,0.3,0.0,0.0,0.0,0.0,0.0
1494526721554972151,0.3,0.0,0.0,0.0,0.0,0.0
1494526721602164728,0.3,0.0,0.0,0.0,0.0,0.0
1494526721651043927,0.3,0.0,0.0,0.0,0.0,0.0
1494526721701261651,0.3,0.0,0.0,0.0,0.0,0.0
1494526721751051249,0.3,0.0,0.0,0.0,0.0,0.0
1494526721801176344,0.3,0.0,0.0,0.0,0.0,0.0
1494526721852406806,0.3,0.0,0.0,0.0,0.0,0.0
1494526721901356121,0.3,0.0,0.0,0.0,0.0,0.0
1494526721954682413,0.3,0.0,0.0,0.0,0.0,0.0
1494526722001432881,0.3,0.0,0.0,0.0,0.0,0.0
1494526722056804777,0.3,0.0,0.0,0.0,0.0,0.0
1494526722101637112,0.3,0.0,0.0,0.0,0.0,0.0
1494526722157509740,0.3,0.0,0.0,0.0,0.0,0.0
1494526722201905468,0.3,0.0,0.0,0.0,0.0,0.0
1494526722250934640,0.3,0.0,0.0,0.0,0.0,0.0
1494526722301296474,0.3,0.0,0.0,0.0,0.0,0.0
1494526722351999256,0.3,0.0,0.0,0.0,0.0,0.0
1494526722403906597,0.3,0.0,0.0,0.0,0.0,0.0
1494526722454910248,0.3,0.0,0.0,0.0,0.0,0.0
1494526722501798066,0.3,0.0,0.0,0.0,0.0,0.0
1494526722553257632,0.3,0.0,0.0,0.0,0.0,0.0
1494526722601456211,0.3,0.0,0.0,0.0,0.0,0.0
1494526722651009514,0.3,0.0,0.0,0.0,0.0,0.0
1494526722703048871,0.3,0.0,0.0,0.0,0.0,0.0
1494526722757137592,0.3,0.0,0.0,0.0,0.0,0.0
1494526722803743163,0.3,0.0,0.0,0.0,0.0,0.0
1494526722851639666,0.3,0.0,0.0,0.0,0.0,0.0
1494526722904993178,0.3,0.0,0.0,0.0,0.0,0.0
1494526722953961141,0.3,0.0,0.0,0.0,0.0,0.0
1494526723001153165,0.3,0.0,0.0,0.0,0.0,0.0
1494526723056156724,0.3,0.0,0.0,0.0,0.0,0.0
1494526723103616354,0.3,0.0,0.0,0.0,0.0,0.0
1494526723151825707,0.3,0.0,0.0,0.0,0.0,0.0
1494526723201349064,0.3,0.0,0.0,0.0,0.0,0.0
1494526723254409819,0.3,0.0,0.0,0.0,0.0,0.0
1494526723301813892,0.3,0.0,0.0,0.0,0.0,0.0
1494526723353148283,0.3,0.0,0.0,0.0,0.0,0.0
1494526723401293260,0.3,0.0,0.0,0.0,0.0,0.0
1494526723452463964,0.3,0.0,0.0,0.0,0.0,0.0
1494526723501830980,0.3,0.0,0.0,0.0,0.0,0.0
1494526723557830253,0.3,0.0,0.0,0.0,0.0,0.0
1494526723610924019,0.3,0.0,0.0,0.0,0.0,0.0
1494526723651236465,0.3,0.0,0.0,0.0,0.0,0.0
1494526723703605244,0.3,0.0,0.0,0.0,0.0,0.0
1494526723756211101,0.3,0.0,0.0,0.0,0.0,0.0
1494526723801630078,0.3,0.0,0.0,0.0,0.0,0.0
1494526723852536766,0.3,0.0,0.0,0.0,0.0,0.0
1494526723903128088,0.3,0.0,0.0,0.0,0.0,0.0
1494526723952679232,0.3,0.0,0.0,0.0,0.0,0.0
1494526724001363448,0.3,0.0,0.0,0.0,0.0,0.0
1494526724054096737,0.3,0.0,0.0,0.0,0.0,0.0
1494526724104298912,0.3,0.0,0.0,0.0,0.0,0.0
1494526724154976011,0.25,0.0,0.0,0.0,0.0,0.0
1494526724204293371,0.25,0.0,0.0,0.0,0.0,0.0
1494526724251795588,0.25,0.0,0.0,0.0,0.0,0.0
1494526724301233832,0.25,0.0,0.0,0.0,0.0,0.0
1494526724352779605,0.2,0.0,0.0,0.0,0.0,0.0
1494526724402785724,0.2,0.0,0.0,0.0,0.0,0.0
1494526724451663481,0.15,0.0,0.0,0.0,0.0,0.0
1494526724502333343,0.15,0.0,0.0,0.0,0.0,0.0
1494526724554187876,0.15,0.0,0.0,0.0,0.0,0.0
1494526724601161016,0.15,0.0,0.0,0.0,0.0,0.0
1494526724652974276,0.15,0.0,0.0,0.0,0.0,0.0
1494526724701526308,0.15,0.0,0.0,0.0,0.0,0.0
1494526724751511428,0.15,0.0,0.0,0.0,0.0,0.0
1494526724801201599,0.15,0.0,0.0,0.0,0.0,0.0
1494526724853390564,0.15,0.0,0.0,0.0,0.0,0.0
1494526724901808716,0.15,0.0,0.0,0.0,0.0,0.0
1494526724955162639,0.15,0.0,0.0,0.0,0.0,0.0
1494526725001164524,0.15,0.0,0.0,0.0,0.0,0.0
1494526725055061942,0.15,0.0,0.0,0.0,0.0,0.0
1494526725103047208,0.15,0.0,0.0,0.0,0.0,0.0
1494526725151485332,0.15,0.0,0.0,0.0,0.0,-0.33
1494526725201035645,0.15,0.0,0.0,0.0,0.0,-0.33
1494526725254188779,0.15,0.0,0.0,0.0,0.0,-0.33
1494526725301010198,0.15,0.0,0.0,0.0,0.0,-0.33
1494526725351466028,0.15,0.0,0.0,0.0,0.0,-0.66
1494526725401405024,0.15,0.0,0.0,0.0,0.0,-0.66
1494526725451435943,0.15,0.0,0.0,0.0,0.0,-0.66
1494526725501612012,0.15,0.0,0.0,0.0,0.0,-0.66
1494526725557357584,0.15,0.0,0.0,0.0,0.0,-0.99
1494526725602063464,0.15,0.0,0.0,0.0,0.0,-0.99
1494526725674186012,0.15,0.0,0.0,0.0,0.0,-0.99
1494526725710436048,0.15,0.0,0.0,0.0,0.0,-0.99
1494526725756058164,0.15,0.0,0.0,0.0,0.0,-1.32
1494526725806183659,0.15,0.0,0.0,0.0,0.0,-1.32
1494526725851892430,0.15,0.0,0.0,0.0,0.0,-1.32
1494526725902000966,0.15,0.0,0.0,0.0,0.0,-1.32
1494526725984532501,0.15,0.0,0.0,0.0,0.0,-1.32
1494526726001701656,0.15,0.0,0.0,0.0,0.0,-1.32
1494526726060099762,0.15,0.0,0.0,0.0,0.0,-1.32
1494526726101073758,0.15,0.0,0.0,0.0,0.0,-1.32
1494526726154644419,0.15,0.0,0.0,0.0,0.0,-1.32
1494526726201268457,0.15,0.0,0.0,0.0,0.0,-1.32
1494526726253398418,0.15,0.0,0.0,0.0,0.0,-1.32
1494526726301054407,0.15,0.0,0.0,0.0,0.0,-1.32
1494526726354773875,0.15,0.0,0.0,0.0,0.0,-1.32
1494526726400976583,0.15,0.0,0.0,0.0,0.0,-1.32
1494526726451958357,0.15,0.0,0.0,0.0,0.0,-0.99
1494526726502112727,0.15,0.0,0.0,0.0,0.0,-0.99
1494526726551784494,0.15,0.0,0.0,0.0,0.0,-0.99
1494526726601026219,0.15,0.0,0.0,0.0,0.0,-0.99
1494526726651301862,0.15,0.0,0.0,0.0,0.0,-0.99
1494526726701316692,0.15,0.0,0.0,0.0,0.0,-0.99
1494526726752670386,0.15,0.0,0.0,0.0,0.0,-0.66
1494526726802669516,0.15,0.0,0.0,0.0,0.0,-0.66
1494526726852552075,0.15,0.0,0.0,0.0,0.0,-0.66
1494526726901396460,0.15,0.0,0.0,0.0,0.0,-0.66
1494526726951265497,0.15,0.0,0.0,0.0,0.0,-0.66
1494526727002011520,0.15,0.0,0.0,0.0,0.0,-0.66
1494526727051916799,0.15,0.0,0.0,0.0,0.0,-0.33
1494526727103006778,0.15,0.0,0.0,0.0,0.0,-0.33
1494526727152349539,0.15,0.0,0.0,0.0,0.0,-0.33
1494526727203441541,0.15,0.0,0.0,0.0,0.0,-0.33
1494526727252116366,0.15,0.0,0.0,0.0,0.0,-0.33
1494526727300965097,0.15,0.0,0.0,0.0,0.0,-0.33
1494526727351038907,0.15,0.0,0.0,0.0,0.0,1.11022302463e-16
1494526727408658788,0.15,0.0,0.0,0.0,0.0,1.11022302463e-16
1494526727451677471,0.15,0.0,0.0,0.0,0.0,1.11022302463e-16
1494526727501327927,0.15,0.0,0.0,0.0,0.0,1.11022302463e-16
1494526727552350764,0.15,0.0,0.0,0.0,0.0,0.33
1494526727601379349,0.15,0.0,0.0,0.0,0.0,0.33
1494526727653777511,0.15,0.0,0.0,0.0,0.0,0.33
1494526727700998215,0.15,0.0,0.0,0.0,0.0,0.33
1494526727751549279,0.15,0.0,0.0,0.0,0.0,0.33
1494526727802475806,0.15,0.0,0.0,0.0,0.0,0.33
1494526727852522601,0.15,0.0,0.0,0.0,0.0,0.66
1494526727902982661,0.15,0.0,0.0,0.0,0.0,0.66
1494526727951239982,0.15,0.0,0.0,0.0,0.0,0.66
1494526728001016281,0.15,0.0,0.0,0.0,0.0,0.66
1494526728051736800,0.15,0.0,0.0,0.0,0.0,0.66
1494526728101111962,0.15,0.0,0.0,0.0,0.0,0.66
1494526728153642643,0.15,0.0,0.0,0.0,0.0,0.66
1494526728201269143,0.15,0.0,0.0,0.0,0.0,0.66
1494526728251218528,0.2,0.0,0.0,0.0,0.0,0.66
1494526728302665315,0.2,0.0,0.0,0.0,0.0,0.66
1494526728351119175,0.2,0.0,0.0,0.0,0.0,0.66
1494526728402856398,0.2,0.0,0.0,0.0,0.0,0.66
1494526728451126671,0.2,0.0,0.0,0.0,0.0,0.66
1494526728506124505,0.2,0.0,0.0,0.0,0.0,0.66
1494526728551238687,0.25,0.0,0.0,0.0,0.0,0.66
1494526728601966334,0.25,0.0,0.0,0.0,0.0,0.66
1494526728652455315,0.25,0.0,0.0,0.0,0.0,0.66
1494526728701209958,0.25,0.0,0.0,0.0,0.0,0.66
1494526728751495824,0.25,0.0,0.0,0.0,0.0,0.33
1494526728801357959,0.25,0.0,0.0,0.0,0.0,0.33
1494526728865677864,0.25,0.0,0.0,0.0,0.0,0.33
1494526728902485518,0.25,0.0,0.0,0.0,0.0,0.33
1494526728953469061,0.25,0.0,0.0,0.0,0.0,0.33
1494526729001108816,0.25,0.0,0.0,0.0,0.0,0.33
1494526729051674984,0.25,0.0,0.0,0.0,0.0,0.33
1494526729101547986,0.25,0.0,0.0,0.0,0.0,0.33
1494526729153015365,0.25,0.0,0.0,0.0,0.0,0.33
1494526729201995388,0.25,0.0,0.0,0.0,0.0,0.33
1494526729251449159,0.25,0.0,0.0,0.0,0.0,0.33
1494526729301124215,0.25,0.0,0.0,0.0,0.0,0.33
1494526729354035877,0.25,0.0,0.0,0.0,0.0,1.11022302463e-16
1494526729401178300,0.25,0.0,0.0,0.0,0.0,1.11022302463e-16
1494526729451908643,0.25,0.0,0.0,0.0,0.0,1.11022302463e-16
1494526729503127594,0.25,0.0,0.0,0.0,0.0,1.11022302463e-16
1494526729553271808,0.25,0.0,0.0,0.0,0.0,1.11022302463e-16
1494526729601110904,0.25,0.0,0.0,0.0,0.0,1.11022302463e-16
1494526729652422162,0.25,0.0,0.0,0.0,0.0,1.11022302463e-16
1494526729700840846,0.25,0.0,0.0,0.0,0.0,1.11022302463e-16
1494526729751652125,0.25,0.0,0.0,0.0,0.0,1.11022302463e-16
1494526729809685040,0.25,0.0,0.0,0.0,0.0,1.11022302463e-16
1494526729851871534,0.25,0.0,0.0,0.0,0.0,1.11022302463e-16
1494526729902203500,0.25,0.0,0.0,0.0,0.0,1.11022302463e-16
1494526729952066918,0.25,0.0,0.0,0.0,0.0,1.11022302463e-16
1494526730003436879,0.25,0.0,0.0,0.0,0.0,1.11022302463e-16
1494526730052140000,0.25,0.0,0.0,0.0,0.0,1.11022302463e-16
1494526730101251617,0.25,0.0,0.0,0.0,0.0,1.11022302463e-16
1494526730151169917,0.25,0.0,0.0,0.0,0.0,1.11022302463e-16
1494526730201333197,0.25,0.0,0.0,0.0,0.0,1.11022302463e-16
1494526730251038826,0.25,0.0,0.0,0.0,0.0,1.11022302463e-16
1494526730302479415,0.25,0.0,0.0,0.0,0.0,1.11022302463e-16
1494526730352492140,0.25,0.0,0.0,0.0,0.0,1.11022302463e-16
1494526730401277785,0.25,0.0,0.0,0.0,0.0,1.11022302463e-16
1494526730455056669,0.25,0.0,0.0,0.0,0.0,1.11022302463e-16
1494526730501443175,0.25,0.0,0.0,0.0,0.0,1.11022302463e-16
1494526730553063323,0.25,0.0,0.0,0.0,0.0,1.11022302463e-16
1494526730613079126,0.25,0.0,0.0,0.0,0.0,1.11022302463e-16
1494526730655573211,0.25,0.0,0.0,0.0,0.0,1.11022302463e-16
1494526730701137898,0.25,0.0,0.0,0.0,0.0,1.11022302463e-16
1494526730751629708,0.25,0.0,0.0,0.0,0.0,1.11022302463e-16
1494526730802709652,0.25,0.0,0.0,0.0,0.0,1.11022302463e-16
1494526730852016083,0.25,0.0,0.0,0.0,0.0,1.11022302463e-16
1494526730901469509,0.25,0.0,0.0,0.0,0.0,1.11022302463e-16
1494526730951762661,0.25,0.0,0.0,0.0,0.0,1.11022302463e-16
1494526731002060646,0.25,0.0,0.0,0.0,0.0,1.11022302463e-16
1494526731051371349,0.25,0.0,0.0,0.0,0.0,1.11022302463e-16
1494526731102693669,0.25,0.0,0.0,0.0,0.0,1.11022302463e-16
1494526731151287070,0.25,0.0,0.0,0.0,0.0,1.11022302463e-16
1494526731207401787,0.25,0.0,0.0,0.0,0.0,1.11022302463e-16
1494526731251338159,0.25,0.0,0.0,0.0,0.0,1.11022302463e-16
1494526731301637385,0.25,0.0,0.0,0.0,0.0,1.11022302463e-16
1494526731351590215,0.25,0.0,0.0,0.0,0.0,1.11022302463e-16
1494526731403423924,0.25,0.0,0.0,0.0,0.0,1.11022302463e-16
1494526731451152032,0.25,0.0,0.0,0.0,0.0,1.11022302463e-16
1494526731506349283,0.25,0.0,0.0,0.0,0.0,1.11022302463e-16
1494526731552292127,0.25,0.0,0.0,0.0,0.0,1.11022302463e-16
1494526731607796244,0.25,0.0,0.0,0.0,0.0,1.11022302463e-16
1494526731652181520,0.25,0.0,0.0,0.0,0.0,1.11022302463e-16
1494526731703177500,0.25,0.0,0.0,0.0,0.0,1.11022302463e-16
1494526731751500736,0.25,0.0,0.0,0.0,0.0,1.11022302463e-16
1494526731801518170,0.25,0.0,0.0,0.0,0.0,1.11022302463e-16
1494526731851128130,0.25,0.0,0.0,0.0,0.0,1.11022302463e-16
1494526731901244988,0.25,0.0,0.0,0.0,0.0,1.11022302463e-16
1494526731951760802,0.25,0.0,0.0,0.0,0.0,1.11022302463e-16
1494526732002467600,0.25,0.0,0.0,0.0,0.0,1.11022302463e-16
1494526732051569170,0.25,0.0,0.0,0.0,0.0,1.11022302463e-16
1494526732101871710,0.25,0.0,0.0,0.0,0.0,1.11022302463e-16
1494526732151078980,0.25,0.0,0.0,0.0,0.0,1.11022302463e-16
1494526732201509104,0.25,0.0,0.0,0.0,0.0,1.11022302463e-16
1494526732251412814,0.25,0.0,0.0,0.0,0.0,1.11022302463e-16
1494526732302378706,0.25,0.0,0.0,0.0,0.0,1.11022302463e-16
1494526732351362024,0.25,0.0,0.0,0.0,0.0,1.11022302463e-16
1494526732401925935,0.25,0.0,0.0,0.0,0.0,1.11022302463e-16
1494526732451021615,0.25,0.0,0.0,0.0,0.0,1.11022302463e-16
1494526732503143385,0.25,0.0,0.0,0.0,0.0,1.11022302463e-16
1494526732552122325,0.25,0.0,0.0,0.0,0.0,1.11022302463e-16
1494526732606542977,0.25,0.0,0.0,0.0,0.0,1.11022302463e-16
1494526732650994312,0.25,0.0,0.0,0.0,0.0,1.11022302463e-16
1494526732707591114,0.25,0.0,0.0,0.0,0.0,1.11022302463e-16
1494526732751187274,0.25,0.0,0.0,0.0,0.0,1.11022302463e-16
1494526732807997564,0.25,0.0,0.0,0.0,0.0,1.11022302463e-16
1494526732851072788,0.25,0.0,0.0,0.0,0.0,1.11022302463e-16
1494526732902560882,0.25,0.0,0.0,0.0,0.0,1.11022302463e-16
1494526732952000985,0.25,0.0,0.0,0.0,0.0,1.11022302463e-16
1494526733002407999,0.25,0.0,0.0,0.0,0.0,1.11022302463e-16
1494526733051505004,0.25,0.0,0.0,0.0,0.0,1.11022302463e-16
1494526733102661272,0.25,0.0,0.0,0.0,0.0,1.11022302463e-16
1494526733151695688,0.25,0.0,0.0,0.0,0.0,1.11022302463e-16
1494526733201163687,0.25,0.0,0.0,0.0,0.0,1.11022302463e-16
1494526733251172784,0.25,0.0,0.0,0.0,0.0,1.11022302463e-16
1494526733303523702,0.25,0.0,0.0,0.0,0.0,1.11022302463e-16
1494526733352021431,0.25,0.0,0.0,0.0,0.0,1.11022302463e-16
1494526733402832424,0.25,0.0,0.0,0.0,0.0,1.11022302463e-16
1494526733450959684,0.25,0.0,0.0,0.0,0.0,1.11022302463e-16
1494526733504325860,0.25,0.0,0.0,0.0,0.0,1.11022302463e-16
1494526733552280965,0.25,0.0,0.0,0.0,0.0,1.11022302463e-16
1494526733604638606,0.25,0.0,0.0,0.0,0.0,1.11022302463e-16
1494526733651657595,0.25,0.0,0.0,0.0,0.0,1.11022302463e-16
1494526733702612236,0.25,0.0,0.0,0.0,0.0,1.11022302463e-16
1494526733751874516,0.25,0.0,0.0,0.0,0.0,1.11022302463e-16
1494526733802782551,0.25,0.0,0.0,0.0,0.0,1.11022302463e-16
1494526733850914750,0.25,0.0,0.0,0.0,0.0,1.11022302463e-16
1494526733903162538,0.25,0.0,0.0,0.0,0.0,1.11022302463e-16
1494526733951931654,0.25,0.0,0.0,0.0,0.0,1.11022302463e-16
1494526734003909192,0.25,0.0,0.0,0.0,0.0,1.11022302463e-16
1494526734051826125,0.25,0.0,0.0,0.0,0.0,1.11022302463e-16
1494526734102807286,0.25,0.0,0.0,0.0,0.0,1.11022302463e-16
1494526734151022957,0.25,0.0,0.0,0.0,0.0,1.11022302463e-16
1494526734201219676,0.25,0.0,0.0,0.0,0.0,1.11022302463e-16
1494526734252853089,0.25,0.0,0.0,0.0,0.0,1.11022302463e-16
1494526734304098833,0.25,0.0,0.0,0.0,0.0,1.11022302463e-16
1494526734351481472,0.25,0.0,0.0,0.0,0.0,1.11022302463e-16
1494526734403261967,0.25,0.0,0.0,0.0,0.0,1.11022302463e-16
1494526734451610990,0.25,0.0,0.0,0.0,0.0,1.11022302463e-16
1494526734502592304,0.25,0.0,0.0,0.0,0.0,1.11022302463e-16
1494526734552293811,0.25,0.0,0.0,0.0,0.0,1.11022302463e-16
1494526734601232321,0.25,0.0,0.0,0.0,0.0,1.11022302463e-16
1494526734652043328,0.25,0.0,0.0,0.0,0.0,1.11022302463e-16
1494526734701929627,0.25,0.0,0.0,0.0,0.0,1.11022302463e-16
1494526734753064731,0.25,0.0,0.0,0.0,0.0,0.33
1494526734801340957,0.25,0.0,0.0,0.0,0.0,0.33
1494526734855839053,0.25,0.0,0.0,0.0,0.0,0.33
1494526734902104879,0.25,0.0,0.0,0.0,0.0,0.33
1494526734959885963,0.25,0.0,0.0,0.0,0.0,0.33
1494526735001272347,0.25,0.0,0.0,0.0,0.0,0.33
1494526735053249215,0.25,0.0,0.0,0.0,0.0,0.33
1494526735101380458,0.25,0.0,0.0,0.0,0.0,0.33
1494526735151241993,0.25,0.0,0.0,0.0,0.0,0.33
1494526735201484842,0.25,0.0,0.0,0.0,0.0,0.33
1494526735251349320,0.25,0.0,0.0,0.0,0.0,0.33
1494526735301453558,0.25,0.0,0.0,0.0,0.0,0.33
1494526735351012628,0.25,0.0,0.0,0.0,0.0,0.33
1494526735401871001,0.25,0.0,0.0,0.0,0.0,0.33
1494526735452957225,0.25,0.0,0.0,0.0,0.0,0.33
1494526735501662705,0.25,0.0,0.0,0.0,0.0,0.33
1494526735551307842,0.25,0.0,0.0,0.0,0.0,1.11022302463e-16
1494526735608189245,0.25,0.0,0.0,0.0,0.0,1.11022302463e-16
1494526735651097055,0.25,0.0,0.0,0.0,0.0,1.11022302463e-16
1494526735702876014,0.25,0.0,0.0,0.0,0.0,1.11022302463e-16
1494526735751036840,0.25,0.0,0.0,0.0,0.0,1.11022302463e-16
1494526735805383459,0.25,0.0,0.0,0.0,0.0,1.11022302463e-16
1494526735851801391,0.25,0.0,0.0,0.0,0.0,1.11022302463e-16
1494526735901832594,0.25,0.0,0.0,0.0,0.0,1.11022302463e-16
1494526736076959313,0.25,0.0,0.0,0.0,0.0,1.11022302463e-16
1494526736083840964,0.25,0.0,0.0,0.0,0.0,1.11022302463e-16
1494526736083861923,0.25,0.0,0.0,0.0,0.0,1.11022302463e-16
1494526736102182749,0.25,0.0,0.0,0.0,0.0,1.11022302463e-16
1494526736228608675,0.25,0.0,0.0,0.0,0.0,-0.33
1494526736232959332,0.25,0.0,0.0,0.0,0.0,-0.33
1494526736251412770,0.25,0.0,0.0,0.0,0.0,-0.33
1494526736301948725,0.25,0.0,0.0,0.0,0.0,-0.33
1494526736352834227,0.25,0.0,0.0,0.0,0.0,-0.33
1494526736401299488,0.25,0.0,0.0,0.0,0.0,-0.33
1494526736636029109,0.2,0.0,0.0,0.0,0.0,-0.33
1494526736687117199,0.2,0.0,0.0,0.0,0.0,-0.33
1494526736687149519,0.2,0.0,0.0,0.0,0.0,-0.33
1494526736687157211,0.2,0.0,0.0,0.0,0.0,-0.33
1494526736687183645,0.2,0.0,0.0,0.0,0.0,-0.33
1494526736701731751,0.2,0.0,0.0,0.0,0.0,-0.33
1494526736751322437,0.15,0.0,0.0,0.0,0.0,-0.33
1494526736801057418,0.15,0.0,0.0,0.0,0.0,-0.33
1494526736851549067,0.1,0.0,0.0,0.0,0.0,-0.33
1494526736902018394,0.1,0.0,0.0,0.0,0.0,-0.33
1494526736951185064,0.05,0.0,0.0,0.0,0.0,-0.33
1494526737004454955,0.05,0.0,0.0,0.0,0.0,-0.33
1494526737052107047,0.05,0.0,0.0,0.0,0.0,-0.33
1494526737101721924,0.05,0.0,0.0,0.0,0.0,-0.33
1494526737151680367,1.38777878078e-17,0.0,0.0,0.0,0.0,-0.33
1494526737203319269,1.38777878078e-17,0.0,0.0,0.0,0.0,-0.33
1494526737251893427,1.38777878078e-17,0.0,0.0,0.0,0.0,-0.33
1494526737301301053,1.38777878078e-17,0.0,0.0,0.0,0.0,-0.33
1494526737353194997,1.38777878078e-17,0.0,0.0,0.0,0.0,-0.33
1494526737403726686,1.38777878078e-17,0.0,0.0,0.0,0.0,-0.33
1494526737453160959,1.38777878078e-17,0.0,0.0,0.0,0.0,-0.33
1494526737533590223,1.38777878078e-17,0.0,0.0,0.0,0.0,-0.33
1494526737551853863,1.38777878078e-17,0.0,0.0,0.0,0.0,-0.66
1494526737601651549,1.38777878078e-17,0.0,0.0,0.0,0.0,-0.66
1494526737652042970,1.38777878078e-17,0.0,0.0,0.0,0.0,-0.66
1494526737701660623,1.38777878078e-17,0.0,0.0,0.0,0.0,-0.66
1494526737754226599,1.38777878078e-17,0.0,0.0,0.0,0.0,-0.66
1494526737804145788,1.38777878078e-17,0.0,0.0,0.0,0.0,-0.66
1494526737853192168,1.38777878078e-17,0.0,0.0,0.0,0.0,-0.66
1494526737901231144,1.38777878078e-17,0.0,0.0,0.0,0.0,-0.66
1494526737952503463,1.38777878078e-17,0.0,0.0,0.0,0.0,-0.66
1494526738001426834,1.38777878078e-17,0.0,0.0,0.0,0.0,-0.66
1494526738257766002,1.38777878078e-17,0.0,0.0,0.0,0.0,-0.99
1494526738257818103,1.38777878078e-17,0.0,0.0,0.0,0.0,-0.99
1494526738257842466,1.38777878078e-17,0.0,0.0,0.0,0.0,-0.99
1494526738257922694,1.38777878078e-17,0.0,0.0,0.0,0.0,-0.99
1494526738257943252,1.38777878078e-17,0.0,0.0,0.0,0.0,-0.99
1494526738301645587,1.38777878078e-17,0.0,0.0,0.0,0.0,-0.99
1494526738351100408,1.38777878078e-17,0.0,0.0,0.0,0.0,-0.99
1494526738401631828,1.38777878078e-17,0.0,0.0,0.0,0.0,-0.99
1494526738451372223,1.38777878078e-17,0.0,0.0,0.0,0.0,-0.99
1494526738502668052,1.38777878078e-17,0.0,0.0,0.0,0.0,-0.99
1494526738551393807,1.38777878078e-17,0.0,0.0,0.0,0.0,-0.99
1494526738600997868,1.38777878078e-17,0.0,0.0,0.0,0.0,-0.99
1494526738651540474,1.38777878078e-17,0.0,0.0,0.0,0.0,-0.66
1494526738701261997,1.38777878078e-17,0.0,0.0,0.0,0.0,-0.66
1494526738756688001,1.38777878078e-17,0.0,0.0,0.0,0.0,-0.66
1494526738801800612,1.38777878078e-17,0.0,0.0,0.0,0.0,-0.66
1494526738851217039,1.38777878078e-17,0.0,0.0,0.0,0.0,-0.66
1494526738901287455,1.38777878078e-17,0.0,0.0,0.0,0.0,-0.66
1494526738954905471,1.38777878078e-17,0.0,0.0,0.0,0.0,-0.33
1494526739001958494,1.38777878078e-17,0.0,0.0,0.0,0.0,-0.33
1494526739054708493,1.38777878078e-17,0.0,0.0,0.0,0.0,-0.33
1494526739101255416,1.38777878078e-17,0.0,0.0,0.0,0.0,-0.33
1494526739157061168,1.38777878078e-17,0.0,0.0,0.0,0.0,-0.33
1494526739201627361,1.38777878078e-17,0.0,0.0,0.0,0.0,-0.33
1494526739251246905,1.38777878078e-17,0.0,0.0,0.0,0.0,-0.33
1494526739301752728,1.38777878078e-17,0.0,0.0,0.0,0.0,-0.33
1494526739351967232,1.38777878078e-17,0.0,0.0,0.0,0.0,-0.33
1494526739401104972,1.38777878078e-17,0.0,0.0,0.0,0.0,-0.33
1494526739451841347,1.38777878078e-17,0.0,0.0,0.0,0.0,-0.33
1494526739501845740,1.38777878078e-17,0.0,0.0,0.0,0.0,-0.33
1494526739550854503,1.38777878078e-17,0.0,0.0,0.0,0.0,1.11022302463e-16
1494526739601789761,1.38777878078e-17,0.0,0.0,0.0,0.0,1.11022302463e-16
1494526739651188172,1.38777878078e-17,0.0,0.0,0.0,0.0,1.11022302463e-16
1494526739701464209,1.38777878078e-17,0.0,0.0,0.0,0.0,1.11022302463e-16
1494526739752869710,1.38777878078e-17,0.0,0.0,0.0,0.0,1.11022302463e-16
1494526739801752990,1.38777878078e-17,0.0,0.0,0.0,0.0,1.11022302463e-16
1494526739851779974,1.38777878078e-17,0.0,0.0,0.0,0.0,1.11022302463e-16
1494526739902023709,1.38777878078e-17,0.0,0.0,0.0,0.0,1.11022302463e-16
1494526739955637341,1.38777878078e-17,0.0,0.0,0.0,0.0,1.11022302463e-16
1494526740003502062,1.38777878078e-17,0.0,0.0,0.0,0.0,1.11022302463e-16
1494526740050911061,0.05,0.0,0.0,0.0,0.0,1.11022302463e-16
1494526740101138848,0.05,0.0,0.0,0.0,0.0,1.11022302463e-16
1494526740152010972,0.05,0.0,0.0,0.0,0.0,1.11022302463e-16
1494526740202810500,0.05,0.0,0.0,0.0,0.0,1.11022302463e-16
1494526740251520991,0.1,0.0,0.0,0.0,0.0,1.11022302463e-16
1494526740301217977,0.1,0.0,0.0,0.0,0.0,1.11022302463e-16
1494526740350943250,0.1,0.0,0.0,0.0,0.0,1.11022302463e-16
1494526740401143934,0.1,0.0,0.0,0.0,0.0,1.11022302463e-16
1494526740454584605,0.15,0.0,0.0,0.0,0.0,1.11022302463e-16
1494526740501189510,0.15,0.0,0.0,0.0,0.0,1.11022302463e-16
1494526740552259482,0.15,0.0,0.0,0.0,0.0,1.11022302463e-16
1494526740601268412,0.15,0.0,0.0,0.0,0.0,1.11022302463e-16
1494526740651023717,0.2,0.0,0.0,0.0,0.0,1.11022302463e-16
1494526740702200076,0.2,0.0,0.0,0.0,0.0,1.11022302463e-16
1494526740752289911,0.25,0.0,0.0,0.0,0.0,1.11022302463e-16
1494526740801443864,0.25,0.0,0.0,0.0,0.0,1.11022302463e-16
1494526740852914193,0.25,0.0,0.0,0.0,0.0,1.11022302463e-16
1494526740901279021,0.25,0.0,0.0,0.0,0.0,1.11022302463e-16
1494526740952211195,0.25,0.0,0.0,0.0,0.0,1.11022302463e-16
1494526741000994475,0.25,0.0,0.0,0.0,0.0,1.11022302463e-16
1494526741053591238,0.3,0.0,0.0,0.0,0.0,1.11022302463e-16
1494526741101032035,0.3,0.0,0.0,0.0,0.0,1.11022302463e-16
1494526741154062066,0.3,0.0,0.0,0.0,0.0,1.11022302463e-16
1494526741206911613,0.3,0.0,0.0,0.0,0.0,1.11022302463e-16
1494526741255189768,0.3,0.0,0.0,0.0,0.0,1.11022302463e-16
1494526741306395761,0.3,0.0,0.0,0.0,0.0,1.11022302463e-16
1494526741352511537,0.3,0.0,0.0,0.0,0.0,1.11022302463e-16
1494526741401022116,0.3,0.0,0.0,0.0,0.0,1.11022302463e-16
1494526741452572675,0.3,0.0,0.0,0.0,0.0,1.11022302463e-16
1494526741501647505,0.3,0.0,0.0,0.0,0.0,1.11022302463e-16
1494526741554490328,0.3,0.0,0.0,0.0,0.0,1.11022302463e-16
1494526741601150668,0.3,0.0,0.0,0.0,0.0,1.11022302463e-16
1494526741653620042,0.3,0.0,0.0,0.0,0.0,1.11022302463e-16
1494526741701123052,0.3,0.0,0.0,0.0,0.0,1.11022302463e-16
1494526741753979003,0.3,0.0,0.0,0.0,0.0,1.11022302463e-16
1494526741801194841,0.3,0.0,0.0,0.0,0.0,1.11022302463e-16
1494526741853105430,0.3,0.0,0.0,0.0,0.0,1.11022302463e-16
1494526741901334534,0.3,0.0,0.0,0.0,0.0,1.11022302463e-16
1494526741954337669,0.3,0.0,0.0,0.0,0.0,1.11022302463e-16
1494526742001086735,0.3,0.0,0.0,0.0,0.0,1.11022302463e-16
1494526742053527917,0.3,0.0,0.0,0.0,0.0,1.11022302463e-16
1494526742101037144,0.3,0.0,0.0,0.0,0.0,1.11022302463e-16
1494526742154530508,0.3,0.0,0.0,0.0,0.0,1.11022302463e-16
1494526742200978162,0.3,0.0,0.0,0.0,0.0,1.11022302463e-16
1494526742253119629,0.3,0.0,0.0,0.0,0.0,1.11022302463e-16
1494526742314296976,0.3,0.0,0.0,0.0,0.0,1.11022302463e-16
1494526742353253060,0.3,0.0,0.0,0.0,0.0,1.11022302463e-16
1494526742410063071,0.3,0.0,0.0,0.0,0.0,1.11022302463e-16
1494526742454983688,0.3,0.0,0.0,0.0,0.0,1.11022302463e-16
1494526742501787621,0.3,0.0,0.0,0.0,0.0,1.11022302463e-16
1494526742553357579,0.3,0.0,0.0,0.0,0.0,1.11022302463e-16
1494526742601120207,0.3,0.0,0.0,0.0,0.0,1.11022302463e-16
1494526742652399929,0.3,0.0,0.0,0.0,0.0,1.11022302463e-16
1494526742705341276,0.3,0.0,0.0,0.0,0.0,1.11022302463e-16
1494526742751803095,0.3,0.0,0.0,0.0,0.0,1.11022302463e-16
1494526742801160172,0.3,0.0,0.0,0.0,0.0,1.11022302463e-16
1494526742851322724,0.3,0.0,0.0,0.0,0.0,1.11022302463e-16
1494526742901829627,0.3,0.0,0.0,0.0,0.0,1.11022302463e-16
1494526742951930020,0.3,0.0,0.0,0.0,0.0,1.11022302463e-16
1494526743001629580,0.3,0.0,0.0,0.0,0.0,1.11022302463e-16
1494526743052959150,0.3,0.0,0.0,0.0,0.0,1.11022302463e-16
1494526743101238742,0.3,0.0,0.0,0.0,0.0,1.11022302463e-16
1494526743153548591,0.3,0.0,0.0,0.0,0.0,1.11022302463e-16
1494526743201631993,0.3,0.0,0.0,0.0,0.0,1.11022302463e-16
1494526743311170259,0.3,0.0,0.0,0.0,0.0,1.11022302463e-16
1494526743318038095,0.3,0.0,0.0,0.0,0.0,1.11022302463e-16
1494526743353257087,0.3,0.0,0.0,0.0,0.0,1.11022302463e-16
1494526743480536723,0.3,0.0,0.0,0.0,0.0,1.11022302463e-16
1494526743501989392,0.3,0.0,0.0,0.0,0.0,1.11022302463e-16
1494526743505812476,0.3,0.0,0.0,0.0,0.0,1.11022302463e-16
1494526743551491062,0.3,0.0,0.0,0.0,0.0,1.11022302463e-16
1494526743601331503,0.3,0.0,0.0,0.0,0.0,1.11022302463e-16
1494526743650969912,0.3,0.0,0.0,0.0,0.0,1.11022302463e-16
1494526743700972384,0.3,0.0,0.0,0.0,0.0,1.11022302463e-16
1494526743755322722,0.3,0.0,0.0,0.0,0.0,1.11022302463e-16
1494526743801639092,0.3,0.0,0.0,0.0,0.0,1.11022302463e-16
1494526743851367822,0.3,0.0,0.0,0.0,0.0,1.11022302463e-16
1494526744122622048,0.3,0.0,0.0,0.0,0.0,1.11022302463e-16
1494526744122635594,0.3,0.0,0.0,0.0,0.0,1.11022302463e-16
1494526744122644252,0.3,0.0,0.0,0.0,0.0,1.11022302463e-16
1494526744122655529,0.3,0.0,0.0,0.0,0.0,1.11022302463e-16
1494526744122661716,0.3,0.0,0.0,0.0,0.0,1.11022302463e-16
1494526744165128091,0.3,0.0,0.0,0.0,0.0,1.11022302463e-16
1494526744201757849,0.3,0.0,0.0,0.0,0.0,1.11022302463e-16
1494526744252116201,0.3,0.0,0.0,0.0,0.0,1.11022302463e-16
1494526744304119238,0.3,0.0,0.0,0.0,0.0,1.11022302463e-16
1494526744351148377,0.3,0.0,0.0,0.0,0.0,1.11022302463e-16
1494526744403420494,0.3,0.0,0.0,0.0,0.0,1.11022302463e-16
1494526744454353395,0.3,0.0,0.0,0.0,0.0,1.11022302463e-16
1494526744501436114,0.3,0.0,0.0,0.0,0.0,1.11022302463e-16
1494526744551452079,0.3,0.0,0.0,0.0,0.0,1.11022302463e-16
1494526744601043111,0.3,0.0,0.0,0.0,0.0,1.11022302463e-16
1494526744651360853,0.3,0.0,0.0,0.0,0.0,1.11022302463e-16
1494526744701479746,0.3,0.0,0.0,0.0,0.0,1.11022302463e-16
1494526744751849994,0.3,0.0,0.0,0.0,0.0,1.11022302463e-16
1494526744801222916,0.3,0.0,0.0,0.0,0.0,1.11022302463e-16
1494526744851123375,0.3,0.0,0.0,0.0,0.0,1.11022302463e-16
1494526744900936136,0.3,0.0,0.0,0.0,0.0,1.11022302463e-16
1494526744951674267,0.3,0.0,0.0,0.0,0.0,1.11022302463e-16
1494526745002533776,0.3,0.0,0.0,0.0,0.0,1.11022302463e-16
1494526745051901852,0.3,0.0,0.0,0.0,0.0,1.11022302463e-16
1494526745101834533,0.3,0.0,0.0,0.0,0.0,1.11022302463e-16
1494526745151432568,0.3,0.0,0.0,0.0,0.0,1.11022302463e-16
1494526745201246175,0.3,0.0,0.0,0.0,0.0,1.11022302463e-16
1494526745254348392,0.3,0.0,0.0,0.0,0.0,1.11022302463e-16
1494526745301345799,0.3,0.0,0.0,0.0,0.0,1.11022302463e-16
1494526745351755274,0.3,0.0,0.0,0.0,0.0,1.11022302463e-16
1494526745401805967,0.3,0.0,0.0,0.0,0.0,1.11022302463e-16
1494526745451858549,0.3,0.0,0.0,0.0,0.0,1.11022302463e-16
1494526745504573264,0.3,0.0,0.0,0.0,0.0,1.11022302463e-16
1494526745550941248,0.3,0.0,0.0,0.0,0.0,1.11022302463e-16
1494526745607569294,0.3,0.0,0.0,0.0,0.0,1.11022302463e-16
1494526745651381657,0.3,0.0,0.0,0.0,0.0,1.11022302463e-16
1494526745701320642,0.3,0.0,0.0,0.0,0.0,1.11022302463e-16
1494526745761344835,0.3,0.0,0.0,0.0,0.0,1.11022302463e-16
1494526745804233525,0.3,0.0,0.0,0.0,0.0,1.11022302463e-16
1494526745854272993,0.3,0.0,0.0,0.0,0.0,1.11022302463e-16
1494526745901741639,0.3,0.0,0.0,0.0,0.0,1.11022302463e-16
1494526745962318583,0.3,0.0,0.0,0.0,0.0,1.11022302463e-16
1494526746002070006,0.3,0.0,0.0,0.0,0.0,1.11022302463e-16
1494526746068503918,0.3,0.0,0.0,0.0,0.0,1.11022302463e-16
1494526746100993474,0.3,0.0,0.0,0.0,0.0,1.11022302463e-16
1494526746151226756,0.3,0.0,0.0,0.0,0.0,1.11022302463e-16
1494526746201037327,0.3,0.0,0.0,0.0,0.0,1.11022302463e-16
1494526746252606631,0.3,0.0,0.0,0.0,0.0,1.11022302463e-16
1494526746302132776,0.3,0.0,0.0,0.0,0.0,1.11022302463e-16
1494526746352158394,0.3,0.0,0.0,0.0,0.0,1.11022302463e-16
1494526746401735149,0.3,0.0,0.0,0.0,0.0,1.11022302463e-16
1494526746454553843,0.3,0.0,0.0,0.0,0.0,1.11022302463e-16
1494526746502036149,0.3,0.0,0.0,0.0,0.0,1.11022302463e-16
1494526746551249613,0.3,0.0,0.0,0.0,0.0,1.11022302463e-16
1494526746601230626,0.3,0.0,0.0,0.0,0.0,1.11022302463e-16
1494526746651205442,0.3,0.0,0.0,0.0,0.0,1.11022302463e-16
1494526746700931983,0.3,0.0,0.0,0.0,0.0,1.11022302463e-16
1494526746751879827,0.3,0.0,0.0,0.0,0.0,1.11022302463e-16
1494526746801077463,0.3,0.0,0.0,0.0,0.0,1.11022302463e-16
1494526746851155288,0.3,0.0,0.0,0.0,0.0,1.11022302463e-16
1494526746901113451,0.3,0.0,0.0,0.0,0.0,1.11022302463e-16
1494526746953779946,0.25,0.0,0.0,0.0,0.0,1.11022302463e-16
1494526747004856464,0.25,0.0,0.0,0.0,0.0,1.11022302463e-16
1494526747051076701,0.2,0.0,0.0,0.0,0.0,1.11022302463e-16
1494526747101851857,0.2,0.0,0.0,0.0,0.0,1.11022302463e-16
1494526747151406424,0.2,0.0,0.0,0.0,0.0,1.11022302463e-16
1494526747202208617,0.2,0.0,0.0,0.0,0.0,1.11022302463e-16
1494526747250980597,0.15,0.0,0.0,0.0,0.0,1.11022302463e-16
1494526747301675141,0.15,0.0,0.0,0.0,0.0,1.11022302463e-16
1494526747351928795,0.15,0.0,0.0,0.0,0.0,1.11022302463e-16
1494526747402204548,0.15,0.0,0.0,0.0,0.0,1.11022302463e-16
1494526747451334747,0.15,0.0,0.0,0.0,0.0,1.11022302463e-16
1494526747718100576,0.15,0.0,0.0,0.0,0.0,1.11022302463e-16
1494526747718110240,0.15,0.0,0.0,0.0,0.0,1.11022302463e-16
1494526747718116951,0.15,0.0,0.0,0.0,0.0,1.11022302463e-16
1494526747718121960,0.1,0.0,0.0,0.0,0.0,1.11022302463e-16
1494526747718127147,0.1,0.0,0.0,0.0,0.0,1.11022302463e-16
1494526747751134633,0.1,0.0,0.0,0.0,0.0,1.11022302463e-16
1494526747801046151,0.1,0.0,0.0,0.0,0.0,1.11022302463e-16
1494526747851751678,0.1,0.0,0.0,0.0,0.0,1.11022302463e-16
1494526747901729925,0.1,0.0,0.0,0.0,0.0,1.11022302463e-16
1494526747951241573,0.05,0.0,0.0,0.0,0.0,1.11022302463e-16
1494526748002670039,0.05,0.0,0.0,0.0,0.0,1.11022302463e-16
1494526748052521690,0.05,0.0,0.0,0.0,0.0,1.11022302463e-16
1494526748101411751,0.05,0.0,0.0,0.0,0.0,1.11022302463e-16
1494526748158258778,0.05,0.0,0.0,0.0,0.0,1.11022302463e-16
1494526748205923503,0.05,0.0,0.0,0.0,0.0,1.11022302463e-16
1494526748252115475,0.05,0.0,0.0,0.0,0.0,1.11022302463e-16
1494526748301439158,0.05,0.0,0.0,0.0,0.0,1.11022302463e-16
1494526748351317983,0.05,0.0,0.0,0.0,0.0,1.11022302463e-16
1494526748401468434,0.05,0.0,0.0,0.0,0.0,1.11022302463e-16
1494526748452177154,0.05,0.0,0.0,0.0,0.0,-0.33
1494526748509406156,0.05,0.0,0.0,0.0,0.0,-0.33
1494526748551231114,0.05,0.0,0.0,0.0,0.0,-0.33
1494526748906302752,0.05,0.0,0.0,0.0,0.0,-0.33
1494526748909569593,0.05,0.0,0.0,0.0,0.0,-0.33
1494526748909586834,0.05,0.0,0.0,0.0,0.0,-0.33
1494526748909604496,0.05,0.0,0.0,0.0,0.0,-0.66
1494526748909640129,0.05,0.0,0.0,0.0,0.0,-0.66
1494526748916458545,0.05,0.0,0.0,0.0,0.0,-0.66
1494526748916481374,0.05,0.0,0.0,0.0,0.0,-0.66
1494526748951251850,0.05,0.0,0.0,0.0,0.0,-0.66
1494526749001932080,0.05,0.0,0.0,0.0,0.0,-0.66
1494526749060029800,0.05,0.0,0.0,0.0,0.0,-0.99
1494526749122165413,0.05,0.0,0.0,0.0,0.0,-0.99
1494526749153261986,0.05,0.0,0.0,0.0,0.0,-0.99
1494526749201674771,0.05,0.0,0.0,0.0,0.0,-0.99
1494526749251153357,0.05,0.0,0.0,0.0,0.0,-1.32
1494526749302267059,0.05,0.0,0.0,0.0,0.0,-1.32
1494526749352939580,0.05,0.0,0.0,0.0,0.0,-1.32
1494526749402274949,0.05,0.0,0.0,0.0,0.0,-1.32
1494526749466694336,0.05,0.0,0.0,0.0,0.0,-1.32
1494526749503135577,0.05,0.0,0.0,0.0,0.0,-1.32
1494526749552331272,0.05,0.0,0.0,0.0,0.0,-1.32
1494526749603209376,0.05,0.0,0.0,0.0,0.0,-1.32
1494526749651725219,0.05,0.0,0.0,0.0,0.0,-1.32
1494526749705071278,0.05,0.0,0.0,0.0,0.0,-1.32
1494526749751396320,0.05,0.0,0.0,0.0,0.0,-1.32
1494526749806997216,0.05,0.0,0.0,0.0,0.0,-1.32
1494526749851169862,0.05,0.0,0.0,0.0,0.0,-1.32
1494526749908628734,0.05,0.0,0.0,0.0,0.0,-1.32
1494526749956714811,0.05,0.0,0.0,0.0,0.0,-1.32
1494526750002232508,0.05,0.0,0.0,0.0,0.0,-1.32
1494526750050989769,0.05,0.0,0.0,0.0,0.0,-0.99
1494526750104243586,0.05,0.0,0.0,0.0,0.0,-0.99
1494526750151170047,0.05,0.0,0.0,0.0,0.0,-0.99
1494526750201611132,0.05,0.0,0.0,0.0,0.0,-0.99
1494526750251715620,0.05,0.0,0.0,0.0,0.0,-0.99
1494526750301989064,0.05,0.0,0.0,0.0,0.0,-0.99
1494526750350932063,0.05,0.0,0.0,0.0,0.0,-0.66
1494526750406905937,0.05,0.0,0.0,0.0,0.0,-0.66
1494526750450890775,0.05,0.0,0.0,0.0,0.0,-0.66
1494526750502972192,0.05,0.0,0.0,0.0,0.0,-0.66
1494526750554032571,0.05,0.0,0.0,0.0,0.0,-0.66
1494526750601246510,0.05,0.0,0.0,0.0,0.0,-0.66
1494526750653166223,0.05,0.0,0.0,0.0,0.0,-0.33
1494526750704427433,0.05,0.0,0.0,0.0,0.0,-0.33
1494526750751258467,0.05,0.0,0.0,0.0,0.0,-0.33
1494526750802027237,0.05,0.0,0.0,0.0,0.0,-0.33
1494526750853759058,0.05,0.0,0.0,0.0,0.0,-0.33
1494526750902417629,0.05,0.0,0.0,0.0,0.0,-0.33
1494526750951098386,0.05,0.0,0.0,0.0,0.0,1.11022302463e-16
1494526751001148477,0.05,0.0,0.0,0.0,0.0,1.11022302463e-16
1494526751050827035,0.05,0.0,0.0,0.0,0.0,1.11022302463e-16
1494526751101649145,0.05,0.0,0.0,0.0,0.0,1.11022302463e-16
1494526751151035890,0.05,0.0,0.0,0.0,0.0,0.33
1494526751201448918,0.05,0.0,0.0,0.0,0.0,0.33
1494526751251259840,0.05,0.0,0.0,0.0,0.0,0.33
1494526751301380578,0.05,0.0,0.0,0.0,0.0,0.33
1494526751351445790,0.05,0.0,0.0,0.0,0.0,0.33
1494526751402984334,0.05,0.0,0.0,0.0,0.0,0.33
1494526751455088511,0.05,0.0,0.0,0.0,0.0,0.66
1494526751508996072,0.05,0.0,0.0,0.0,0.0,0.66
1494526751550994694,0.05,0.0,0.0,0.0,0.0,0.66
1494526751603705905,0.05,0.0,0.0,0.0,0.0,0.66
1494526751652736295,0.05,0.0,0.0,0.0,0.0,0.66
1494526751703010306,0.05,0.0,0.0,0.0,0.0,0.66
1494526751751760136,0.05,0.0,0.0,0.0,0.0,0.66
1494526751801336802,0.05,0.0,0.0,0.0,0.0,0.66
1494526751852877383,0.05,0.0,0.0,0.0,0.0,0.66
1494526751901746558,0.05,0.0,0.0,0.0,0.0,0.66
1494526751956422590,0.05,0.0,0.0,0.0,0.0,0.33
1494526752001042799,0.05,0.0,0.0,0.0,0.0,0.33
1494526752050964745,0.05,0.0,0.0,0.0,0.0,0.33
1494526752101252886,0.05,0.0,0.0,0.0,0.0,0.33
1494526752151290259,0.05,0.0,0.0,0.0,0.0,0.33
1494526752204162933,0.05,0.0,0.0,0.0,0.0,0.33
1494526752251040201,0.05,0.0,0.0,0.0,0.0,0.33
1494526752301312844,0.05,0.0,0.0,0.0,0.0,0.33
1494526752352611126,0.05,0.0,0.0,0.0,0.0,0.33
1494526752401678967,0.05,0.0,0.0,0.0,0.0,0.33
1494526752450929969,0.1,0.0,0.0,0.0,0.0,0.33
1494526752501312266,0.1,0.0,0.0,0.0,0.0,0.33
1494526752551133304,0.1,0.0,0.0,0.0,0.0,0.33
1494526752602310485,0.1,0.0,0.0,0.0,0.0,0.33
1494526752651086124,0.1,0.0,0.0,0.0,0.0,0.33
1494526752701442986,0.1,0.0,0.0,0.0,0.0,0.33
1494526752750830747,0.1,0.0,0.0,0.0,0.0,0.33
1494526752803605917,0.1,0.0,0.0,0.0,0.0,0.33
1494526752851225085,0.1,0.0,0.0,0.0,0.0,0.33
1494526752900865587,0.1,0.0,0.0,0.0,0.0,0.33
1494526752952859306,0.1,0.0,0.0,0.0,0.0,0.33
1494526753003786945,0.1,0.0,0.0,0.0,0.0,0.33
1494526753051284516,0.15,0.0,0.0,0.0,0.0,0.33
1494526753101072687,0.15,0.0,0.0,0.0,0.0,0.33
1494526753150626503,0.15,0.0,0.0,0.0,0.0,0.33
1494526753201191270,0.15,0.0,0.0,0.0,0.0,0.33
1494526753251577204,0.15,0.0,0.0,0.0,0.0,1.11022302463e-16
1494526753301137596,0.15,0.0,0.0,0.0,0.0,1.11022302463e-16
1494526753351429706,0.15,0.0,0.0,0.0,0.0,1.11022302463e-16
1494526753401049994,0.15,0.0,0.0,0.0,0.0,1.11022302463e-16
1494526753454053235,0.15,0.0,0.0,0.0,0.0,1.11022302463e-16
1494526753501046127,0.15,0.0,0.0,0.0,0.0,1.11022302463e-16
1494526753550807234,0.15,0.0,0.0,0.0,0.0,-0.33
1494526753602300563,0.15,0.0,0.0,0.0,0.0,-0.33
1494526753651166202,0.15,0.0,0.0,0.0,0.0,-0.33
1494526753701116058,0.15,0.0,0.0,0.0,0.0,-0.33
1494526753751075015,0.15,0.0,0.0,0.0,0.0,-0.33
1494526753801022806,0.15,0.0,0.0,0.0,0.0,-0.33
1494526753854746438,0.15,0.0,0.0,0.0,0.0,-0.33
1494526753903203255,0.15,0.0,0.0,0.0,0.0,-0.33
1494526753951955084,0.15,0.0,0.0,0.0,0.0,-0.33
1494526754002926262,0.15,0.0,0.0,0.0,0.0,-0.33
1494526754052103837,0.15,0.0,0.0,0.0,0.0,-0.33
1494526754106147646,0.15,0.0,0.0,0.0,0.0,-0.33
1494526754150965909,0.15,0.0,0.0,0.0,0.0,-0.33
1494526754201198416,0.15,0.0,0.0,0.0,0.0,-0.33
1494526754251170513,0.15,0.0,0.0,0.0,0.0,-0.33
1494526754302718551,0.15,0.0,0.0,0.0,0.0,-0.33
1494526754350835433,0.15,0.0,0.0,0.0,0.0,1.11022302463e-16
1494526754401597285,0.15,0.0,0.0,0.0,0.0,1.11022302463e-16
1494526754452949294,0.15,0.0,0.0,0.0,0.0,1.11022302463e-16
1494526754501462975,0.15,0.0,0.0,0.0,0.0,1.11022302463e-16
1494526754554870769,0.15,0.0,0.0,0.0,0.0,1.11022302463e-16
1494526754603167978,0.15,0.0,0.0,0.0,0.0,1.11022302463e-16
1494526754651533580,0.15,0.0,0.0,0.0,0.0,1.11022302463e-16
1494526754702133475,0.15,0.0,0.0,0.0,0.0,1.11022302463e-16
1494526754750964688,0.15,0.0,0.0,0.0,0.0,1.11022302463e-16
1494526754801192940,0.15,0.0,0.0,0.0,0.0,1.11022302463e-16
1494526754852015132,0.15,0.0,0.0,0.0,0.0,1.11022302463e-16
1494526754901326073,0.15,0.0,0.0,0.0,0.0,1.11022302463e-16
1494526754954754311,0.2,0.0,0.0,0.0,0.0,1.11022302463e-16
1494526755002000175,0.2,0.0,0.0,0.0,0.0,1.11022302463e-16
1494526755056857820,0.2,0.0,0.0,0.0,0.0,1.11022302463e-16
1494526755101082910,0.2,0.0,0.0,0.0,0.0,1.11022302463e-16
1494526755152727947,0.25,0.0,0.0,0.0,0.0,1.11022302463e-16
1494526755201858250,0.25,0.0,0.0,0.0,0.0,1.11022302463e-16
1494526755252602536,0.25,0.0,0.0,0.0,0.0,1.11022302463e-16
1494526755301280489,0.25,0.0,0.0,0.0,0.0,1.11022302463e-16
1494526755350829767,0.3,0.0,0.0,0.0,0.0,1.11022302463e-16
1494526755401033548,0.3,0.0,0.0,0.0,0.0,1.11022302463e-16
1494526755451048923,0.3,0.0,0.0,0.0,0.0,1.11022302463e-16
1494526755501219750,0.3,0.0,0.0,0.0,0.0,1.11022302463e-16
1494526755551454819,0.3,0.0,0.0,0.0,0.0,1.11022302463e-16
1494526755602380138,0.3,0.0,0.0,0.0,0.0,1.11022302463e-16
1494526755651048016,0.3,0.0,0.0,0.0,0.0,1.11022302463e-16
1494526755702505890,0.3,0.0,0.0,0.0,0.0,1.11022302463e-16
1494526755754884361,0.3,0.0,0.0,0.0,0.0,1.11022302463e-16
1494526755801904974,0.3,0.0,0.0,0.0,0.0,1.11022302463e-16
1494526755850766649,0.3,0.0,0.0,0.0,0.0,1.11022302463e-16
1494526755901163957,0.3,0.0,0.0,0.0,0.0,1.11022302463e-16
1494526755951686691,0.3,0.0,0.0,0.0,0.0,1.11022302463e-16
1494526756001106718,0.3,0.0,0.0,0.0,0.0,1.11022302463e-16
1494526756052732740,0.3,0.0,0.0,0.0,0.0,1.11022302463e-16
1494526756101086193,0.3,0.0,0.0,0.0,0.0,1.11022302463e-16
1494526756156372129,0.3,0.0,0.0,0.0,0.0,1.11022302463e-16
1494526756200995432,0.3,0.0,0.0,0.0,0.0,1.11022302463e-16
1494526756257455944,0.3,0.0,0.0,0.0,0.0,1.11022302463e-16
1494526756301868406,0.3,0.0,0.0,0.0,0.0,1.11022302463e-16
1494526756354517320,0.3,0.0,0.0,0.0,0.0,1.11022302463e-16
1494526756405223035,0.3,0.0,0.0,0.0,0.0,1.11022302463e-16
1494526756451011324,0.3,0.0,0.0,0.0,0.0,1.11022302463e-16
1494526756501590651,0.3,0.0,0.0,0.0,0.0,1.11022302463e-16
1494526756575997349,0.3,0.0,0.0,0.0,0.0,1.11022302463e-16
1494526756603892075,0.3,0.0,0.0,0.0,0.0,1.11022302463e-16
1494526756655485093,0.3,0.0,0.0,0.0,0.0,1.11022302463e-16
1494526756700935955,0.3,0.0,0.0,0.0,0.0,1.11022302463e-16
1494526756751135084,0.3,0.0,0.0,0.0,0.0,1.11022302463e-16
1494526756802436078,0.3,0.0,0.0,0.0,0.0,1.11022302463e-16
1494526756851068660,0.3,0.0,0.0,0.0,0.0,1.11022302463e-16
1494526756901074622,0.3,0.0,0.0,0.0,0.0,1.11022302463e-16
1494526756951397677,0.3,0.0,0.0,0.0,0.0,1.11022302463e-16
1494526757001996760,0.3,0.0,0.0,0.0,0.0,1.11022302463e-16
1494526757055100175,0.3,0.0,0.0,0.0,0.0,1.11022302463e-16
1494526757104245673,0.3,0.0,0.0,0.0,0.0,1.11022302463e-16
1494526757155736598,0.3,0.0,0.0,0.0,0.0,1.11022302463e-16
1494526757203310912,0.3,0.0,0.0,0.0,0.0,1.11022302463e-16
1494526757251531923,0.3,0.0,0.0,0.0,0.0,1.11022302463e-16
1494526757301239562,0.3,0.0,0.0,0.0,0.0,1.11022302463e-16
1494526757351802902,0.3,0.0,0.0,0.0,0.0,1.11022302463e-16
1494526757401760138,0.3,0.0,0.0,0.0,0.0,1.11022302463e-16
1494526757452552466,0.3,0.0,0.0,0.0,0.0,1.11022302463e-16
1494526757501323703,0.3,0.0,0.0,0.0,0.0,1.11022302463e-16
1494526757554216390,0.3,0.0,0.0,0.0,0.0,1.11022302463e-16
1494526757602148139,0.3,0.0,0.0,0.0,0.0,1.11022302463e-16
1494526757652318202,0.3,0.0,0.0,0.0,0.0,1.11022302463e-16
1494526757701046376,0.3,0.0,0.0,0.0,0.0,1.11022302463e-16
1494526757750891233,0.3,0.0,0.0,0.0,0.0,1.11022302463e-16
1494526757803155989,0.3,0.0,0.0,0.0,0.0,1.11022302463e-16
1494526757850847908,0.3,0.0,0.0,0.0,0.0,-0.33
1494526757903442801,0.3,0.0,0.0,0.0,0.0,-0.33
1494526757951696032,0.3,0.0,0.0,0.0,0.0,-0.33
1494526758001003387,0.3,0.0,0.0,0.0,0.0,-0.33
1494526758052678535,0.3,0.0,0.0,0.0,0.0,-0.33
1494526758101654202,0.3,0.0,0.0,0.0,0.0,-0.33
1494526758150779350,0.3,0.0,0.0,0.0,0.0,-0.33
1494526758202729655,0.3,0.0,0.0,0.0,0.0,-0.33
1494526758250953108,0.3,0.0,0.0,0.0,0.0,-0.33
1494526758303829415,0.3,0.0,0.0,0.0,0.0,-0.33
1494526758353137006,0.3,0.0,0.0,0.0,0.0,1.11022302463e-16
1494526758401512737,0.3,0.0,0.0,0.0,0.0,1.11022302463e-16
1494526758455195927,0.3,0.0,0.0,0.0,0.0,1.11022302463e-16
1494526758501471966,0.3,0.0,0.0,0.0,0.0,1.11022302463e-16
1494526758551762297,0.3,0.0,0.0,0.0,0.0,1.11022302463e-16
1494526758601697992,0.3,0.0,0.0,0.0,0.0,1.11022302463e-16
1494526758653001576,0.3,0.0,0.0,0.0,0.0,1.11022302463e-16
1494526758701144139,0.3,0.0,0.0,0.0,0.0,1.11022302463e-16
1494526758764295518,0.3,0.0,0.0,0.0,0.0,1.11022302463e-16
1494526758801639021,0.3,0.0,0.0,0.0,0.0,1.11022302463e-16
1494526758855371306,0.3,0.0,0.0,0.0,0.0,1.11022302463e-16
1494526758902097603,0.3,0.0,0.0,0.0,0.0,1.11022302463e-16
1494526758956768689,0.3,0.0,0.0,0.0,0.0,1.11022302463e-16
1494526759001765049,0.3,0.0,0.0,0.0,0.0,1.11022302463e-16
1494526759055051873,0.3,0.0,0.0,0.0,0.0,1.11022302463e-16
1494526759103022347,0.3,0.0,0.0,0.0,0.0,1.11022302463e-16
1494526759155087225,0.3,0.0,0.0,0.0,0.0,1.11022302463e-16
1494526759201404755,0.3,0.0,0.0,0.0,0.0,1.11022302463e-16
1494526759255859098,0.3,0.0,0.0,0.0,0.0,1.11022302463e-16
1494526759301692139,0.3,0.0,0.0,0.0,0.0,1.11022302463e-16
1494526759357092694,0.3,0.0,0.0,0.0,0.0,1.11022302463e-16
1494526759402125588,0.3,0.0,0.0,0.0,0.0,1.11022302463e-16
1494526759452249353,0.3,0.0,0.0,0.0,0.0,1.11022302463e-16
1494526759502339458,0.3,0.0,0.0,0.0,0.0,1.11022302463e-16
1494526759553419931,0.3,0.0,0.0,0.0,0.0,1.11022302463e-16
1494526759601404694,0.3,0.0,0.0,0.0,0.0,1.11022302463e-16
1494526759655867529,0.3,0.0,0.0,0.0,0.0,1.11022302463e-16
1494526759701045261,0.3,0.0,0.0,0.0,0.0,1.11022302463e-16
1494526759755054043,0.3,0.0,0.0,0.0,0.0,1.11022302463e-16
1494526759803510776,0.3,0.0,0.0,0.0,0.0,1.11022302463e-16
1494526759851901036,0.3,0.0,0.0,0.0,0.0,1.11022302463e-16
1494526759901017659,0.3,0.0,0.0,0.0,0.0,1.11022302463e-16
1494526759953114205,0.3,0.0,0.0,0.0,0.0,1.11022302463e-16
1494526760000928507,0.3,0.0,0.0,0.0,0.0,1.11022302463e-16
1494526760051568985,0.3,0.0,0.0,0.0,0.0,1.11022302463e-16
1494526760101894964,0.3,0.0,0.0,0.0,0.0,1.11022302463e-16
1494526760152798108,0.3,0.0,0.0,0.0,0.0,1.11022302463e-16
1494526760202310512,0.3,0.0,0.0,0.0,0.0,1.11022302463e-16
1494526760253303010,0.3,0.0,0.0,0.0,0.0,1.11022302463e-16
1494526760300876744,0.3,0.0,0.0,0.0,0.0,1.11022302463e-16
1494526760351963755,0.3,0.0,0.0,0.0,0.0,1.11022302463e-16
1494526760401058595,0.3,0.0,0.0,0.0,0.0,1.11022302463e-16
1494526760457004336,0.3,0.0,0.0,0.0,0.0,1.11022302463e-16
1494526760501020398,0.3,0.0,0.0,0.0,0.0,1.11022302463e-16
1494526760558885458,0.3,0.0,0.0,0.0,0.0,1.11022302463e-16
1494526760601136240,0.3,0.0,0.0,0.0,0.0,1.11022302463e-16
1494526760653061170,0.3,0.0,0.0,0.0,0.0,1.11022302463e-16
1494526760701337874,0.3,0.0,0.0,0.0,0.0,1.11022302463e-16
1494526760752910394,0.3,0.0,0.0,0.0,0.0,1.11022302463e-16
1494526760801690757,0.3,0.0,0.0,0.0,0.0,1.11022302463e-16
1494526760851425827,0.25,0.0,0.0,0.0,0.0,1.11022302463e-16
1494526760902295564,0.25,0.0,0.0,0.0,0.0,1.11022302463e-16
1494526760951167520,0.25,0.0,0.0,0.0,0.0,1.11022302463e-16
1494526761001777511,0.25,0.0,0.0,0.0,0.0,1.11022302463e-16
1494526761051278468,0.2,0.0,0.0,0.0,0.0,1.11022302463e-16
1494526761100890880,0.2,0.0,0.0,0.0,0.0,1.11022302463e-16
1494526761151109179,0.2,0.0,0.0,0.0,0.0,1.11022302463e-16
1494526761201083989,0.2,0.0,0.0,0.0,0.0,1.11022302463e-16
1494526761251882427,0.15,0.0,0.0,0.0,0.0,1.11022302463e-16
1494526761302424061,0.15,0.0,0.0,0.0,0.0,1.11022302463e-16
1494526761355077533,0.15,0.0,0.0,0.0,0.0,1.11022302463e-16
1494526761401522058,0.15,0.0,0.0,0.0,0.0,1.11022302463e-16
1494526761451058609,0.1,0.0,0.0,0.0,0.0,1.11022302463e-16
1494526761707477036,0.1,0.0,0.0,0.0,0.0,1.11022302463e-16
1494526761707490577,0.1,0.0,0.0,0.0,0.0,1.11022302463e-16
1494526761707499996,0.1,0.0,0.0,0.0,0.0,1.11022302463e-16
1494526761707506461,0.1,0.0,0.0,0.0,0.0,1.11022302463e-16
1494526761712740760,0.1,0.0,0.0,0.0,0.0,1.11022302463e-16
1494526761751401440,0.05,0.0,0.0,0.0,0.0,1.11022302463e-16
1494526761800888201,0.05,0.0,0.0,0.0,0.0,1.11022302463e-16
1494526761851346031,0.05,0.0,0.0,0.0,0.0,1.11022302463e-16
1494526761901130749,0.05,0.0,0.0,0.0,0.0,1.11022302463e-16
1494526761952388819,0.05,0.0,0.0,0.0,0.0,1.11022302463e-16
1494526762001783691,0.05,0.0,0.0,0.0,0.0,1.11022302463e-16
1494526762051457167,0.05,0.0,0.0,0.0,0.0,1.11022302463e-16
1494526762102489184,0.05,0.0,0.0,0.0,0.0,1.11022302463e-16
1494526762151135613,0.05,0.0,0.0,0.0,0.0,1.11022302463e-16
1494526762200891740,0.05,0.0,0.0,0.0,0.0,1.11022302463e-16
1494526762251433743,0.05,0.0,0.0,0.0,0.0,-0.33
1494526762301074691,0.05,0.0,0.0,0.0,0.0,-0.33
1494526762351104945,0.05,0.0,0.0,0.0,0.0,-0.33
1494526762401863757,0.05,0.0,0.0,0.0,0.0,-0.33
1494526762450865021,0.05,0.0,0.0,0.0,0.0,-0.33
1494526762503101299,0.05,0.0,0.0,0.0,0.0,-0.33
1494526762874230477,0.05,0.0,0.0,0.0,0.0,-0.66
1494526762874236403,0.05,0.0,0.0,0.0,0.0,-0.66
1494526762874263927,0.05,0.0,0.0,0.0,0.0,-0.66
1494526762874271930,0.05,0.0,0.0,0.0,0.0,-0.66
1494526762874278828,0.05,0.0,0.0,0.0,0.0,-0.99
1494526762882446264,0.05,0.0,0.0,0.0,0.0,-0.99
1494526762882452212,0.05,0.0,0.0,0.0,0.0,-0.99
1494526762900748721,0.05,0.0,0.0,0.0,0.0,-0.99
1494526763157652687,0.05,0.0,0.0,0.0,0.0,-1.32
1494526763157675270,0.05,0.0,0.0,0.0,0.0,-1.32
1494526763157682574,0.05,0.0,0.0,0.0,0.0,-1.32
1494526763157712651,0.05,0.0,0.0,0.0,0.0,-1.32
1494526763157723549,0.05,0.0,0.0,0.0,0.0,-1.65
1494526763201027170,0.05,0.0,0.0,0.0,0.0,-1.65
1494526763292990600,0.05,0.0,0.0,0.0,0.0,-1.65
1494526763302702648,0.05,0.0,0.0,0.0,0.0,-1.65
1494526763369145925,0.05,0.0,0.0,0.0,0.0,-1.65
1494526763400887463,0.05,0.0,0.0,0.0,0.0,-1.65
1494526763456927001,0.05,0.0,0.0,0.0,0.0,-1.65
1494526763500817208,0.05,0.0,0.0,0.0,0.0,-1.65
1494526763769024346,0.05,0.0,0.0,0.0,0.0,-1.32
1494526763769036289,0.05,0.0,0.0,0.0,0.0,-1.32
1494526763769051615,0.05,0.0,0.0,0.0,0.0,-1.32
1494526763769062490,0.05,0.0,0.0,0.0,0.0,-1.32
1494526763769073898,0.05,0.0,0.0,0.0,0.0,-1.32
1494526763801954311,0.05,0.0,0.0,0.0,0.0,-1.32
1494526764072784176,0.05,0.0,0.0,0.0,0.0,-0.99
1494526764072809397,0.05,0.0,0.0,0.0,0.0,-0.99
1494526764072819460,0.05,0.0,0.0,0.0,0.0,-0.99
1494526764072828196,0.05,0.0,0.0,0.0,0.0,-0.99
1494526764072834951,0.05,0.0,0.0,0.0,0.0,-0.66
1494526764101041361,0.05,0.0,0.0,0.0,0.0,-0.66
1494526764151124920,0.05,0.0,0.0,0.0,0.0,-0.66
1494526764201057139,0.05,0.0,0.0,0.0,0.0,-0.66
1494526764251328133,0.05,0.0,0.0,0.0,0.0,-0.66
1494526764301060167,0.05,0.0,0.0,0.0,0.0,-0.66
1494526764351311717,0.05,0.0,0.0,0.0,0.0,-0.33
1494526764401479165,0.05,0.0,0.0,0.0,0.0,-0.33
1494526764451880831,0.05,0.0,0.0,0.0,0.0,-0.33
1494526764509511651,0.05,0.0,0.0,0.0,0.0,-0.33
1494526764555655371,0.05,0.0,0.0,0.0,0.0,1.11022302463e-16
1494526764607763344,0.05,0.0,0.0,0.0,0.0,1.11022302463e-16
1494526764653085326,0.05,0.0,0.0,0.0,0.0,1.11022302463e-16
1494526764701191843,0.05,0.0,0.0,0.0,0.0,1.11022302463e-16
1494526764757695278,0.05,0.0,0.0,0.0,0.0,1.11022302463e-16
1494526764800771110,0.05,0.0,0.0,0.0,0.0,1.11022302463e-16
1494526764851105395,0.05,0.0,0.0,0.0,0.0,0.33
1494526764903278997,0.05,0.0,0.0,0.0,0.0,0.33
1494526764951232020,0.05,0.0,0.0,0.0,0.0,0.33
1494526765000993761,0.05,0.0,0.0,0.0,0.0,0.33
1494526765051226919,0.05,0.0,0.0,0.0,0.0,0.33
1494526765101476891,0.05,0.0,0.0,0.0,0.0,0.33
1494526765151107775,0.05,0.0,0.0,0.0,0.0,0.66
1494526765202167149,0.05,0.0,0.0,0.0,0.0,0.66
1494526765251155595,0.05,0.0,0.0,0.0,0.0,0.66
1494526765300835384,0.05,0.0,0.0,0.0,0.0,0.66
1494526765351098071,0.05,0.0,0.0,0.0,0.0,0.66
1494526765401026218,0.05,0.0,0.0,0.0,0.0,0.66
1494526765451333968,0.05,0.0,0.0,0.0,0.0,0.66
1494526765502519551,0.05,0.0,0.0,0.0,0.0,0.66
1494526765551004395,0.05,0.0,0.0,0.0,0.0,0.66
1494526765604128827,0.05,0.0,0.0,0.0,0.0,0.66
1494526765651189445,0.05,0.0,0.0,0.0,0.0,0.33
1494526765700738022,0.05,0.0,0.0,0.0,0.0,0.33
1494526765751162790,0.05,0.0,0.0,0.0,0.0,0.33
1494526765801880068,0.05,0.0,0.0,0.0,0.0,0.33
1494526765853021288,0.05,0.0,0.0,0.0,0.0,0.33
1494526765904826009,0.05,0.0,0.0,0.0,0.0,0.33
1494526765950753393,0.05,0.0,0.0,0.0,0.0,0.33
1494526766001621852,0.05,0.0,0.0,0.0,0.0,0.33
1494526766051289032,0.1,0.0,0.0,0.0,0.0,0.33
1494526766102118352,0.1,0.0,0.0,0.0,0.0,0.33
1494526766150943199,0.1,0.0,0.0,0.0,0.0,0.33
1494526766201894782,0.1,0.0,0.0,0.0,0.0,0.33
1494526766252768111,0.15,0.0,0.0,0.0,0.0,0.33
1494526766301066420,0.15,0.0,0.0,0.0,0.0,0.33
1494526766351143337,0.15,0.0,0.0,0.0,0.0,0.33
1494526766402051593,0.15,0.0,0.0,0.0,0.0,0.33
1494526766452334499,0.15,0.0,0.0,0.0,0.0,1.11022302463e-16
1494526766501577686,0.15,0.0,0.0,0.0,0.0,1.11022302463e-16
1494526766551088067,0.15,0.0,0.0,0.0,0.0,1.11022302463e-16
1494526766604902425,0.15,0.0,0.0,0.0,0.0,1.11022302463e-16
1494526766658312547,0.15,0.0,0.0,0.0,0.0,1.11022302463e-16
1494526766704869285,0.15,0.0,0.0,0.0,0.0,1.11022302463e-16
1494526766754544675,0.15,0.0,0.0,0.0,0.0,1.11022302463e-16
1494526766806365728,0.15,0.0,0.0,0.0,0.0,1.11022302463e-16
1494526766851219019,0.15,0.0,0.0,0.0,0.0,1.11022302463e-16
1494526766906671580,0.15,0.0,0.0,0.0,0.0,1.11022302463e-16
1494526766953282493,0.15,0.0,0.0,0.0,0.0,-0.33
1494526767001257438,0.15,0.0,0.0,0.0,0.0,-0.33
1494526767050975296,0.15,0.0,0.0,0.0,0.0,-0.33
1494526767123242498,0.15,0.0,0.0,0.0,0.0,-0.33
1494526767155061257,0.15,0.0,0.0,0.0,0.0,-0.33
1494526767205033343,0.15,0.0,0.0,0.0,0.0,-0.33
1494526767255129092,0.15,0.0,0.0,0.0,0.0,-0.33
1494526767337329988,0.15,0.0,0.0,0.0,0.0,-0.33
1494526767351587500,0.15,0.0,0.0,0.0,0.0,-0.33
1494526767401202691,0.15,0.0,0.0,0.0,0.0,-0.33
1494526767451647511,0.15,0.0,0.0,0.0,0.0,-0.33
1494526767523395124,0.15,0.0,0.0,0.0,0.0,-0.33
1494526767551563415,0.15,0.0,0.0,0.0,0.0,1.11022302463e-16
1494526767601307642,0.15,0.0,0.0,0.0,0.0,1.11022302463e-16
1494526767652113357,0.15,0.0,0.0,0.0,0.0,1.11022302463e-16
1494526767705097439,0.15,0.0,0.0,0.0,0.0,1.11022302463e-16
1494526767754259683,0.15,0.0,0.0,0.0,0.0,1.11022302463e-16
1494526767806474136,0.15,0.0,0.0,0.0,0.0,1.11022302463e-16
1494526767856505271,0.15,0.0,0.0,0.0,0.0,1.11022302463e-16
1494526767902194763,0.15,0.0,0.0,0.0,0.0,1.11022302463e-16
1494526767950844125,0.15,0.0,0.0,0.0,0.0,1.11022302463e-16
1494526768008878162,0.15,0.0,0.0,0.0,0.0,1.11022302463e-16
1494526768052936741,0.2,0.0,0.0,0.0,0.0,1.11022302463e-16
1494526768100833716,0.2,0.0,0.0,0.0,0.0,1.11022302463e-16
1494526768151255207,0.2,0.0,0.0,0.0,0.0,1.11022302463e-16
1494526768203320355,0.2,0.0,0.0,0.0,0.0,1.11022302463e-16
1494526768251317275,0.25,0.0,0.0,0.0,0.0,1.11022302463e-16
1494526768303202432,0.25,0.0,0.0,0.0,0.0,1.11022302463e-16
1494526768351050432,0.25,0.0,0.0,0.0,0.0,1.11022302463e-16
1494526768403058823,0.25,0.0,0.0,0.0,0.0,1.11022302463e-16
1494526768451844099,0.3,0.0,0.0,0.0,0.0,1.11022302463e-16
1494526768505959956,0.3,0.0,0.0,0.0,0.0,1.11022302463e-16
1494526768550902179,0.3,0.0,0.0,0.0,0.0,1.11022302463e-16
1494526768603470955,0.3,0.0,0.0,0.0,0.0,1.11022302463e-16
1494526768651014845,0.35,0.0,0.0,0.0,0.0,1.11022302463e-16
1494526768701943598,0.35,0.0,0.0,0.0,0.0,1.11022302463e-16
1494526768751132825,0.35,0.0,0.0,0.0,0.0,1.11022302463e-16
1494526768802380370,0.35,0.0,0.0,0.0,0.0,1.11022302463e-16
1494526768851880483,0.4,0.0,0.0,0.0,0.0,1.11022302463e-16
1494526768903134662,0.4,0.0,0.0,0.0,0.0,1.11022302463e-16
1494526768953594433,0.4,0.0,0.0,0.0,0.0,1.11022302463e-16
1494526769002408614,0.4,0.0,0.0,0.0,0.0,1.11022302463e-16
1494526769050942924,0.4,0.0,0.0,0.0,0.0,1.11022302463e-16
1494526769105941099,0.4,0.0,0.0,0.0,0.0,1.11022302463e-16
1494526769151476521,0.4,0.0,0.0,0.0,0.0,1.11022302463e-16
1494526769209496799,0.4,0.0,0.0,0.0,0.0,1.11022302463e-16
1494526769251048509,0.4,0.0,0.0,0.0,0.0,1.11022302463e-16
1494526769303865734,0.4,0.0,0.0,0.0,0.0,1.11022302463e-16
1494526769354915846,0.4,0.0,0.0,0.0,0.0,1.11022302463e-16
1494526769404785637,0.4,0.0,0.0,0.0,0.0,1.11022302463e-16
1494526769451123392,0.4,0.0,0.0,0.0,0.0,1.11022302463e-16
1494526769506796208,0.4,0.0,0.0,0.0,0.0,1.11022302463e-16
1494526769552135019,0.4,0.0,0.0,0.0,0.0,-0.33
1494526769603174967,0.4,0.0,0.0,0.0,0.0,-0.33
1494526769651170965,0.4,0.0,0.0,0.0,0.0,-0.33
1494526769701842894,0.4,0.0,0.0,0.0,0.0,-0.33
1494526769750922540,0.4,0.0,0.0,0.0,0.0,-0.33
1494526769804615972,0.4,0.0,0.0,0.0,0.0,-0.33
1494526769851011279,0.4,0.0,0.0,0.0,0.0,-0.33
1494526769904449643,0.4,0.0,0.0,0.0,0.0,-0.33
1494526769951052745,0.4,0.0,0.0,0.0,0.0,-0.33
1494526770001281260,0.4,0.0,0.0,0.0,0.0,-0.33
1494526770050843917,0.4,0.0,0.0,0.0,0.0,1.11022302463e-16
1494526770101351835,0.4,0.0,0.0,0.0,0.0,1.11022302463e-16
1494526770151004047,0.4,0.0,0.0,0.0,0.0,1.11022302463e-16
1494526770201749732,0.4,0.0,0.0,0.0,0.0,1.11022302463e-16
1494526770250834523,0.4,0.0,0.0,0.0,0.0,1.11022302463e-16
1494526770301962197,0.4,0.0,0.0,0.0,0.0,1.11022302463e-16
1494526770351692259,0.4,0.0,0.0,0.0,0.0,1.11022302463e-16
1494526770401537159,0.4,0.0,0.0,0.0,0.0,1.11022302463e-16
1494526770451147394,0.4,0.0,0.0,0.0,0.0,1.11022302463e-16
1494526770501269395,0.4,0.0,0.0,0.0,0.0,1.11022302463e-16
1494526770550932981,0.4,0.0,0.0,0.0,0.0,1.11022302463e-16
1494526770602105511,0.4,0.0,0.0,0.0,0.0,1.11022302463e-16
1494526770652805445,0.4,0.0,0.0,0.0,0.0,1.11022302463e-16
1494526770707860516,0.4,0.0,0.0,0.0,0.0,1.11022302463e-16
1494526770751111720,0.4,0.0,0.0,0.0,0.0,1.11022302463e-16
1494526770810090761,0.4,0.0,0.0,0.0,0.0,1.11022302463e-16
1494526770850897989,0.4,0.0,0.0,0.0,0.0,1.11022302463e-16
1494526770901453322,0.4,0.0,0.0,0.0,0.0,1.11022302463e-16
1494526770951045590,0.4,0.0,0.0,0.0,0.0,1.11022302463e-16
1494526771001441402,0.4,0.0,0.0,0.0,0.0,1.11022302463e-16
1494526771050927137,0.4,0.0,0.0,0.0,0.0,1.11022302463e-16
1494526771103942401,0.4,0.0,0.0,0.0,0.0,1.11022302463e-16
1494526771151301687,0.4,0.0,0.0,0.0,0.0,1.11022302463e-16
1494526771201376164,0.4,0.0,0.0,0.0,0.0,1.11022302463e-16
1494526771250908595,0.4,0.0,0.0,0.0,0.0,1.11022302463e-16
1494526771301834654,0.4,0.0,0.0,0.0,0.0,1.11022302463e-16
1494526771353605975,0.4,0.0,0.0,0.0,0.0,1.11022302463e-16
1494526771401277536,0.4,0.0,0.0,0.0,0.0,1.11022302463e-16
1494526771450758915,0.4,0.0,0.0,0.0,0.0,1.11022302463e-16
1494526771500823808,0.4,0.0,0.0,0.0,0.0,1.11022302463e-16
1494526771553676767,0.4,0.0,0.0,0.0,0.0,1.11022302463e-16
1494526771812476843,0.4,0.0,0.0,0.0,0.0,1.11022302463e-16
1494526771812500950,0.4,0.0,0.0,0.0,0.0,1.11022302463e-16
1494526771812511026,0.4,0.0,0.0,0.0,0.0,1.11022302463e-16
1494526771812518744,0.4,0.0,0.0,0.0,0.0,1.11022302463e-16
1494526771812526201,0.4,0.0,0.0,0.0,0.0,1.11022302463e-16
1494526771850941910,0.4,0.0,0.0,0.0,0.0,1.11022302463e-16
1494526771901146799,0.4,0.0,0.0,0.0,0.0,1.11022302463e-16
1494526771952052842,0.4,0.0,0.0,0.0,0.0,1.11022302463e-16
1494526772001216249,0.4,0.0,0.0,0.0,0.0,1.11022302463e-16
1494526772051435319,0.4,0.0,0.0,0.0,0.0,1.11022302463e-16
