%time,field.header.seq,field.header.stamp,field.header.frame_id,field.time_stamp,field.bumper,field.wheel_drop,field.cliff,field.left_encoder,field.right_encoder,field.left_pwm,field.right_pwm,field.buttons,field.charger,field.battery,field.bottom0,field.bottom1,field.bottom2,field.current0,field.current1,field.over_current,field.digital_input,field.analog_input0,field.analog_input1,field.analog_input2,field.analog_input3
1494526700933905965,951,1494526699438175678,,32884,0,0,0,9428,1021,0,0,0,0,154,1551,1903,1670,0,0,0,0,4072,4077,4071,4081
1494526700933912002,952,1494526699459052318,,32904,0,0,0,9428,1021,0,0,0,0,154,1551,1903,1671,0,0,0,0,4070,4073,4068,4077
1494526700933930777,953,1494526699479113005,,32924,0,0,0,9428,1021,0,0,0,0,154,1554,1902,1671,0,0,0,0,4075,4087,4062,4069
1494526700933936703,954,1494526699499223817,,32944,0,0,0,9428,1021,0,0,0,0,154,1554,1905,1671,0,0,0,0,4073,4081,4083,4068
1494526700933942252,955,1494526699519024382,,32964,0,0,0,9428,1021,0,0,0,0,154,1554,1905,1665,0,0,0,0,4069,4078,4077,4086
1494526700933949213,956,1494526699539032195,,32984,0,0,0,9428,1021,0,0,0,0,154,1554,1904,1646,0,0,0,0,4067,4072,4078,4085
1494526700933954924,957,1494526699559045174,,33004,0,0,0,9428,1021,0,0,0,0,154,1553,1904,1665,0,0,0,0,4079,4074,4070,4072
1494526700933963275,958,1494526699579054196,,33024,0,0,0,9428,1021,0,0,0,0,154,1553,1903,1665,0,0,0,0,4075,4080,4068,4072
1494526700933988497,959,1494526699599260465,,33044,0,0,0,9428,1021,0,0,0,0,154,1550,1903,1665,0,0,0,0,4072,4081,4084,4071
1494526700933993521,960,1494526699619197529,,33064,0,0,0,9428,1021,0,0,0,0,154,1551,1903,1665,0,0,0,0,4070,4076,4077,4089
1494526700933998375,961,1494526699645592795,,33084,0,0,0,9428,1021,0,0,0,0,154,1553,1904,1650,0,0,0,0,4067,4073,4073,4082
1494526700934005540,962,1494526699660083898,,33104,0,0,0,9428,1021,0,0,0,0,154,1553,1904,1668,0,0,0,0,4078,4071,4073,4080
1494526700934010601,963,1494526699679074135,,33124,0,0,0,9428,1021,0,0,0,0,154,1551,1906,1668,0,0,0,0,4071,4081,4069,4069
1494526700934016838,964,1494526699699094615,,33144,0,0,0,9428,1021,0,0,0,0,154,1553,1909,1667,0,0,0,0,4068,4076,4076,4070
1494526700934022785,965,1494526699720340419,,33164,0,0,0,9428,1021,0,0,0,0,154,1555,1909,1667,0,0,0,0,4073,4084,4078,4084
1494526700934028070,966,1494526699739678362,,33184,0,0,0,9428,1021,0,0,0,0,154,1555,1904,1667,0,0,0,0,4066,4073,4077,4088
1494526700934037647,967,1494526699759052554,,33204,0,0,0,9428,1021,0,0,0,0,154,1552,1904,1668,0,0,0,0,4075,4069,4070,4077
1494526700934042992,968,1494526699778919993,,33224,0,0,0,9428,1021,0,0,0,0,154,1559,1903,1669,0,0,0,0,4075,4079,4069,4072
1494526700934048973,969,1494526699798941806,,33244,0,0,0,9428,1021,0,0,0,0,154,1559,1903,1669,0,0,0,0,4073,4082,4076,4064
1494526700934054252,970,1494526699818922536,,33264,0,0,0,9428,1021,0,0,0,0,154,1555,1905,1669,0,0,0,0,4076,4077,4079,4077
1494526700934120361,971,1494526699840219881,,33284,0,0,0,9428,1021,0,0,0,0,154,1555,1905,1665,0,0,0,0,4067,4076,4075,4086
1494526700934126776,972,1494526699860257610,,33304,0,0,0,9428,1021,0,0,0,0,154,1553,1903,1646,0,0,0,0,4066,4071,4077,4084
1494526700934134533,973,1494526699878994849,,33324,0,0,0,9428,1021,0,0,0,0,154,1559,1904,1647,0,0,0,0,4079,4071,4069,4078
1494526700934162794,974,1494526699898958788,,33344,0,0,0,9428,1021,0,0,0,0,154,1559,1907,1647,0,0,0,0,4075,4085,4066,4070
1494526700934170410,975,1494526699918871435,,33364,0,0,0,9428,1021,0,0,0,0,154,1553,1907,1663,0,0,0,0,4072,4082,4078,4067
1494526700934177671,976,1494526699938940914,,33384,0,0,0,9428,1021,0,0,0,0,154,1562,1907,1668,0,0,0,0,4069,4077,4076,4091
1494526700934189628,977,1494526699958922894,,33404,0,0,0,9428,1021,0,0,0,0,154,1562,1904,1668,0,0,0,0,4067,4076,4080,4081
1494526700935502069,978,1494526699980211114,,33424,0,0,0,9428,1021,0,0,0,0,154,1560,1904,1665,0,0,0,0,4073,4068,4070,4079
1494526700935509075,979,1494526699999067560,,33444,0,0,0,9428,1021,0,0,0,0,154,1550,1904,1668,0,0,0,0,4074,4072,4067,4071
1494526700935516151,980,1494526700019017290,,33464,0,0,0,9428,1021,0,0,0,0,154,1551,1906,1668,0,0,0,0,4071,4081,4088,4067
1494526700935523786,981,1494526700040039554,,33484,0,0,0,9428,1021,0,0,0,0,154,1551,1906,1668,0,0,0,0,4076,4075,4076,4084
1494526700935529592,982,1494526700058898417,,33504,0,0,0,9428,1021,0,0,0,0,154,1551,1906,1668,0,0,0,0,4069,4078,4073,4083
1494526700935537005,983,1494526700079356102,,33524,0,0,0,9428,1021,0,0,0,0,154,1555,1906,1667,0,0,0,0,4069,4072,4071,4082
1494526700935544233,984,1494526700100026701,,33544,0,0,0,9428,1021,0,0,0,0,154,1556,1913,1664,0,0,0,0,4077,4070,4066,4078
1494526700935550841,985,1494526700119992223,,33564,0,0,0,9428,1021,0,0,0,0,154,1559,1913,1669,0,0,0,0,4073,4078,4067,4066
1494526700935603814,986,1494526700138841878,,33584,0,0,0,9428,1021,0,0,0,0,154,1559,1907,1669,0,0,0,0,4078,4086,4081,4068
1494526700935611659,987,1494526700158921523,,33604,0,0,0,9428,1021,0,0,0,0,154,1552,1906,1669,0,0,0,0,4069,4077,4081,4083
1494526700935620317,988,1494526700179130460,,33624,0,0,0,9428,1021,0,0,0,0,154,1555,1903,1666,0,0,0,0,4068,4072,4073,4082
1494526700935627662,989,1494526700198873650,,33644,0,0,0,9428,1021,0,0,0,0,154,1555,1903,1667,0,0,0,0,4070,4068,4074,4080
1494526700935634804,990,1494526700220050871,,33664,0,0,0,9428,1021,0,0,0,0,154,1552,1906,1667,0,0,0,0,4078,4072,4063,4072
1494526700936330925,991,1494526700239990434,,33684,0,0,0,9428,1021,0,0,0,0,154,1552,1906,1667,0,0,0,0,4073,4079,4074,4065
1494526700936337888,992,1494526700259965914,,33704,0,0,0,9428,1021,0,0,0,0,154,1555,1904,1668,0,0,0,0,4076,4078,4075,4075
1494526700936345660,993,1494526700280313433,,33724,0,0,0,9428,1021,0,0,0,0,154,1555,1907,1668,0,0,0,0,4069,4078,4081,4079
1494526700936352332,994,1494526700300123914,,33744,0,0,0,9428,1021,0,0,0,0,154,1555,1907,1668,0,0,0,0,4068,4075,4075,4082
1494526700936357932,995,1494526700319408691,,33764,0,0,0,9428,1021,0,0,0,0,154,1554,1907,1668,0,0,0,0,4075,4076,4077,4082
1494526700936365076,996,1494526700339776543,,33784,0,0,0,9428,1021,0,0,0,0,154,1555,1907,1668,0,0,0,0,4075,4074,4071,4069
1494526700936372455,997,1494526700366964428,,33804,0,0,0,9428,1021,0,0,0,0,154,1555,1907,1648,0,0,0,0,4076,4082,4069,4070
1494526700936422405,998,1494526700380244290,,33824,0,0,0,9428,1021,0,0,0,0,154,1553,1904,1648,0,0,0,0,4078,4083,4070,4063
1494526700936440570,999,1494526700400678183,,33844,0,0,0,9428,1021,0,0,0,0,154,1554,1904,1648,0,0,0,0,4074,4075,4077,4092
1494526700936446225,1000,1494526700420217083,,33864,0,0,0,9428,1021,0,0,0,0,154,1554,1904,1646,0,0,0,0,4072,4073,4076,4083
1494526700936452915,1001,1494526700440122480,,33884,0,0,0,9428,1021,0,0,0,0,154,1554,1933,1670,0,0,0,0,4072,4076,4069,4079
1494526700936998207,1002,1494526700459770629,,33904,0,0,0,9428,1021,0,0,0,0,154,1554,1933,1670,0,0,0,0,4082,4077,4064,4076
1494526700937006197,1003,1494526700479915316,,33924,0,0,0,9428,1021,0,0,0,0,154,1554,1903,1670,0,0,0,0,4077,4085,4068,4067
1494526700937013650,1004,1494526700500025628,,33944,0,0,0,9428,1021,0,0,0,0,154,1553,1903,1669,0,0,0,0,4071,4082,4085,4073
1494526700937020304,1005,1494526700519993233,,33964,0,0,0,9428,1021,0,0,0,0,154,1553,1905,1669,0,0,0,0,4073,4079,4073,4085
1494526700937026489,1006,1494526700545359007,,33984,0,0,0,9428,1021,0,0,0,0,154,1552,1905,1650,0,0,0,0,4065,4072,4071,4075
1494526700937033234,1007,1494526700560280690,,34004,0,0,0,9428,1021,0,0,0,0,154,1553,1905,1668,0,0,0,0,4080,4067,4068,4075
1494526700937077926,1008,1494526700580000380,,34024,0,0,0,9428,1021,0,0,0,0,154,1562,1904,1668,0,0,0,0,4074,4078,4063,4073
1494526700937084549,1009,1494526700600785729,,34044,0,0,0,9428,1021,0,0,0,0,154,1562,1903,1668,0,0,0,0,4071,4080,4086,4064
1494526700937126251,1010,1494526700619952590,,34064,0,0,0,9428,1021,0,0,0,0,154,1553,1902,1666,0,0,0,0,4071,4083,4083,4085
1494526700937576801,1011,1494526700639936278,,34084,0,0,0,9428,1021,0,0,0,0,154,1555,1905,1666,0,0,0,0,4074,4074,4075,4081
1494526700937582857,1012,1494526700659794467,,34104,0,0,0,9428,1021,0,0,0,0,154,1555,1905,1664,0,0,0,0,4066,4070,4070,4081
1494526700937588918,1013,1494526700680770190,,34124,0,0,0,9428,1021,0,0,0,0,154,1606,1904,1646,0,0,0,0,4079,4071,4066,4074
1494526700937595524,1014,1494526700700426255,,34144,0,0,0,9428,1021,0,0,0,0,154,1606,1905,1646,0,0,0,0,4075,4084,4070,4063
1494526700937608120,1015,1494526700720709649,,34164,0,0,0,9428,1021,0,0,0,0,154,1553,1905,1646,0,0,0,0,4071,4079,4081,4074
1494526700937623973,1016,1494526700740210549,,34184,0,0,0,9428,1021,0,0,0,0,154,1553,1905,1646,0,0,0,0,4069,4075,4078,4089
1494526700937630292,1017,1494526700759789157,,34204,0,0,0,9428,1021,0,0,0,0,154,1553,1904,1646,0,0,0,0,4070,4071,4073,4081
1494526700937637346,1018,1494526700779762429,,34224,0,0,0,9428,1021,0,0,0,0,154,1553,1904,1646,0,0,0,0,4068,4071,4075,4078
1494526700937654221,1019,1494526700800797151,,34244,0,0,0,9428,1021,0,0,0,0,154,1551,1903,1646,0,0,0,0,4079,4072,4063,4071
1494526700937952547,1020,1494526700820020053,,34264,0,0,0,9428,1021,0,0,0,0,154,1566,1903,1673,0,0,0,0,4071,4079,4074,4066
1494526700937958267,1021,1494526700839733951,,34284,0,0,0,9428,1021,0,0,0,0,154,1566,1903,1673,0,0,0,0,4070,4076,4079,4089
1494526700937963884,1022,1494526700859782764,,34304,0,0,0,9428,1021,0,0,0,0,154,1553,1903,1670,0,0,0,0,4067,4075,4080,4082
1494526700937970652,1023,1494526700879666661,,34324,0,0,0,9428,1021,0,0,0,0,154,1552,1904,1647,0,0,0,0,4075,4070,4068,4077
1494526700938000690,1024,1494526700899742932,,34344,0,0,0,9428,1021,0,0,0,0,154,1552,1904,1668,0,0,0,0,4076,4078,4068,4070
1494526700938007317,1025,1494526700919642412,,34364,0,0,0,9428,1021,0,0,0,0,154,1560,1904,1668,0,0,0,0,4079,4085,4075,4068
1494526700938014087,1026,1494526700939656683,,34384,0,0,0,9428,1021,0,0,0,0,154,1560,1909,1668,0,0,0,0,4072,4074,4082,4078
1494526700938264391,1027,1494526700960158284,,34404,0,0,0,9428,1021,0,0,0,0,154,1560,1909,1646,0,0,0,0,4073,4074,4075,4083
1494526700938271176,1028,1494526700980803009,,34424,0,0,0,9428,1021,0,0,0,0,154,1550,1906,1672,0,0,0,0,4069,4076,4073,4073
1494526700938301103,1029,1494526701000951405,,34444,0,0,0,9428,1021,0,0,0,0,154,1556,1912,1672,0,0,0,0,4076,4076,4066,4075
1494526700938307166,1030,1494526701020612220,,34464,0,0,0,9428,1021,0,0,0,0,154,1556,1912,1669,0,0,0,0,4075,4079,4071,4072
1494526700938515185,1031,1494526701040683741,,34484,0,0,0,9428,1021,0,0,0,0,154,1553,1912,1668,0,0,0,0,4072,4084,4082,4074
1494526700938523303,1032,1494526701061205925,,34504,0,0,0,9428,1021,0,0,0,0,154,1553,1904,1649,0,0,0,0,4072,4073,4075,4083
1494526700938530570,1033,1494526701079740957,,34524,0,0,0,9428,1021,0,0,0,0,154,1553,1904,1648,0,0,0,0,4072,4074,4069,4079
1494526700938550070,1034,1494526701100661388,,34544,0,0,0,9428,1021,0,0,0,0,154,1604,1903,1648,0,0,0,0,4080,4071,4063,4073
1494526700938558141,1035,1494526701119714792,,34564,0,0,0,9428,1021,0,0,0,0,154,1604,1903,1667,0,0,0,0,4073,4080,4074,4070
1494526700938569831,1036,1494526701140128893,,34584,0,0,0,9428,1021,0,0,0,0,154,1604,1903,1667,0,0,0,0,4070,4078,4083,4074
1494526700938710416,1037,1494526701159645293,,34604,0,0,0,9428,1021,0,0,0,0,154,1554,1906,1666,0,0,0,0,4068,4076,4080,4082
1494526700938716860,1038,1494526701180602391,,34624,0,0,0,9428,1021,0,0,0,0,154,1554,1906,1667,0,0,0,0,4067,4071,4070,4078
1494526700938906230,1039,1494526701200583787,,34644,0,0,0,9428,1021,0,0,0,0,154,1554,1906,1667,0,0,0,0,4073,4073,4065,4077
1494526700938914016,1040,1494526701220568725,,34664,0,0,0,9428,1021,0,0,0,0,154,1552,1903,1666,0,0,0,0,4077,4077,4068,4066
1494526700939009506,1041,1494526701240617330,,34684,0,0,0,9428,1021,0,0,0,0,154,1555,1905,1646,0,0,0,0,4076,4078,4079,4066
1494526700939017565,1042,1494526701263344415,,34704,0,0,0,9428,1021,0,0,0,0,154,1555,1906,1646,0,0,0,0,4075,4075,4078,4087
1494526700939040794,1043,1494526701281289742,,34724,0,0,0,9428,1021,0,0,0,0,154,1553,1906,1646,0,0,0,0,4067,4078,4080,4086
1494526700939115614,1044,1494526701300668352,,34744,0,0,0,9428,1021,0,0,0,0,154,1553,1906,1672,0,0,0,0,4069,4076,4071,4081
1494526700939136936,1045,1494526701320520541,,34764,0,0,0,9428,1021,0,0,0,0,154,1553,1905,1672,0,0,0,0,4075,4070,4067,4078
1494526700939196741,1046,1494526701340531354,,34784,0,0,0,9428,1021,0,0,0,0,154,1553,1909,1668,0,0,0,0,4076,4082,4065,4071
1494526700939211906,1047,1494526701360670457,,34804,0,0,0,9428,1021,0,0,0,0,154,1555,1909,1668,0,0,0,0,4077,4084,4068,4063
1494526700939218384,1048,1494526701381052809,,34824,0,0,0,9428,1021,0,0,0,0,154,1555,1909,1668,0,0,0,0,4077,4081,4075,4075
1494526700939264946,1049,1494526701402806609,,34844,0,0,0,9428,1021,0,0,0,0,154,1555,1906,1647,0,0,0,0,4068,4075,4076,4087
1494526700939317160,1050,1494526701420588397,,34864,0,0,0,9428,1021,0,0,0,0,154,1553,1904,1648,0,0,0,0,4073,4069,4071,4078
1494526700950147967,1051,1494526701440782708,,34884,0,0,0,9428,1021,0,0,0,0,154,1550,1904,1648,0,0,0,0,4080,4071,4066,4073
1494526700973300338,1052,1494526701460733272,,34904,0,0,0,9428,1021,0,0,0,0,154,1550,1904,1648,0,0,0,0,4073,4081,4069,4068
1494526700989570728,1053,1494526701480628294,,34924,0,0,0,9428,1021,0,0,0,0,154,1550,1904,1667,0,0,0,0,4071,4078,4083,4076
1494526701011932841,1054,1494526701502132263,,34944,0,0,0,9428,1021,0,0,0,0,154,1550,1904,1667,0,0,0,0,4067,4077,4081,4082
1494526701030452765,1055,1494526701520640961,,34964,0,0,0,9428,1021,0,0,0,0,154,1555,1904,1667,0,0,0,0,4074,4077,4079,4084
1494526701050967556,1056,1494526701541574851,,34984,0,0,0,9428,1021,0,0,0,0,154,1555,1906,1651,0,0,0,0,4075,4069,4066,4074
1494526701070546002,1057,1494526701561515456,,35004,0,0,0,9428,1021,0,0,0,0,154,1555,1906,1651,0,0,0,0,4072,4081,4063,4070
1494526701092307746,1058,1494526701580477860,,35024,0,0,0,9428,1021,0,0,0,0,154,1554,1906,1669,0,0,0,0,4074,4082,4076,4063
1494526701110067583,1059,1494526701600588797,,35044,0,0,0,9428,1021,0,0,0,0,154,1567,1904,1669,0,0,0,0,4071,4075,4079,4091
1494526701136307690,1060,1494526701622284223,,35064,0,0,0,9428,1021,0,0,0,0,154,1567,1904,1669,0,0,0,0,4072,4073,4076,4082
1494526701369881288,1061,1494526701640499882,,35084,0,0,0,9428,1021,0,0,0,0,154,1567,1904,1666,0,0,0,0,4066,4067,4067,4075
1494526701369897785,1062,1494526701660651611,,35104,0,0,0,9428,1021,0,0,0,0,154,1559,1903,1666,0,0,0,0,4074,4075,4070,4073
1494526701369905423,1063,1494526701680709465,,35124,0,0,0,9428,1021,0,0,0,0,154,1555,1903,1645,0,0,0,0,4076,4078,4071,4064
1494526701369911690,1064,1494526701700455780,,35144,0,0,0,9428,1021,0,0,0,0,154,1558,1903,1645,0,0,0,0,4071,4076,4079,4077
1494526701369920999,1065,1494526701722645285,,35164,0,0,0,9428,1021,0,0,0,0,154,1558,1903,1666,0,0,0,0,4076,4079,4073,4085
1494526701369940440,1066,1494526701743705757,,35184,0,0,0,9428,1021,0,0,0,0,154,1558,1903,1671,0,0,0,0,4064,4077,4077,4077
1494526701369947972,1067,1494526701761557336,,35204,0,0,0,9428,1021,0,0,0,0,154,1558,1906,1672,0,0,0,0,4065,4066,4069,4078
1494526701369953760,1068,1494526701780567156,,35224,0,0,0,9428,1021,0,0,0,0,154,1558,1906,1672,0,0,0,0,4075,4073,4062,4071
1494526701369989569,1069,1494526701800476761,,35244,0,0,0,9428,1021,0,0,0,0,154,1558,1906,1672,0,0,0,0,4078,4083,4065,4065
1494526701370018342,1070,1494526701820753197,,35264,0,0,0,9428,1021,0,0,0,0,154,1555,1903,1666,0,0,0,0,4077,4084,4085,4077
1494526701370255629,1071,1494526701840763469,,35284,0,0,0,9428,1021,0,0,0,0,154,1555,1904,1666,0,0,0,0,4075,4075,4077,4085
1494526701373073285,1072,1494526701860645949,,35304,0,0,0,9428,1021,0,0,0,0,154,1555,1904,1666,0,0,0,0,4069,4080,4076,4080
1494526701392010092,1073,1494526701880726720,,35324,0,0,0,9428,1021,0,0,0,0,154,1552,1903,1646,0,0,0,0,4069,4072,4076,4079
1494526701410333003,1074,1494526701900622659,,35344,0,0,0,9428,1021,0,0,0,0,154,1554,1903,1646,0,0,0,0,4075,4076,4070,4071
1494526701429908211,1075,1494526701920457431,,35364,0,0,0,9428,1021,0,0,0,0,154,1554,1909,1646,0,0,0,0,4074,4079,4069,4063
1494526701452045785,1076,1494526701941928942,,35384,0,0,0,9428,1021,0,0,0,0,154,1554,1909,1668,0,0,0,0,4077,4075,4076,4089
1494526701473346654,1077,1494526701962261127,,35404,0,0,0,9428,1021,0,0,0,0,154,1554,1913,1668,0,0,0,0,4066,4072,4073,4081
1494526701491855580,1078,1494526701981456030,,35424,0,0,0,9428,1021,0,0,0,0,154,1554,1913,1668,0,0,0,0,4067,4070,4067,4079
1494526701511141995,1079,1494526702001396051,,35444,0,0,0,9428,1021,0,0,0,0,154,1554,1908,1660,0,0,0,0,4077,4082,4064,4070
1494526701530970513,1080,1494526702021416447,,35464,0,0,0,9428,1021,0,0,0,0,154,1554,1906,1649,0,0,0,0,4072,4078,4079,4071
1494526701550057126,1081,1494526702040453184,,35484,0,0,0,9428,1021,0,0,0,0,154,1554,1903,1668,0,0,0,0,4071,4081,4075,4085
1494526701576348261,1082,1494526702060423456,,35504,0,0,0,9428,1021,0,0,0,0,154,1554,1906,1668,0,0,0,0,4072,4071,4073,4082
1494526701592462806,1083,1494526702080536810,,35524,0,0,0,9428,1021,0,0,0,0,154,1552,1906,1665,0,0,0,0,4068,4070,4074,4076
1494526701609636328,1084,1494526702100498873,,35544,0,0,0,9428,1021,0,0,0,0,154,1553,1905,1667,0,0,0,0,4073,4074,4069,4071
1494526701631513948,1085,1494526702121392179,,35564,0,0,0,9428,1021,0,0,0,0,154,1553,1903,1667,0,0,0,0,4080,4083,4073,4064
1494526701651375288,1086,1494526702141337368,,35584,0,0,0,9428,1021,0,0,0,0,154,1553,1904,1667,0,0,0,0,4071,4080,4081,4084
1494526701679210362,1087,1494526702165322527,,35604,0,0,0,9428,1021,0,0,0,0,154,1553,1904,1668,0,0,0,0,4065,4074,4074,4083
1494526701690544384,1088,1494526702181470159,,35624,0,0,0,9428,1021,0,0,0,0,154,1553,1916,1668,0,0,0,0,4072,4075,4069,4077
1494526701711997355,1089,1494526702201506222,,35644,0,0,0,9428,1021,0,0,0,0,154,1557,1916,1668,0,0,0,0,4081,4072,4064,4070
1494526701732465091,1090,1494526702221673659,,35664,0,0,0,9428,1021,0,0,0,0,154,1557,1905,1668,0,0,0,0,4074,4083,4069,4064
1494526701751519804,1091,1494526702241574223,,35684,0,0,0,9428,1021,0,0,0,0,154,1559,1903,1667,0,0,0,0,4071,4079,4080,4086
1494526701771077985,1092,1494526702261462245,,35704,0,0,0,9428,1021,0,0,0,0,154,1559,1905,1650,0,0,0,0,4070,4080,4079,4087
1494526701791870280,1093,1494526702282147428,,35724,0,0,0,9428,1021,0,0,0,0,154,1553,1906,1650,0,0,0,0,4065,4075,4078,4083
1494526701810989820,1094,1494526702301453079,,35744,0,0,0,9428,1021,0,0,0,0,154,1553,1906,1645,0,0,0,0,4067,4069,4073,4083
1494526701831916132,1095,1494526702322278178,,35764,0,0,0,9428,1021,0,0,0,0,154,1562,1905,1647,0,0,0,0,4076,4079,4068,4070
1494526701850209285,1096,1494526702341266290,,35784,0,0,0,9428,1021,0,0,0,0,154,1562,1905,1647,0,0,0,0,4078,4079,4070,4064
1494526701871073022,1097,1494526702361334436,,35804,0,0,0,9428,1021,0,0,0,0,154,1550,1903,1647,0,0,0,0,4073,4078,4081,4077
1494526701894335778,1098,1494526702382878279,,35824,0,0,0,9428,1021,0,0,0,0,154,1555,1905,1646,0,0,0,0,4071,4080,4075,4084
1494526701911771773,1099,1494526702402276221,,35844,0,0,0,9428,1021,0,0,0,0,154,1555,1905,1656,0,0,0,0,4065,4073,4078,4081
1494526701931207718,1100,1494526702421262292,,35864,0,0,0,9428,1021,0,0,0,0,154,1556,1905,1656,0,0,0,0,4070,4070,4074,4077
1494526701950365196,1101,1494526702441361812,,35884,0,0,0,9428,1021,0,0,0,0,154,1556,1903,1649,0,0,0,0,4073,4089,4068,4070
1494526701970854431,1102,1494526702461253460,,35904,0,0,0,9428,1021,0,0,0,0,154,1558,1904,1645,0,0,0,0,4074,4078,4078,4069
1494526701991761177,1103,1494526702481727061,,35924,0,0,0,9428,1021,0,0,0,0,154,1558,1904,1653,0,0,0,0,4070,4075,4076,4087
1494526702028355933,1104,1494526702503651651,,35944,0,0,0,9428,1021,0,0,0,0,154,1558,1903,1669,0,0,0,0,4065,4071,4071,4082
1494526702047766991,1105,1494526702522125101,,35964,0,0,0,9428,1021,0,0,0,0,154,1553,1904,1669,0,0,0,0,4077,4070,4071,4075
1494526702051289721,1106,1494526702541444627,,35984,0,0,0,9428,1021,0,0,0,0,154,1552,1904,1665,0,0,0,0,4073,4081,4066,4072
1494526702071728808,1107,1494526702561404482,,36004,0,0,0,9428,1021,0,0,0,0,154,1558,1904,1670,0,0,0,0,4071,4079,4079,4070
1494526702091175226,1108,1494526702581453044,,36024,0,0,0,9428,1021,0,0,0,0,154,1560,1910,1670,0,0,0,0,4069,4077,4077,4087
1494526702112012885,1109,1494526702602734348,,36044,0,0,0,9428,1021,0,0,0,0,154,1560,1910,1669,0,0,0,0,4069,4074,4077,4086
1494526702132965961,1110,1494526702622125666,,36064,0,0,0,9428,1021,0,0,0,0,154,1553,1906,1664,0,0,0,0,4066,4070,4067,4078
1494526702150669027,1111,1494526702641396776,,36084,0,0,0,9428,1021,0,0,0,0,154,1553,1905,1648,0,0,0,0,4074,4084,4064,4071
1494526702171105725,1112,1494526702661359047,,36104,0,0,0,9428,1021,0,0,0,0,154,1553,1905,1648,0,0,0,0,4076,4083,4077,4072
1494526702190734348,1113,1494526702681328444,,36124,0,0,0,9428,1021,0,0,0,0,154,1553,1903,1648,0,0,0,0,4067,4076,4075,4086
1494526702211911268,1114,1494526702702230875,,36144,0,0,0,9428,1021,0,0,0,0,154,1553,1903,1670,0,0,0,0,4067,4072,4076,4079
1494526702235130290,1115,1494526702722508269,,36164,0,0,0,9428,1021,0,0,0,0,154,1552,1904,1674,0,0,0,0,4078,4078,4062,4074
1494526702256242108,1116,1494526702742398333,,36184,0,0,0,9428,1021,0,0,0,0,154,1550,1904,1674,0,0,0,0,4074,4078,4081,4065
1494526702271553029,1117,1494526702762401146,,36204,0,0,0,9428,1021,0,0,0,0,154,1552,1904,1648,0,0,0,0,4070,4077,4081,4083
1494526702296287065,1118,1494526702782188711,,36224,0,0,0,9428,1021,0,0,0,0,154,1553,1904,1653,0,0,0,0,4064,4071,4075,4087
1494526702312402702,1119,1494526702801203239,,36244,0,0,0,9428,1021,0,0,0,0,154,1553,1905,1653,0,0,0,0,4064,4067,4067,4075
1494526702333883715,1120,1494526702821469842,,36264,0,0,0,9428,1021,0,0,0,0,154,1553,1905,1646,0,0,0,0,4075,4081,4066,4070
1494526702352000253,1121,1494526702841216990,,36284,0,0,0,9428,1021,0,0,0,0,154,1555,1904,1645,0,0,0,0,4075,4077,4078,4073
1494526702376128508,1122,1494526702863159247,,36304,0,0,0,9428,1021,0,0,0,0,154,1555,1907,1645,0,0,0,0,4067,4076,4075,4086
1494526702808047704,1123,1494526702882149443,,36324,0,0,0,9428,1021,0,0,0,0,154,1553,1907,1664,0,0,0,0,4066,4070,4070,4079
1494526702808062509,1124,1494526702902282338,,36344,0,0,0,9428,1021,0,0,0,0,154,1552,1903,1664,0,0,0,0,4079,4071,4065,4073
1494526702808068607,1125,1494526702922120986,,36364,0,0,0,9428,1021,0,0,0,0,154,1555,1904,1664,0,0,0,0,4072,4079,4069,4061
1494526702808101344,1126,1494526702942256506,,36384,0,0,0,9428,1021,0,0,0,0,154,1555,1907,1651,0,0,0,0,4070,4076,4076,4085
1494526702808128545,1127,1494526702962573275,,36404,0,0,0,9428,1021,0,0,0,0,154,1553,1907,1650,0,0,0,0,4069,4080,4074,4080
1494526702808135039,1128,1494526702981325014,,36424,0,0,0,9428,1021,0,0,0,0,154,1553,1907,1646,0,0,0,0,4070,4072,4073,4081
1494526702808140621,1129,1494526703001394076,,36444,0,0,0,9428,1021,0,0,0,0,154,1553,1907,1646,0,0,0,0,4070,4077,4062,4069
1494526702808198782,1130,1494526703021187016,,36464,0,0,0,9428,1021,0,0,0,0,154,1553,1908,1646,0,0,0,0,4071,4081,4085,4072
1494526702808204830,1131,1494526703041149412,,36484,0,0,0,9428,1021,0,0,0,0,154,1553,1908,1646,0,0,0,0,4070,4076,4075,4085
1494526702808210056,1132,1494526703062357008,,36504,0,0,0,9428,1021,0,0,0,0,154,1553,1905,1646,0,0,0,0,4066,4072,4075,4084
1494526702808215967,1133,1494526703082447279,,36524,0,0,0,9428,1021,0,0,0,0,154,1553,1905,1645,0,0,0,0,4080,4069,4066,4073
1494526702813125299,1134,1494526703102345593,,36544,0,0,0,9428,1021,0,0,0,0,154,1556,1904,1646,0,0,0,0,4075,4079,4069,4071
1494526702813142823,1135,1494526703122291989,,36564,0,0,0,9428,1021,0,0,0,0,154,1558,1904,1668,0,0,0,0,4073,4078,4083,4073
1494526702813156160,1136,1494526703142299136,,36584,0,0,0,9428,1021,0,0,0,0,154,1558,1903,1668,0,0,0,0,4069,4079,4083,4084
1494526702813207490,1137,1494526703162166950,,36604,0,0,0,9428,1021,0,0,0,0,154,1552,1902,1668,0,0,0,0,4064,4073,4073,4084
1494526702813217208,1138,1494526703182264637,,36624,0,0,0,9428,1021,0,0,0,0,154,1559,1903,1646,0,0,0,0,4072,4068,4070,4077
1494526702813226515,1139,1494526703202345658,,36644,0,0,0,9428,1021,0,0,0,0,154,1559,1909,1669,0,0,0,0,4074,4073,4063,4071
1494526702813234636,1140,1494526703222605969,,36664,0,0,0,9428,1021,0,0,0,0,154,1552,1909,1669,0,0,0,0,4076,4085,4069,4062
1494526702813242688,1141,1494526703242919113,,36684,0,0,0,9428,1021,0,0,0,0,154,1552,1909,1647,0,0,0,0,4073,4082,4076,4076
1494526702813249160,1142,1494526703263663795,,36704,0,0,0,9428,1021,0,0,0,0,154,1552,1902,1647,0,0,0,0,4073,4074,4077,4084
1494526702813310865,1143,1494526703283021321,,36724,0,0,0,9428,1021,0,0,0,0,154,1557,1903,1646,0,0,0,0,4073,4070,4072,4076
1494526702825949326,1144,1494526703304483249,,36744,0,0,0,9428,1021,0,0,0,0,154,1557,1905,1646,0,0,0,0,4073,4072,4063,4073
1494526702832346646,1145,1494526703322211578,,36764,0,0,0,9428,1021,0,0,0,0,154,1555,1905,1645,0,0,0,0,4073,4082,4068,4067
1494526702852732279,1146,1494526703342121267,,36784,0,0,0,9428,1021,0,0,0,0,154,1551,1903,1645,0,0,0,0,4072,4081,4076,4083
1494526702872887306,1147,1494526703362349620,,36804,0,0,0,9428,1021,0,0,0,0,154,1554,1905,1672,0,0,0,0,4071,4078,4075,4083
1494526702893385692,1148,1494526703382050310,,36824,0,0,0,9428,1021,0,0,0,0,154,1554,1905,1672,0,0,0,0,4073,4070,4071,4078
1494526702921944912,1149,1494526703403481196,,36844,0,0,0,9428,1021,0,0,0,0,154,1555,1904,1648,0,0,0,0,4082,4078,4062,4072
1494526703155598407,1150,1494526703422826139,,36864,0,0,0,9428,1021,0,0,0,0,154,1555,1904,1651,0,0,0,0,4076,4084,4084,4070
1494526703155649535,1151,1494526703444062734,,36884,0,0,0,9428,1021,0,0,0,0,154,1554,1903,1651,0,0,0,0,4074,4076,4078,4089
1494526703155672654,1152,1494526703463153137,,36904,0,0,0,9428,1021,0,0,0,0,154,1555,1903,1646,0,0,0,0,4074,4078,4071,4078
1494526703155696925,1153,1494526703483030368,,36924,0,0,0,9428,1021,0,0,0,0,154,1555,1902,1647,0,0,0,0,4067,4070,4071,4082
1494526703155712265,1154,1494526703502068396,,36944,0,0,0,9428,1021,0,0,0,0,154,1553,1904,1647,0,0,0,0,4074,4075,4063,4072
1494526703155727586,1155,1494526703522063043,,36964,0,0,0,9428,1021,0,0,0,0,154,1553,1904,1646,0,0,0,0,4074,4085,4075,4062
1494526703155741708,1156,1494526703542106397,,36984,0,0,0,9428,1021,0,0,0,0,154,1553,1904,1646,0,0,0,0,4076,4080,4076,4076
1494526703155754608,1157,1494526703562122293,,37004,0,0,0,9428,1021,0,0,0,0,154,1554,1905,1650,0,0,0,0,4068,4076,4076,4086
1494526703155771733,1158,1494526703582936684,,37024,0,0,0,9428,1021,0,0,0,0,154,1554,1905,1663,0,0,0,0,4064,4072,4077,4080
1494526703155786707,1159,1494526703602508083,,37044,0,0,0,9428,1021,0,0,0,0,154,1554,1905,1663,0,0,0,0,4076,4070,4065,4072
1494526703155841198,1160,1494526703622998101,,37064,0,0,0,9428,1021,0,0,0,0,154,1552,1909,1663,0,0,0,0,4080,4078,4067,4069
1494526703389308546,1161,1494526703643296162,,37084,0,0,0,9428,1021,0,0,0,0,154,1551,1909,1649,0,0,0,0,4072,4078,4078,4070
1494526703389324148,1162,1494526703663199017,,37104,0,0,0,9428,1021,0,0,0,0,154,1551,1903,1649,0,0,0,0,4069,4075,4075,4082
1494526703389570200,1163,1494526703682480377,,37124,0,0,0,9428,1021,0,0,0,0,154,1552,1901,1649,0,0,0,0,4072,4074,4069,4076
1494526703389581506,1164,1494526703703376433,,37144,0,0,0,9428,1021,0,0,0,0,154,1552,1901,1647,0,0,0,0,4083,4069,4069,4081
1494526703389590339,1165,1494526703723719660,,37164,0,0,0,9428,1021,0,0,0,0,154,1552,1905,1647,0,0,0,0,4074,4083,4071,4069
1494526703389596271,1166,1494526703742342525,,37184,0,0,0,9428,1021,0,0,0,0,154,1553,1905,1667,0,0,0,0,4073,4078,4076,4068
1494526703389602782,1167,1494526703762280172,,37204,0,0,0,9428,1021,0,0,0,0,154,1553,1906,1667,0,0,0,0,4070,4075,4077,4087
1494526703389607591,1168,1494526703781948779,,37224,0,0,0,9428,1021,0,0,0,0,154,1560,1906,1664,0,0,0,0,4068,4075,4071,4081
1494526703389629926,1169,1494526703802052633,,37244,0,0,0,9428,1021,0,0,0,0,154,1560,1903,1648,0,0,0,0,4079,4071,4066,4073
1494526703389637036,1170,1494526703822954523,,37264,0,0,0,9428,1021,0,0,0,0,154,1552,1906,1648,0,0,0,0,4075,4080,4066,4066
1494526703389643699,1171,1494526703843418499,,37284,0,0,0,9428,1021,0,0,0,0,154,1552,1906,1669,0,0,0,0,4077,4081,4075,4073
1494526703391519486,1172,1494526703863348896,,37304,0,0,0,9428,1021,0,0,0,0,154,1561,1905,1669,0,0,0,0,4069,4075,4079,4090
1494526703394146041,1173,1494526703883538916,,37324,0,0,0,9428,1021,0,0,0,0,154,1561,1904,1668,0,0,0,0,4073,4074,4075,4082
1494526703416995413,1174,1494526703903348772,,37344,0,0,0,9428,1021,0,0,0,0,154,1561,1904,1648,0,0,0,0,4075,4075,4063,4072
1494526703857498820,1175,1494526703922295217,,37364,0,0,0,9428,1021,0,0,0,0,154,1556,1904,1652,0,0,0,0,4078,4083,4073,4068
1494526703857517178,1176,1494526703941899492,,37384,0,0,0,9428,1021,0,0,0,0,154,1554,1907,1652,0,0,0,0,4075,4075,4077,4087
1494526703857697095,1177,1494526703962326760,,37404,0,0,0,9428,1021,0,0,0,0,154,1599,1907,1646,0,0,0,0,4066,4076,4079,4079
1494526703857702832,1178,1494526703981917701,,37424,0,0,0,9428,1021,0,0,0,0,154,1599,1907,1649,0,0,0,0,4072,4067,4069,4077
1494526703857708241,1179,1494526704003063297,,37444,0,0,0,9428,1021,0,0,0,0,154,1555,1904,1649,0,0,0,0,4071,4073,4063,4074
1494526703857713155,1180,1494526704022985152,,37464,0,0,0,9428,1021,0,0,0,0,154,1555,1908,1649,0,0,0,0,4071,4079,4073,4070
1494526703857719188,1181,1494526704043139589,,37484,0,0,0,9428,1021,0,0,0,0,154,1554,1908,1669,0,0,0,0,4072,4083,4081,4071
1494526703857724891,1182,1494526704063686190,,37504,0,0,0,9428,1021,0,0,0,0,154,1554,1907,1669,0,0,0,0,4068,4078,4081,4082
1494526703857729020,1183,1494526704082943133,,37524,0,0,0,9428,1021,0,0,0,0,154,1553,1905,1667,0,0,0,0,4072,4071,4071,4080
1494526703857739591,1184,1494526704102949571,,37544,0,0,0,9428,1021,0,0,0,0,154,1554,1903,1668,0,0,0,0,4077,4071,4067,4077
1494526703857753849,1185,1494526704123034884,,37564,0,0,0,9428,1021,0,0,0,0,154,1554,1903,1670,0,0,0,0,4079,4084,4068,4070
1494526703862699986,1186,1494526704143012322,,37584,0,0,0,9428,1021,0,0,0,0,154,1556,1903,1673,0,0,0,0,4071,4079,4077,4065
1494526703862720210,1187,1494526704162903594,,37604,0,0,0,9428,1021,0,0,0,0,154,1556,1903,1673,0,0,0,0,4067,4076,4078,4088
1494526703862731848,1188,1494526704182814991,,37624,0,0,0,9428,1021,0,0,0,0,154,1557,1903,1667,0,0,0,0,4067,4073,4076,4080
1494526703862739450,1189,1494526704203820880,,37644,0,0,0,9428,1021,0,0,0,0,154,1557,1903,1646,0,0,0,0,4075,4073,4066,4074
1494526703862746988,1190,1494526704222828492,,37664,0,0,0,9428,1021,0,0,0,0,154,1553,1906,1664,0,0,0,0,4075,4081,4072,4067
1494526703862757805,1191,1494526704242761055,,37684,0,0,0,9428,1021,0,0,0,0,154,1553,1908,1667,0,0,0,0,4078,4082,4076,4074
1494526703862764002,1192,1494526704263275156,,37704,0,0,0,9428,1021,0,0,0,0,154,1553,1908,1667,0,0,0,0,4072,4074,4075,4082
1494526703862768529,1193,1494526704283228386,,37724,0,0,0,9428,1021,0,0,0,0,154,1553,1906,1647,0,0,0,0,4068,4073,4077,4083
1494526703862774006,1194,1494526704303137533,,37744,0,0,0,9428,1021,0,0,0,0,154,1553,1904,1668,0,0,0,0,4075,4070,4067,4080
1494526703862792165,1195,1494526704322909473,,37764,0,0,0,9428,1021,0,0,0,0,154,1553,1904,1668,0,0,0,0,4080,4083,4063,4067
1494526703862798095,1196,1494526704342867661,,37784,0,0,0,9428,1021,0,0,0,0,154,1553,1904,1670,0,0,0,0,4071,4082,4082,4070
1494526703872037187,1197,1494526704362895057,,37804,0,0,0,9428,1021,0,0,0,0,154,1557,1904,1670,0,0,0,0,4069,4075,4079,4089
1494526703898343957,1198,1494526704382930537,,37824,0,0,0,9428,1021,0,0,0,0,154,1557,1904,1651,0,0,0,0,4066,4076,4076,4075
1494526703913616443,1199,1494526704403926593,,37844,0,0,0,9428,1021,0,0,0,0,154,1553,1938,1648,0,0,0,0,4069,4076,4074,4075
1494526704138014243,1200,1494526704423004954,,37864,0,0,0,9428,1021,0,0,0,0,154,1553,1938,1665,0,0,0,0,4073,4086,4063,4070
1494526704138035359,1201,1494526704442915934,,37884,0,0,0,9428,1021,0,0,0,0,154,1554,1904,1669,0,0,0,0,4072,4078,4077,4066
1494526704138044405,1202,1494526704462879956,,37904,0,0,0,9428,1021,0,0,0,0,154,1559,1907,1669,0,0,0,0,4073,4082,4076,4086
1494526704138055661,1203,1494526704482966768,,37924,0,0,0,9428,1021,0,0,0,0,154,1559,1907,1647,0,0,0,0,4066,4072,4073,4085
1494526704138065907,1204,1494526704503233829,,37944,0,0,0,9428,1021,0,0,0,0,154,1559,1905,1646,0,0,0,0,4080,4070,4066,4074
1494526704138074186,1205,1494526704523312183,,37964,0,0,0,9428,1021,0,0,0,0,154,1555,1904,1646,0,0,0,0,4075,4080,4073,4070
1494526704138082315,1206,1494526704543210830,,37984,0,0,0,9428,1021,0,0,0,0,154,1554,1904,1670,0,0,0,0,4075,4076,4078,4074
1494526704138091687,1207,1494526704563591141,,38004,0,0,0,9428,1021,0,0,0,0,154,1573,1905,1670,0,0,0,0,4071,4080,4074,4085
1494526704138150743,1208,1494526704584189783,,38024,0,0,0,9428,1021,0,0,0,0,154,1573,1905,1671,0,0,0,0,4073,4069,4071,4079
1494526704138200180,1209,1494526704602972438,,38044,0,0,0,9428,1021,0,0,0,0,154,1557,1905,1676,0,0,0,0,4077,4071,4067,4077
1494526704140070823,1210,1494526704623867161,,38064,0,0,0,9428,1021,0,0,0,0,154,1557,1905,1676,0,0,0,0,4077,4085,4067,4068
1494526704153851780,1211,1494526704643698892,,38084,0,0,0,9428,1021,0,0,0,0,154,1562,1903,1669,0,0,0,0,4072,4077,4081,4078
1494526704173422456,1212,1494526704663815996,,38104,0,0,0,9428,1021,0,0,0,0,154,1562,1909,1670,0,0,0,0,4072,4081,4079,4081
1494526704192092508,1213,1494526704682693025,,38124,0,0,0,9428,1021,0,0,0,0,154,1562,1909,1670,0,0,0,0,4065,4074,4078,4083
1494526704218500652,1214,1494526704705431485,,38144,0,0,0,9428,1021,0,0,0,0,154,1557,1905,1665,0,0,0,0,4074,4070,4071,4080
1494526704237576078,1215,1494526704722768567,,38164,0,0,0,9428,1021,0,0,0,0,154,1551,1904,1647,0,0,0,0,4072,4081,4068,4068
1494526704253136762,1216,1494526704742800463,,38184,0,0,0,9428,1021,0,0,0,0,154,1554,1904,1646,0,0,0,0,4073,4078,4081,4078
1494526704274126002,1217,1494526704763524646,,38204,0,0,0,9428,1021,0,0,0,0,154,1554,1905,1647,0,0,0,0,4069,4076,4080,4085
1494526704294326662,1218,1494526704784350328,,38224,0,0,0,9428,1021,0,0,0,0,154,1553,1905,1647,0,0,0,0,4069,4076,4072,4077
1494526704314783702,1219,1494526704803927144,,38244,0,0,0,9428,1021,0,0,0,0,154,1553,1904,1651,0,0,0,0,4078,4070,4066,4078
1494526704339336307,1220,1494526704823783625,,38264,0,0,0,9428,1021,0,0,0,0,154,1553,1911,1670,0,0,0,0,4080,4085,4065,4069
1494526704353297596,1221,1494526704843933645,,38284,0,0,0,9428,1021,0,0,0,0,154,1554,1911,1670,0,0,0,0,4072,4076,4077,4070
1494526704373970507,1222,1494526704863713210,,38304,0,0,0,9428,1021,0,0,0,0,154,1554,1905,1668,0,0,0,0,4074,4076,4076,4085
1494526704392467007,1223,1494526704882734488,,38324,0,0,0,9428,1021,0,0,0,0,154,1554,1906,1648,0,0,0,0,4066,4079,4079,4079
1494526704414161675,1224,1494526704903738544,,38344,0,0,0,9428,1021,0,0,0,0,154,1553,1906,1648,0,0,0,0,4073,4067,4074,4081
1494526704433947003,1225,1494526704923869148,,38364,0,0,0,9428,1021,0,0,0,0,154,1566,1903,1649,0,0,0,0,4082,4086,4071,4074
1494526704455100452,1226,1494526704944192917,,38384,0,0,0,9428,1021,0,0,0,0,154,1566,1903,1649,0,0,0,0,4073,4080,4085,4069
1494526704475734610,1227,1494526704965569970,,38404,0,0,0,9428,1021,0,0,0,0,154,1551,1907,1668,0,0,0,0,4070,4077,4081,4088
1494526704493349642,1228,1494526704983703504,,38424,0,0,0,9428,1021,0,0,0,0,154,1551,1907,1668,0,0,0,0,4066,4075,4079,4079
1494526704512946198,1229,1494526705003703067,,38444,0,0,0,9428,1021,0,0,0,0,154,1571,1904,1666,0,0,0,0,4069,4068,4070,4082
1494526704532924431,1230,1494526705023756130,,38464,0,0,0,9428,1021,0,0,0,0,154,1571,1905,1668,0,0,0,0,4074,4084,4064,4069
1494526704553615859,1231,1494526705043694735,,38484,0,0,0,9428,1021,0,0,0,0,154,1571,1905,1668,0,0,0,0,4072,4077,4079,4077
1494526704584664720,1232,1494526705063757006,,38504,0,0,0,9428,1021,0,0,0,0,154,1553,1908,1668,0,0,0,0,4076,4082,4083,4090
1494526704608140376,1233,1494526705090403646,,38524,0,0,0,9428,1021,0,0,0,0,154,1556,1908,1656,0,0,0,0,4067,4074,4078,4080
1494526704614125318,1234,1494526705103921048,,38544,0,0,0,9428,1021,0,0,0,0,154,1556,1908,1656,0,0,0,0,4075,4071,4063,4071
1494526704636968388,1235,1494526705125554349,,38564,0,0,0,9428,1021,0,0,0,0,154,1554,1903,1647,0,0,0,0,4072,4082,4075,4063
1494526704653990667,1236,1494526705144118505,,38584,0,0,0,9428,1021,0,0,0,0,154,1553,1904,1647,0,0,0,0,4077,4075,4076,4087
1494526704677400007,1237,1494526705165282310,,38604,0,0,0,9428,1021,0,0,0,0,154,1553,1906,1668,0,0,0,0,4070,4078,4073,4083
1494526704697355911,1238,1494526705183754384,,38624,0,0,0,9428,1021,0,0,0,0,154,1552,1906,1668,0,0,0,0,4072,4071,4067,4077
1494526704713369380,1239,1494526705203925321,,38644,0,0,0,9428,1021,0,0,0,0,154,1553,1903,1646,0,0,0,0,4074,4082,4066,4075
1494526704733112562,1240,1494526705223655261,,38664,0,0,0,9428,1021,0,0,0,0,154,1553,1903,1646,0,0,0,0,4069,4079,4074,4073
1494526704753296338,1241,1494526705243946822,,38684,0,0,0,9428,1021,0,0,0,0,154,1553,1902,1645,0,0,0,0,4077,4082,4078,4082
1494526704778374508,1242,1494526705264516381,,38704,0,0,0,9428,1021,0,0,0,0,154,1553,1905,1645,0,0,0,0,4073,4079,4072,4084
1494526704795342839,1243,1494526705284291862,,38724,0,0,0,9428,1021,0,0,0,0,154,1558,1908,1648,0,0,0,0,4065,4073,4074,4082
1494526704813459963,1244,1494526705303577513,,38744,0,0,0,9428,1021,0,0,0,0,154,1558,1908,1650,0,0,0,0,4074,4074,4074,4082
1494526704833542076,1245,1494526705323578368,,38764,0,0,0,9428,1021,0,0,0,0,154,1554,1903,1670,0,0,0,0,4079,4072,4064,4073
1494526704854107431,1246,1494526705344536007,,38784,0,0,0,9428,1021,0,0,0,0,154,1552,1903,1670,0,0,0,0,4074,4082,4074,4069
1494526704873802811,1247,1494526705363746826,,38804,0,0,0,9428,1021,0,0,0,0,154,1552,1905,1670,0,0,0,0,4073,4081,4086,4070
1494526704892717657,1248,1494526705383514057,,38824,0,0,0,9428,1021,0,0,0,0,154,1574,1905,1646,0,0,0,0,4073,4081,4076,4095
1494526704918818726,1249,1494526705405019026,,38844,0,0,0,9428,1021,0,0,0,0,154,1574,1905,1645,0,0,0,0,4067,4077,4081,4083
1494526705758640423,1250,1494526705423597475,,38864,0,0,0,9428,1021,0,0,0,0,154,1553,1904,1647,0,0,0,0,4066,4076,4072,4081
1494526705758661387,1251,1494526705443513746,,38884,0,0,0,9428,1021,0,0,0,0,154,1553,1904,1647,0,0,0,0,4076,4074,4064,4076
1494526705758670213,1252,1494526705463590142,,38904,0,0,0,9428,1021,0,0,0,0,154,1554,1906,1647,0,0,0,0,4076,4074,4063,4072
1494526705758680369,1253,1494526705483525164,,38924,0,0,0,9428,1021,0,0,0,0,154,1556,1907,1647,0,0,0,0,4074,4084,4068,4062
1494526705758688499,1254,1494526705503497769,,38944,0,0,0,9428,1021,0,0,0,0,154,1556,1907,1646,0,0,0,0,4071,4079,4082,4082
1494526705758695043,1255,1494526705526759975,,38964,0,0,0,9428,1021,0,0,0,0,154,1556,1905,1646,0,0,0,0,4069,4080,4077,4079
1494526705758814319,1256,1494526705545293423,,38984,0,0,0,9428,1021,0,0,0,0,154,1552,1905,1673,0,0,0,0,4069,4071,4071,4079
1494526705758968231,1257,1494526705564757282,,39004,0,0,0,9428,1021,0,0,0,0,154,1554,1905,1673,0,0,0,0,4077,4077,4062,4071
1494526705758980999,1258,1494526705584536722,,39024,0,0,0,9428,1021,0,0,0,0,154,1554,1903,1673,0,0,0,0,4072,4081,4072,4064
1494526705758994368,1259,1494526705604527785,,39044,0,0,0,9428,1021,0,0,0,0,154,1553,1905,1647,0,0,0,0,4069,4078,4081,4086
1494526705759001579,1260,1494526705624479098,,39064,0,0,0,9428,1021,0,0,0,0,154,1553,1905,1646,0,0,0,0,4072,4074,4075,4081
1494526705761957867,1261,1494526705643511626,,39084,0,0,0,9428,1021,0,0,0,0,154,1552,1905,1650,0,0,0,0,4068,4069,4072,4082
1494526705761979705,1262,1494526705664005811,,39104,0,0,0,9428,1021,0,0,0,0,154,1552,1902,1650,0,0,0,0,4076,4073,4067,4076
1494526705761988641,1263,1494526705684004582,,39124,0,0,0,9428,1021,0,0,0,0,154,1553,1904,1650,0,0,0,0,4075,4083,4077,4062
1494526705762031907,1264,1494526705704019437,,39144,0,0,0,9428,1021,0,0,0,0,154,1553,1904,1648,0,0,0,0,4070,4079,4083,4087
1494526705762179036,1265,1494526705725345365,,39164,0,0,0,9428,1021,0,0,0,0,154,1553,1903,1646,0,0,0,0,4072,4072,4075,4083
1494526705762194313,1266,1494526705745486719,,39184,0,0,0,9428,1021,0,0,0,0,154,1555,1903,1668,0,0,0,0,4072,4067,4071,4079
1494526705762201851,1267,1494526705765347074,,39204,0,0,0,9428,1021,0,0,0,0,154,1555,1904,1668,0,0,0,0,4079,4076,4063,4072
1494526705762211725,1268,1494526705786121715,,39224,0,0,0,9428,1021,0,0,0,0,154,1554,1904,1653,0,0,0,0,4073,4079,4071,4069
1494526705762220733,1269,1494526705805613740,,39244,0,0,0,9428,1021,0,0,0,0,154,1550,1903,1669,0,0,0,0,4077,4077,4079,4071
1494526705762227390,1270,1494526705825872218,,39264,0,0,0,9428,1021,0,0,0,0,154,1552,1903,1669,0,0,0,0,4070,4077,4081,4088
1494526705762234979,1271,1494526705845619824,,39284,0,0,0,9428,1021,0,0,0,0,154,1552,1903,1668,0,0,0,0,4066,4073,4075,4086
1494526705762243110,1272,1494526705866060093,,39304,0,0,0,9428,1021,0,0,0,0,154,1605,1903,1668,0,0,0,0,4068,4070,4073,4081
1494526705762250493,1273,1494526705884398668,,39324,0,0,0,9428,1021,0,0,0,0,154,1605,1908,1646,0,0,0,0,4073,4075,4063,4072
1494526705762258551,1274,1494526705904654312,,39344,0,0,0,9428,1021,0,0,0,0,154,1554,1908,1644,0,0,0,0,4076,4076,4071,4060
1494526705762265745,1275,1494526705925623701,,39364,0,0,0,9428,1021,0,0,0,0,154,1554,1903,1669,0,0,0,0,4069,4077,4082,4080
1494526705762274252,1276,1494526705948690284,,39384,0,0,0,9428,1021,0,0,0,0,154,1554,1906,1669,0,0,0,0,4067,4077,4081,4085
1494526705762281003,1277,1494526705964761834,,39404,0,0,0,9428,1021,0,0,0,0,154,1554,1906,1663,0,0,0,0,4063,4072,4073,4080
1494526705762318457,1278,1494526705984538982,,39424,0,0,0,9428,1021,0,0,0,0,154,1554,1905,1668,0,0,0,0,4078,4076,4065,4075
1494526705762350911,1279,1494526706004449170,,39444,0,0,0,9428,1021,0,0,0,0,154,1555,1905,1669,0,0,0,0,4078,4084,4074,4071
1494526705762545891,1280,1494526706024395734,,39464,0,0,0,9428,1021,0,0,0,0,154,1555,1905,1669,0,0,0,0,4074,4083,4082,4079
1494526705762561488,1281,1494526706044433796,,39484,0,0,0,9428,1021,0,0,0,0,154,1553,1903,1651,0,0,0,0,4072,4074,4075,4080
1494526705762576218,1282,1494526706064377943,,39504,0,0,0,9428,1021,0,0,0,0,154,1552,1903,1669,0,0,0,0,4074,4075,4067,4079
1494526705762996981,1283,1494526706084380423,,39524,0,0,0,9428,1021,0,0,0,0,154,1552,1906,1669,0,0,0,0,4074,4074,4063,4071
1494526705763018585,1284,1494526706105760476,,39544,0,0,0,9428,1021,0,0,0,0,154,1554,1907,1669,0,0,0,0,4071,4079,4091,4064
1494526705763028601,1285,1494526706124415173,,39564,0,0,0,9428,1021,0,0,0,0,154,1554,1908,1669,0,0,0,0,4075,4078,4075,4085
1494526705763035928,1286,1494526706144432528,,39584,0,0,0,9428,1021,0,0,0,0,154,1554,1908,1668,0,0,0,0,4065,4073,4072,4080
1494526705763044329,1287,1494526706164369341,,39604,0,0,0,9428,1021,0,0,0,0,154,1552,1908,1671,0,0,0,0,4080,4066,4067,4074
1494526705763051876,1288,1494526706184334405,,39624,0,0,0,9428,1021,0,0,0,0,154,1552,1904,1671,0,0,0,0,4077,4087,4064,4071
1494526705763056992,1289,1494526706204773256,,39644,0,0,0,9428,1021,0,0,0,0,154,1555,1904,1671,0,0,0,0,4077,4083,4083,4071
1494526705763064921,1290,1494526706225024151,,39664,0,0,0,9428,1021,0,0,0,0,154,1555,1905,1648,0,0,0,0,4071,4081,4077,4079
1494526705763096175,1291,1494526706244376677,,39684,0,0,0,9428,1021,0,0,0,0,154,1555,1905,1651,0,0,0,0,4065,4073,4077,4075
1494526705774152285,1292,1494526706264472864,,39704,0,0,0,9428,1021,0,0,0,0,154,1552,1904,1651,0,0,0,0,4074,4069,4068,4076
1494526705794221293,1293,1494526706284277470,,39724,0,0,0,9428,1021,0,0,0,0,154,1552,1904,1647,0,0,0,0,4073,4078,4071,4070
1494526706024425129,1294,1494526706305498566,,39744,0,0,0,9428,1021,0,0,0,0,154,1553,1909,1645,0,0,0,0,4074,4082,4075,4072
1494526706024474627,1295,1494526706324295929,,39764,0,0,0,9428,1021,0,0,0,0,154,1553,1909,1646,0,0,0,0,4071,4080,4074,4082
1494526706024480940,1296,1494526706344342575,,39784,0,0,0,9428,1021,0,0,0,0,154,1553,1905,1646,0,0,0,0,4070,4072,4075,4079
1494526706024485625,1297,1494526706364341138,,39804,0,0,0,9428,1021,0,0,0,0,154,1553,1903,1657,0,0,0,0,4079,4079,4063,4073
1494526706024523564,1298,1494526706384341368,,39824,0,0,0,9428,1021,0,0,0,0,154,1557,1904,1671,0,0,0,0,4074,4080,4072,4064
1494526706024530562,1299,1494526706404472888,,39844,0,0,0,9428,1021,0,0,0,0,154,1557,1904,1671,0,0,0,0,4077,4082,4075,4073
1494526706024537104,1300,1494526706425037447,,39864,0,0,0,9428,1021,0,0,0,0,154,1557,1906,1668,0,0,0,0,4070,4080,4077,4086
1494526706024543151,1301,1494526706445094760,,39884,0,0,0,9428,1021,0,0,0,0,154,1551,1906,1668,0,0,0,0,4063,4077,4073,4078
1494526706024548662,1302,1494526706465946650,,39904,0,0,0,9428,1021,0,0,0,0,154,1553,1905,1663,0,0,0,0,4071,4069,4072,4072
1494526706024554035,1303,1494526706485274343,,39924,0,0,0,9428,1021,0,0,0,0,154,1553,1905,1647,0,0,0,0,4078,4087,4067,4072
1494526706024576443,1304,1494526706505469321,,39944,0,0,0,9428,1021,0,0,0,0,154,1554,1907,1648,0,0,0,0,4074,4085,4084,4069
1494526706035054323,1305,1494526706525365510,,39964,0,0,0,9428,1021,0,0,0,0,154,1554,1907,1648,0,0,0,0,4075,4074,4076,4082
1494526706056144055,1306,1494526706545365865,,39984,0,0,0,9428,1021,0,0,0,0,154,1554,1906,1668,0,0,0,0,4066,4075,4073,4083
1494526706080510254,1307,1494526706567110165,,40004,0,0,0,9428,1021,0,0,0,0,154,1555,1906,1668,0,0,0,0,4068,4069,4071,4077
1494526706318999252,1308,1494526706584233624,,40024,0,0,0,9428,1021,0,0,0,0,154,1555,1904,1656,0,0,0,0,4073,4071,4068,4080
1494526706319064039,1309,1494526706604210145,,40044,0,0,0,9428,1021,0,0,0,0,154,1555,1903,1648,0,0,0,0,4076,4082,4065,4069
1494526706319074231,1310,1494526706624410998,,40064,0,0,0,9428,1021,0,0,0,0,154,1551,1903,1647,0,0,0,0,4078,4078,4077,4069
1494526706319080650,1311,1494526706644340145,,40084,0,0,0,9428,1021,0,0,0,0,154,1552,1902,1673,0,0,0,0,4067,4075,4074,4083
1494526706319115966,1312,1494526706664313708,,40104,0,0,0,9428,1021,0,0,0,0,154,1555,1904,1673,0,0,0,0,4066,4072,4075,4086
1494526706319123572,1313,1494526706685862885,,40124,0,0,0,9428,1021,0,0,0,0,154,1555,1904,1647,0,0,0,0,4079,4069,4066,4075
1494526706319130714,1314,1494526706706267695,,40144,0,0,0,9428,1021,0,0,0,0,154,1553,1906,1647,0,0,0,0,4075,4079,4069,4066
1494526706319138022,1315,1494526706725304765,,40164,0,0,0,9428,1021,0,0,0,0,154,1554,1907,1669,0,0,0,0,4077,4082,4076,4071
1494526706319144540,1316,1494526706745302412,,40184,0,0,0,9428,1021,0,0,0,0,154,1554,1907,1671,0,0,0,0,4069,4077,4081,4088
1494526706319161671,1317,1494526706765347349,,40204,0,0,0,9428,1021,0,0,0,0,154,1553,1905,1671,0,0,0,0,4063,4072,4071,4081
1494526706319168731,1318,1494526706785909742,,40224,0,0,0,9428,1021,0,0,0,0,154,1553,1905,1670,0,0,0,0,4074,4073,4065,4076
1494526706324766892,1319,1494526706806223927,,40244,0,0,0,9428,1021,0,0,0,0,154,1551,1906,1670,0,0,0,0,4072,4079,4070,4065
1494526706339687185,1320,1494526706826208365,,40264,0,0,0,9428,1021,0,0,0,0,154,1556,1906,1663,0,0,0,0,4073,4077,4080,4083
1494526706355645784,1321,1494526706845991472,,40284,0,0,0,9428,1021,0,0,0,0,154,1558,1903,1648,0,0,0,0,4067,4077,4081,4083
1494526706376399303,1322,1494526706866149992,,40304,0,0,0,9428,1021,0,0,0,0,154,1558,1903,1647,0,0,0,0,4067,4069,4070,4078
1494526706395117346,1323,1494526706885253395,,40324,0,0,0,9428,1021,0,0,0,0,154,1557,1903,1667,0,0,0,0,4073,4080,4062,4074
1494526706630376241,1324,1494526706905430248,,40344,0,0,0,9428,1021,0,0,0,0,154,1557,1903,1667,0,0,0,0,4078,4082,4076,4063
1494526706630393244,1325,1494526706925213479,,40364,0,0,0,9428,1021,0,0,0,0,154,1553,1903,1648,0,0,0,0,4069,4076,4080,4090
1494526706630400703,1326,1494526706946738864,,40384,0,0,0,9428,1021,0,0,0,0,154,1553,1904,1648,0,0,0,0,4069,4077,4072,4081
1494526706630412788,1327,1494526706965556769,,40404,0,0,0,9428,1021,0,0,0,0,154,1553,1904,1651,0,0,0,0,4073,4068,4070,4077
1494526706630420732,1328,1494526706985360375,,40424,0,0,0,9428,1021,0,0,0,0,154,1553,1904,1669,0,0,0,0,4071,4082,4065,4068
1494526706630447540,1329,1494526707005376855,,40444,0,0,0,9428,1021,0,0,0,0,154,1553,1905,1669,0,0,0,0,4077,4076,4076,4071
1494526706630499407,1330,1494526707025425334,,40464,0,0,0,9428,1021,0,0,0,0,154,1571,1906,1667,0,0,0,0,4069,4076,4080,4082
1494526706630693399,1331,1494526707045323190,,40484,0,0,0,9428,1021,0,0,0,0,154,1571,1906,1646,0,0,0,0,4068,4075,4070,4080
1494526706630708432,1332,1494526707067176781,,40504,0,0,0,9428,1021,0,0,0,0,154,1555,1902,1646,0,0,0,0,4073,4074,4063,4075
1494526706630716981,1333,1494526707085665522,,40524,0,0,0,9428,1021,0,0,0,0,154,1550,1903,1646,0,0,0,0,4074,4084,4068,4059
1494526706630723321,1334,1494526707105247671,,40544,0,0,0,9428,1021,0,0,0,0,154,1553,1904,1667,0,0,0,0,4071,4077,4076,4081
1494526706641146765,1335,1494526707125170693,,40564,0,0,0,9428,1021,0,0,0,0,154,1556,1907,1668,0,0,0,0,4067,4073,4073,4076
1494526706864780417,1336,1494526707145229630,,40584,0,0,0,9428,1021,0,0,0,0,154,1556,1907,1668,0,0,0,0,4079,4074,4066,4071
1494526706864796321,1337,1494526707166341644,,40604,0,0,0,9428,1021,0,0,0,0,154,1551,1907,1647,0,0,0,0,4075,4082,4065,4073
1494526706864804895,1338,1494526707186632705,,40624,0,0,0,9428,1021,0,0,0,0,154,1552,1905,1650,0,0,0,0,4075,4078,4078,4061
1494526706864817414,1339,1494526707207613052,,40644,0,0,0,9428,1021,0,0,0,0,154,1554,1903,1650,0,0,0,0,4076,4082,4084,4092
1494526706864825916,1340,1494526707228149820,,40664,0,0,0,9428,1021,0,0,0,0,154,1554,1904,1648,0,0,0,0,4071,4072,4073,4077
1494526706864832331,1341,1494526707246078773,,40684,0,0,0,9428,1021,0,0,0,0,154,1554,1905,1647,0,0,0,0,4075,4067,4070,4077
1494526706864838878,1342,1494526707265199675,,40704,0,0,0,9428,1021,0,0,0,0,154,1553,1905,1650,0,0,0,0,4075,4071,4065,4075
1494526706864846629,1343,1494526707285188197,,40724,0,0,0,9428,1021,0,0,0,0,154,1556,1905,1670,0,0,0,0,4073,4077,4083,4066
1494526706864852775,1344,1494526707305172010,,40744,0,0,0,9428,1021,0,0,0,0,154,1556,1905,1670,0,0,0,0,4068,4075,4075,4085
1494526706864860466,1345,1494526707328304217,,40764,0,0,0,9428,1021,0,0,0,0,154,1561,1910,1670,0,0,0,0,4064,4070,4071,4079
1494526706864866746,1346,1494526707346594667,,40784,0,0,0,9428,1021,0,0,0,0,154,1561,1910,1669,0,0,0,0,4072,4070,4071,4079
1494526706879528854,1347,1494526707367115601,,40804,0,0,0,9428,1021,0,0,0,0,154,1555,1910,1647,0,0,0,0,4078,4073,4071,4073
1494526706900479276,1348,1494526707385315844,,40824,0,0,0,9428,1021,0,0,0,0,154,1555,1904,1647,0,0,0,0,4075,4079,4068,4069
1494526706915466067,1349,1494526707405270907,,40844,0,0,0,9428,1021,0,0,0,0,154,1552,1904,1647,0,0,0,0,4072,4081,4085,4073
1494526706936890004,1350,1494526707425146971,,40864,0,0,0,9428,1021,0,0,0,0,154,1553,1902,1650,0,0,0,0,4070,4079,4080,4087
1494526706956725392,1351,1494526707446140027,,40884,0,0,0,9428,1021,0,0,0,0,154,1553,1904,1650,0,0,0,0,4066,4073,4078,4079
1494526706975631763,1352,1494526707466142548,,40904,0,0,0,9428,1021,0,0,0,0,154,1553,1904,1647,0,0,0,0,4064,4065,4068,4079
1494526707003494936,1353,1494526707487324519,,40924,0,0,0,9428,1021,0,0,0,0,154,1556,1903,1669,0,0,0,0,4080,4082,4066,4074
1494526707015477780,1354,1494526707506129841,,40944,0,0,0,9428,1021,0,0,0,0,154,1556,1903,1669,0,0,0,0,4077,4085,4080,4061
1494526707035583178,1355,1494526707525959697,,40964,0,0,0,9428,1021,0,0,0,0,154,1553,1904,1664,0,0,0,0,4071,4081,4084,4076
1494526707055643164,1356,1494526707545082308,,40984,0,0,0,9428,1021,0,0,0,0,154,1552,1909,1669,0,0,0,0,4066,4073,4075,4086
1494526707074642647,1357,1494526707565223662,,41004,0,0,0,9428,1021,0,0,0,0,154,1552,1909,1669,0,0,0,0,4069,4071,4074,4078
1494526707104798753,1358,1494526707585085351,,41024,0,0,0,9428,1021,0,0,0,0,154,1552,1903,1645,0,0,0,0,4074,4073,4062,4072
1494526707119104073,1359,1494526707606988775,,41044,0,0,0,9428,1021,0,0,0,0,154,1551,1905,1645,0,0,0,0,4078,4080,4070,4063
1494526707138193760,1360,1494526707626610799,,41064,0,0,0,9428,1021,0,0,0,0,154,1553,1905,1647,0,0,0,0,4074,4075,4077,4084
1494526707164353873,1361,1494526707648924220,,41084,0,0,0,9428,1021,0,0,0,0,154,1553,1903,1647,0,0,0,0,4070,4078,4074,4081
1494526707177025949,1362,1494526707667050838,,41104,0,0,0,9428,1021,0,0,0,0,154,1559,1902,1650,0,0,0,0,4070,4072,4073,4081
1494526707195805488,1363,1494526707685972076,,41124,0,0,0,9428,1021,0,0,0,0,154,1559,1903,1650,0,0,0,0,4080,4072,4062,4073
1494526707215880986,1364,1494526707705914056,,41144,0,0,0,9428,1021,0,0,0,0,154,1559,1909,1648,0,0,0,0,4075,4085,4072,4063
1494526707237361395,1365,1494526707726246450,,41164,0,0,0,9428,1021,0,0,0,0,154,1552,1909,1646,0,0,0,0,4078,4083,4084,4080
1494526707255398064,1366,1494526707746027598,,41184,0,0,0,9428,1021,0,0,0,0,154,1552,1905,1646,0,0,0,0,4074,4072,4075,4083
1494526707279955453,1367,1494526707768026605,,41204,0,0,0,9428,1021,0,0,0,0,154,1556,1906,1646,0,0,0,0,4068,4077,4072,4082
1494526707295288769,1368,1494526707786175473,,41224,0,0,0,9428,1021,0,0,0,0,154,1557,1906,1647,0,0,0,0,4074,4074,4067,4078
1494526707315550784,1369,1494526707806113161,,41244,0,0,0,9428,1021,0,0,0,0,154,1557,1905,1647,0,0,0,0,4075,4077,4072,4073
1494526707337943880,1370,1494526707826977301,,41264,0,0,0,9428,1021,0,0,0,0,154,1550,1905,1667,0,0,0,0,4079,4086,4069,4067
1494526707355619161,1371,1494526707845932830,,41284,0,0,0,9428,1021,0,0,0,0,154,1548,1903,1667,0,0,0,0,4076,4082,4080,4067
1494526707377279789,1372,1494526707867642797,,41304,0,0,0,9428,1021,0,0,0,0,154,1552,1903,1670,0,0,0,0,4069,4077,4076,4084
1494526707395724762,1373,1494526707885882415,,41324,0,0,0,9428,1021,0,0,0,0,154,1553,1903,1672,0,0,0,0,4072,4073,4076,4085
1494526707416945633,1374,1494526707905985935,,41344,0,0,0,9428,1021,0,0,0,0,154,1553,1906,1672,0,0,0,0,4066,4072,4072,4079
1494526707435654295,1375,1494526707926075498,,41364,0,0,0,9428,1021,0,0,0,0,154,1555,1906,1649,0,0,0,0,4074,4066,4068,4077
1494526707456828886,1376,1494526707946169018,,41384,0,0,0,9428,1021,0,0,0,0,154,1555,1908,1668,0,0,0,0,4076,4077,4069,4070
1494526707482123698,1377,1494526707968133026,,41404,0,0,0,9428,1021,0,0,0,0,154,1552,1908,1668,0,0,0,0,4073,4079,4069,4069
1494526707515554235,1378,1494526707986831931,,41424,0,0,0,9428,1021,0,0,0,0,154,1552,1904,1668,0,0,0,0,4071,4078,4081,4073
1494526707526209210,1379,1494526708007714946,,41444,0,0,0,9428,1021,0,0,0,0,154,1552,1905,1647,0,0,0,0,4076,4080,4076,4086
1494526707539596275,1380,1494526708026646600,,41464,0,0,0,9428,1021,0,0,0,0,154,1550,1905,1665,0,0,0,0,4071,4080,4078,4080
1494526707560594274,1381,1494526708046716830,,41484,0,0,0,9428,1021,0,0,0,0,154,1550,1905,1666,0,0,0,0,4069,4077,4070,4080
1494526707580794581,1382,1494526708066765350,,41504,0,0,0,9428,1021,0,0,0,0,154,1553,1905,1666,0,0,0,0,4073,4071,4067,4075
1494526707600696700,1383,1494526708086778830,,41524,0,0,0,9428,1021,0,0,0,0,154,1553,1905,1680,0,0,0,0,4081,4075,4061,4073
1494526707617759754,1384,1494526708107460180,,41544,0,0,0,9428,1021,0,0,0,0,154,1552,1904,1680,0,0,0,0,4073,4085,4073,4065
1494526707639457421,1385,1494526708126139169,,41564,0,0,0,9428,1021,0,0,0,0,154,1552,1904,1664,0,0,0,0,4072,4080,4080,4074
1494526707656066433,1386,1494526708145929775,,41584,0,0,0,9428,1021,0,0,0,0,154,1552,1904,1647,0,0,0,0,4068,4074,4075,4083
1494526707675832698,1387,1494526708166003504,,41604,0,0,0,9428,1021,0,0,0,0,154,1554,1909,1671,0,0,0,0,4068,4076,4075,4082
1494526707696583970,1388,1494526708187023518,,41624,0,0,0,9428,1021,0,0,0,0,154,1554,1909,1671,0,0,0,0,4068,4073,4067,4077
1494526707719570233,1389,1494526708207239455,,41644,0,0,0,9428,1021,0,0,0,0,154,1555,1909,1669,0,0,0,0,4075,4087,4061,4066
1494526707737487805,1390,1494526708227096185,,41664,0,0,0,9428,1021,0,0,0,0,154,1558,1905,1669,0,0,0,0,4072,4079,4081,4073
1494526707763639936,1391,1494526708246829167,,41684,0,0,0,9428,1021,0,0,0,0,154,1561,1905,1669,0,0,0,0,4071,4077,4078,4093
1494526707791732980,1392,1494526708266775605,,41704,0,0,0,9428,1021,0,0,0,0,154,1561,1904,1651,0,0,0,0,4066,4074,4074,4085
1494526707802225636,1393,1494526708285939424,,41724,0,0,0,9428,1021,0,0,0,0,154,1560,1905,1649,0,0,0,0,4068,4074,4076,4079
1494526707821457736,1394,1494526708306796523,,41744,0,0,0,9428,1021,0,0,0,0,154,1557,1905,1649,0,0,0,0,4074,4067,4066,4073
1494526707852743671,1395,1494526708325859009,,41764,0,0,0,9428,1021,0,0,0,0,154,1557,1905,1649,0,0,0,0,4079,4079,4065,4069
1494526707863182126,1396,1494526708345875906,,41784,0,0,0,9428,1021,0,0,0,0,154,1556,1906,1669,0,0,0,0,4072,4077,4086,4068
1494526707875373860,1397,1494526708365846802,,41804,0,0,0,9428,1021,0,0,0,0,154,1554,1906,1672,0,0,0,0,4070,4077,4077,4084
1494526707898749533,1398,1494526708386889441,,41824,0,0,0,9428,1021,0,0,0,0,154,1554,1906,1672,0,0,0,0,4067,4077,4078,4086
1494526707922932893,1399,1494526708408519534,,41844,0,0,0,9428,1021,0,0,0,0,154,1554,1906,1651,0,0,0,0,4062,4076,4076,4081
1494526707942392868,1400,1494526708427706353,,41864,0,0,0,9428,1021,0,0,0,0,154,1551,1903,1651,0,0,0,0,4070,4069,4074,4078
1494526707960356963,1401,1494526708446921213,,41884,0,0,0,9428,1021,0,0,0,0,154,1553,1905,1646,0,0,0,0,4072,4076,4063,4072
1494526707977337143,1402,1494526708466873401,,41904,0,0,0,9428,1021,0,0,0,0,154,1553,1905,1647,0,0,0,0,4079,4083,4068,4064
1494526707995936106,1403,1494526708486731674,,41924,0,0,0,9428,1021,0,0,0,0,154,1557,1905,1647,0,0,0,0,4069,4078,4082,4082
1494526708016092416,1404,1494526708506848194,,41944,0,0,0,9428,1021,0,0,0,0,154,1557,1905,1647,0,0,0,0,4071,4079,4075,4082
1494526708037110079,1405,1494526708526884757,,41964,0,0,0,9428,1021,0,0,0,0,154,1557,1905,1647,0,0,0,0,4065,4075,4075,4082
1494526708059296245,1406,1494526708547311525,,41984,0,0,0,9428,1021,0,0,0,0,154,1553,1905,1646,0,0,0,0,4078,4076,4067,4076
1494526708077401970,1407,1494526708567982458,,42004,0,0,0,9428,1021,0,0,0,0,154,1556,1905,1646,0,0,0,0,4073,4079,4068,4074
1494526708097356068,1408,1494526708586883738,,42024,0,0,0,9428,1021,0,0,0,0,154,1559,1908,1655,0,0,0,0,4073,4078,4079,4068
1494526708116782447,1409,1494526708607073549,,42044,0,0,0,9428,1021,0,0,0,0,154,1559,1908,1669,0,0,0,0,4071,4077,4080,4089
1494526708137001063,1410,1494526708626691782,,42064,0,0,0,9428,1021,0,0,0,0,154,1552,1906,1669,0,0,0,0,4068,4073,4071,4080
1494526708157610347,1411,1494526708647185924,,42084,0,0,0,9428,1021,0,0,0,0,154,1553,1906,1650,0,0,0,0,4070,4070,4069,4077
1494526708177846280,1412,1494526708667314778,,42104,0,0,0,9428,1021,0,0,0,0,154,1553,1906,1650,0,0,0,0,4076,4078,4068,4069
1494526708197798735,1413,1494526708687191675,,42124,0,0,0,9428,1021,0,0,0,0,154,1552,1903,1648,0,0,0,0,4074,4078,4072,4068
1494526708218231208,1414,1494526708707168572,,42144,0,0,0,9428,1021,0,0,0,0,154,1552,1903,1648,0,0,0,0,4069,4077,4077,4078
1494526708240416440,1415,1494526708728005879,,42164,0,0,0,9428,1021,0,0,0,0,154,1552,1905,1670,0,0,0,0,4068,4077,4081,4083
1494526708267378744,1416,1494526708752984489,,42184,0,0,0,9428,1021,0,0,0,0,154,1554,1905,1670,0,0,0,0,4070,4075,4075,4083
1494526708280267008,1417,1494526708769409078,,42204,0,0,0,9428,1021,0,0,0,0,154,1554,1905,1668,0,0,0,0,4079,4075,4069,4077
1494526708295821796,1418,1494526708786707827,,42224,0,0,0,9428,1021,0,0,0,0,154,1554,1905,1667,0,0,0,0,4077,4087,4072,4065
1494526708316016974,1419,1494526708806595016,,42244,0,0,0,9428,1021,0,0,0,0,154,1552,1903,1666,0,0,0,0,4078,4081,4076,4071
1494526708336820406,1420,1494526708826745453,,42264,0,0,0,9428,1021,0,0,0,0,154,1554,1903,1667,0,0,0,0,4069,4076,4075,4086
1494526708355898308,1421,1494526708846654808,,42284,0,0,0,9428,1021,0,0,0,0,154,1554,1904,1669,0,0,0,0,4065,4073,4073,4084
1494526708378389472,1422,1494526708866777162,,42304,0,0,0,9428,1021,0,0,0,0,154,1558,1904,1669,0,0,0,0,4066,4066,4066,4075
1494526708395565895,1423,1494526708886661309,,42324,0,0,0,9428,1021,0,0,0,0,154,1558,1906,1652,0,0,0,0,4076,4078,4065,4071
1494526708419187339,1424,1494526708909551518,,42344,0,0,0,9428,1021,0,0,0,0,154,1553,1906,1652,0,0,0,0,4077,4082,4072,4065
1494526708445148175,1425,1494526708935757744,,42364,0,0,0,9428,1021,0,0,0,0,154,1555,1904,1646,0,0,0,0,4069,4077,4078,4093
1494526708457641773,1426,1494526708947816490,,42384,0,0,0,9428,1021,0,0,0,0,154,1555,1904,1668,0,0,0,0,4073,4074,4075,4080
1494526708476278051,1427,1494526708966834727,,42404,0,0,0,9428,1021,0,0,0,0,154,1554,1906,1668,0,0,0,0,4067,4072,4077,4079
1494526708495727170,1428,1494526708986776373,,42424,0,0,0,9428,1021,0,0,0,0,154,1556,1906,1668,0,0,0,0,4079,4070,4065,4073
1494526708517263781,1429,1494526709007931761,,42444,0,0,0,9428,1021,0,0,0,0,154,1559,1906,1669,0,0,0,0,4074,4079,4071,4070
1494526708542592405,1430,1494526709027714659,,42464,0,0,0,9428,1021,0,0,0,0,154,1559,1904,1669,0,0,0,0,4077,4075,4078,4071
1494526708556893403,1431,1494526709046938103,,42484,0,0,0,9428,1021,0,0,0,0,154,1552,1904,1670,0,0,0,0,4070,4080,4079,4082
1494526708575644200,1432,1494526709066719834,,42504,0,0,0,9428,1021,0,0,0,0,154,1552,1904,1670,0,0,0,0,4072,4077,4071,4081
1494526708596321445,1433,1494526709086629773,,42524,0,0,0,9428,1021,0,0,0,0,154,1553,1903,1665,0,0,0,0,4076,4068,4072,4075
1494526708615887319,1434,1494526709106690835,,42544,0,0,0,9428,1021,0,0,0,0,154,1553,1903,1646,0,0,0,0,4074,4081,4065,4074
