%time,field.header.seq,field.header.stamp,field.header.frame_id,field.name0,field.name1,field.position0,field.position1,field.velocity0,field.velocity1,field.effort0,field.effort1
1494450135451405149,476,1494450133695758938,,wheel_left_joint,wheel_right_joint,0.0,0.0,0.0,0.0,0.0,0.0
1494450135451415564,477,1494450133716670792,,wheel_left_joint,wheel_right_joint,0.0,0.0,0.0,0.0,0.0,0.0
1494450135451421742,478,1494450133735584205,,wheel_left_joint,wheel_right_joint,0.0,0.0,0.0,0.0,0.0,0.0
1494450135451427662,479,1494450133755661442,,wheel_left_joint,wheel_right_joint,0.0,0.0,0.0,0.0,0.0,0.0
1494450135451438172,480,1494450133775842260,,wheel_left_joint,wheel_right_joint,0.0,0.0,0.0,0.0,0.0,0.0
1494450135451455496,481,1494450133795845748,,wheel_left_joint,wheel_right_joint,0.0,0.0,0.0,0.0,0.0,0.0
1494450135451476867,482,1494450133816883642,,wheel_left_joint,wheel_right_joint,0.0,0.0,0.0,0.0,0.0,0.0
1494450135451484570,483,1494450133836531757,,wheel_left_joint,wheel_right_joint,0.0,0.0,0.0,0.0,0.0,0.0
1494450135451503508,484,1494450133856521911,,wheel_left_joint,wheel_right_joint,0.0,0.0,0.0,0.0,0.0,0.0
1494450135451519530,485,1494450133876471899,,wheel_left_joint,wheel_right_joint,0.0,0.0,0.0,0.0,0.0,0.0
1494450135451540891,486,1494450133896439969,,wheel_left_joint,wheel_right_joint,0.0,0.0,0.0,0.0,0.0,0.0
1494450135451551189,487,1494450133915528590,,wheel_left_joint,wheel_right_joint,0.0,0.0,0.0,0.0,0.0,0.0
1494450135451563954,488,1494450133937031688,,wheel_left_joint,wheel_right_joint,0.0,0.0,0.0,0.0,0.0,0.0
1494450135451574842,489,1494450133956432014,,wheel_left_joint,wheel_right_joint,0.0,0.0,0.0,0.0,0.0,0.0
1494450135451597666,490,1494450133976559208,,wheel_left_joint,wheel_right_joint,0.0,0.0,0.0,0.0,0.0,0.0
1494450135451611058,491,1494450133996463155,,wheel_left_joint,wheel_right_joint,0.0,0.0,0.0,0.0,0.0,0.0
1494450135451618938,492,1494450134016468434,,wheel_left_joint,wheel_right_joint,0.0,0.0,0.0,0.0,0.0,0.0
1494450135451629328,493,1494450134038690984,,wheel_left_joint,wheel_right_joint,0.0,0.0,0.0,0.0,0.0,0.0
1494450135451635934,494,1494450134056613157,,wheel_left_joint,wheel_right_joint,0.0,0.0,0.0,0.0,0.0,0.0
1494450135451662589,495,1494450134076506978,,wheel_left_joint,wheel_right_joint,0.0,0.0,0.0,0.0,0.0,0.0
1494450135451677539,496,1494450134096566215,,wheel_left_joint,wheel_right_joint,0.0,0.0,0.0,0.0,0.0,0.0
1494450135451686090,497,1494450134116397620,,wheel_left_joint,wheel_right_joint,0.0,0.0,0.0,0.0,0.0,0.0
1494450135451701649,498,1494450134136356233,,wheel_left_joint,wheel_right_joint,0.0,0.0,0.0,0.0,0.0,0.0
1494450135451707942,499,1494450134156430594,,wheel_left_joint,wheel_right_joint,0.0,0.0,0.0,0.0,0.0,0.0
1494450135451727328,500,1494450134176388874,,wheel_left_joint,wheel_right_joint,0.00974766723812,0.00974766723812,0.487383361906,0.487383361906,0.0,0.0
1494450135451740375,501,1494450134197484601,,wheel_left_joint,wheel_right_joint,0.0341168353334,0.0316799185239,1.21845840476,1.09661256429,0.0,0.0
1494450135451749676,502,1494450134216468347,,wheel_left_joint,wheel_right_joint,0.0463014193811,0.041427585762,0.609229202382,0.487383361906,0.0,0.0
1494450135451769301,503,1494450134236321711,,wheel_left_joint,wheel_right_joint,0.0560490866192,0.0511752530001,0.487383361906,0.487383361906,0.0,0.0
1494450135451777543,504,1494450134256758069,,wheel_left_joint,wheel_right_joint,0.0682336706668,0.0609229202382,0.609229202382,0.487383361906,0.0,0.0
1494450135451783950,505,1494450134276761598,,wheel_left_joint,wheel_right_joint,0.082855171524,0.0682336706668,0.731075042859,0.365537521429,0.0,0.0
1494450135451791008,506,1494450134296332005,,wheel_left_joint,wheel_right_joint,0.0974766723812,0.0852920883335,0.731075042859,0.852920883335,0.0,0.0
1494450135451806845,507,1494450134316324076,,wheel_left_joint,wheel_right_joint,0.114535090048,0.102350506,0.852920883335,0.852920883335,0.0,0.0
1494450135451814661,508,1494450134336388896,,wheel_left_joint,wheel_right_joint,0.129156590905,0.114535090048,0.731075042859,0.609229202382,0.0,0.0
1494450135451826914,509,1494450134356545465,,wheel_left_joint,wheel_right_joint,0.138904258143,0.126719674096,0.487383361906,0.609229202382,0.0,0.0
1494450135451838594,510,1494450134378692975,,wheel_left_joint,wheel_right_joint,0.148651925381,0.136467341334,0.487383361906,0.487383361906,0.0,0.0
1494450135451845681,511,1494450134397492139,,wheel_left_joint,wheel_right_joint,0.160836509429,0.148651925381,0.609229202382,0.609229202382,0.0,0.0
1494450135451865420,512,1494450134416647509,,wheel_left_joint,wheel_right_joint,0.173021093477,0.163273426238,0.609229202382,0.731075042859,0.0,0.0
1494450135451875035,513,1494450134436405915,,wheel_left_joint,wheel_right_joint,0.187642594334,0.177894927096,0.731075042859,0.731075042859,0.0,0.0
1494450135451885065,514,1494450134456325403,,wheel_left_joint,wheel_right_joint,0.199827178381,0.190079511143,0.609229202382,0.609229202382,0.0,0.0
1494450135451892549,515,1494450134477480255,,wheel_left_joint,wheel_right_joint,0.20713792881,0.199827178381,0.365537521429,0.487383361906,0.0,0.0
1494450135451901570,516,1494450134496523876,,wheel_left_joint,wheel_right_joint,0.219322512858,0.212011762429,0.609229202382,0.609229202382,0.0,0.0
1494450135451914921,517,1494450134518129807,,wheel_left_joint,wheel_right_joint,0.236380930524,0.226633263286,0.852920883335,0.731075042859,0.0,0.0
1494450135451930528,518,1494450134536812181,,wheel_left_joint,wheel_right_joint,0.251002431381,0.241254764143,0.731075042859,0.731075042859,0.0,0.0
1494450135451940074,519,1494450134557523245,,wheel_left_joint,wheel_right_joint,0.263187015429,0.253439348191,0.609229202382,0.609229202382,0.0,0.0
1494450135451946323,520,1494450134577257276,,wheel_left_joint,wheel_right_joint,0.275371599477,0.263187015429,0.609229202382,0.487383361906,0.0,0.0
1494450135451957941,521,1494450134597232305,,wheel_left_joint,wheel_right_joint,0.287556183524,0.272934682667,0.609229202382,0.487383361906,0.0,0.0
1494450135451972988,522,1494450134617304292,,wheel_left_joint,wheel_right_joint,0.304614601191,0.285119266715,0.852920883335,0.609229202382,0.0,0.0
1494450135451979279,523,1494450134637231780,,wheel_left_joint,wheel_right_joint,0.319236102048,0.299740767572,0.731075042859,0.731075042859,0.0,0.0
1494450135451991651,524,1494450134657332516,,wheel_left_joint,wheel_right_joint,0.333857602905,0.31192535162,0.731075042859,0.609229202382,0.0,0.0
1494450135451998012,525,1494450134677362045,,wheel_left_joint,wheel_right_joint,0.346042186953,0.324109935667,0.609229202382,0.609229202382,0.0,0.0
1494450135452006170,526,1494450134697265158,,wheel_left_joint,wheel_right_joint,0.36310060462,0.338731436525,0.852920883335,0.731075042859,0.0,0.0
1494450135452024261,527,1494450134717260562,,wheel_left_joint,wheel_right_joint,0.377722105477,0.353352937382,0.731075042859,0.731075042859,0.0,0.0
1494450135452029781,528,1494450134737576838,,wheel_left_joint,wheel_right_joint,0.394780523144,0.370411355048,0.852920883335,0.852920883335,0.0,0.0
1494450135452045078,529,1494450134757671782,,wheel_left_joint,wheel_right_joint,0.409402024001,0.387469772715,0.731075042859,0.852920883335,0.0,0.0
1494450135452055778,530,1494450134783681007,,wheel_left_joint,wheel_right_joint,0.424023524858,0.402091273572,0.731075042859,0.731075042859,0.0,0.0
1494450135452063250,531,1494450134797982170,,wheel_left_joint,wheel_right_joint,0.441081942525,0.416712774429,0.852920883335,0.731075042859,0.0,0.0
1494450135452072126,532,1494450134817305164,,wheel_left_joint,wheel_right_joint,0.455703443382,0.436208108906,0.731075042859,0.974766723812,0.0,0.0
1494450135452081573,533,1494450134837232860,,wheel_left_joint,wheel_right_joint,0.470324944239,0.453266526572,0.731075042859,0.852920883335,0.0,0.0
1494450135452099154,534,1494450134857670760,,wheel_left_joint,wheel_right_joint,0.484946445096,0.470324944239,0.731075042859,0.852920883335,0.0,0.0
1494450135452106879,535,1494450134877573665,,wheel_left_joint,wheel_right_joint,0.528810947668,0.506878696382,2.19322512858,1.82768760715,0.0,0.0
1494450135452120165,536,1494450134897563444,,wheel_left_joint,wheel_right_joint,0.57023853343,0.540995531715,2.0713792881,1.70584176667,0.0,0.0
1494450135452128548,537,1494450134917569806,,wheel_left_joint,wheel_right_joint,0.614103036001,0.589733867906,2.19322512858,2.43691680953,0.0,0.0
1494450135452136232,538,1494450134937599626,,wheel_left_joint,wheel_right_joint,0.657967538573,0.626287620049,2.19322512858,1.82768760715,0.0,0.0
1494450135452146592,539,1494450134958159358,,wheel_left_joint,wheel_right_joint,0.696958207525,0.657967538573,1.94953344762,1.58399592619,0.0,0.0
1494450135452157541,540,1494450134977178521,,wheel_left_joint,wheel_right_joint,0.728638126049,0.689647457097,1.58399592619,1.58399592619,0.0,0.0
1494450135452166773,541,1494450134997178341,,wheel_left_joint,wheel_right_joint,0.762754961383,0.721327375621,1.70584176667,1.58399592619,0.0,0.0
1494450135452173127,542,1494450135018727731,,wheel_left_joint,wheel_right_joint,0.799308713526,0.762754961383,1.82768760715,2.0713792881,0.0,0.0
1494450135452182496,543,1494450135037103192,,wheel_left_joint,wheel_right_joint,0.843173216097,0.806619463954,2.19322512858,2.19322512858,0.0,0.0
1494450135452194303,544,1494450135057127012,,wheel_left_joint,wheel_right_joint,0.891911552288,0.852920883335,2.43691680953,2.31507096905,0.0,0.0
1494450135452214060,545,1494450135077104791,,wheel_left_joint,wheel_right_joint,0.969892890193,0.923591470812,3.89906689525,3.53352937382,0.0,0.0
1494450135452227013,546,1494450135097271943,,wheel_left_joint,wheel_right_joint,1.03081581043,0.98451439105,3.04614601191,3.04614601191,0.0,0.0
1494450135452236112,547,1494450135117436763,,wheel_left_joint,wheel_right_joint,1.09661256429,1.05518497853,3.28983769286,3.53352937382,0.0,0.0
1494450135455338314,548,1494450135138368367,,wheel_left_joint,wheel_right_joint,1.15753548453,1.12341864919,3.04614601191,3.41168353334,0.0,0.0
1494450135455351937,549,1494450135157358946,,wheel_left_joint,wheel_right_joint,1.22089532157,1.18434156943,3.16799185239,3.04614601191,0.0,0.0
1494450135455361823,550,1494450135177697139,,wheel_left_joint,wheel_right_joint,1.27450749138,1.24039065605,2.68060849048,2.80245433096,0.0,0.0
1494450135455618482,551,1494450135198274162,,wheel_left_joint,wheel_right_joint,1.33299349481,1.29887665948,2.92430017143,2.92430017143,0.0,0.0
1494450135455629386,552,1494450135218261900,,wheel_left_joint,wheel_right_joint,1.39879024867,1.36223649653,3.28983769286,3.16799185239,0.0,0.0
1494450135455640970,553,1494450135237192563,,wheel_left_joint,wheel_right_joint,1.46946083615,1.42803325038,3.53352937382,3.28983769286,0.0,0.0
1494450135455649791,554,1494450135257170926,,wheel_left_joint,wheel_right_joint,1.53769450681,1.49870383786,3.41168353334,3.53352937382,0.0,0.0
1494450135455670969,555,1494450135277176538,,wheel_left_joint,wheel_right_joint,1.60592817748,1.56937442534,3.41168353334,3.53352937382,0.0,0.0
1494450135455685983,556,1494450135297154151,,wheel_left_joint,wheel_right_joint,1.66928801453,1.63517117919,3.16799185239,3.28983769286,0.0,0.0
1494450135455721524,557,1494450135318101254,,wheel_left_joint,wheel_right_joint,1.73264785158,1.69853101624,3.16799185239,3.16799185239,0.0,0.0
1494450135455778700,558,1494450135338188241,,wheel_left_joint,wheel_right_joint,1.79844460543,1.76189085329,3.28983769286,3.16799185239,0.0,0.0
1494450135455795703,559,1494450135358455809,,wheel_left_joint,wheel_right_joint,1.86424135929,1.82768760715,3.28983769286,3.28983769286,0.0,0.0
1494450135455801235,560,1494450135378620087,,wheel_left_joint,wheel_right_joint,1.93247502996,1.89835819462,3.41168353334,3.53352937382,0.0,0.0
1494450135455814986,561,1494450135398155078,,wheel_left_joint,wheel_right_joint,1.995834867,1.96415494848,3.16799185239,3.28983769286,0.0,0.0
1494450135455823512,562,1494450135418158482,,wheel_left_joint,wheel_right_joint,2.06163162086,2.02995170234,3.28983769286,3.28983769286,0.0,0.0
1494450135455835673,563,1494450135438545882,,wheel_left_joint,wheel_right_joint,2.12011762429,2.09087462258,2.92430017143,3.04614601191,0.0,0.0
1494450135456015150,564,1494450135458098832,,wheel_left_joint,wheel_right_joint,2.18347746134,2.15179754281,3.16799185239,3.04614601191,0.0,0.0
1494450135456109361,565,1494450135478129152,,wheel_left_joint,wheel_right_joint,2.24683729839,2.21515737986,3.16799185239,3.16799185239,0.0,0.0
1494450135456126689,566,1494450135498891466,,wheel_left_joint,wheel_right_joint,2.31507096905,2.28095413372,3.41168353334,3.28983769286,0.0,0.0
1494450135467721860,567,1494450135519163076,,wheel_left_joint,wheel_right_joint,2.37599388929,2.34918780439,3.04614601191,3.41168353334,0.0,0.0
1494450135483815614,568,1494450135538301404,,wheel_left_joint,wheel_right_joint,2.43935372634,2.41011072462,3.16799185239,3.04614601191,0.0,0.0
1494450135503168833,569,1494450135558090685,,wheel_left_joint,wheel_right_joint,2.5051504802,2.47590747848,3.28983769286,3.28983769286,0.0,0.0
1494450135523458081,570,1494450135578797916,,wheel_left_joint,wheel_right_joint,2.57094723405,2.54170423234,3.28983769286,3.28983769286,0.0,0.0
1494450135543815949,571,1494450135598033535,,wheel_left_joint,wheel_right_joint,2.63674398791,2.60993790301,3.28983769286,3.41168353334,0.0,0.0
1494450135562096541,572,1494450135618037314,,wheel_left_joint,wheel_right_joint,2.70254074177,2.67573465686,3.28983769286,3.28983769286,0.0,0.0
1494450135597278008,573,1494450135638027135,,wheel_left_joint,wheel_right_joint,2.76833749563,2.74153141072,3.28983769286,3.28983769286,0.0,0.0
1494450135604015567,574,1494450135658544867,,wheel_left_joint,wheel_right_joint,2.83657116629,2.80732816458,3.41168353334,3.28983769286,0.0,0.0
1494450135623741956,575,1494450135678313982,,wheel_left_joint,wheel_right_joint,2.93161092186,2.90480483696,4.75198777858,4.87383361906,0.0,0.0
1494450135641996629,576,1494450135697979014,,wheel_left_joint,wheel_right_joint,3.02421376063,2.99497075891,4.63014193811,4.50829609763,0.0,0.0
1494450135663817969,577,1494450135718929951,,wheel_left_joint,wheel_right_joint,3.1192535162,3.09001051448,4.75198777858,4.75198777858,0.0,0.0
1494450135684937575,578,1494450135738198153,,wheel_left_joint,wheel_right_joint,3.20941943815,3.18261335324,4.50829609763,4.63014193811,0.0,0.0
1494450135702964539,579,1494450135758021767,,wheel_left_joint,wheel_right_joint,3.29714844329,3.27034235839,4.38645025715,4.38645025715,0.0,0.0
1494450135723964836,580,1494450135778229002,,wheel_left_joint,wheel_right_joint,3.3751297812,3.3507606131,3.89906689525,4.02091273572,0.0,0.0
1494450135749898801,581,1494450135802643408,,wheel_left_joint,wheel_right_joint,3.45798495272,3.43117886782,4.1427585762,4.02091273572,0.0,0.0
1494450135764646989,582,1494450135818583307,,wheel_left_joint,wheel_right_joint,3.54815087467,3.51890787296,4.50829609763,4.38645025715,0.0,0.0
1494450135787564556,583,1494450135838779042,,wheel_left_joint,wheel_right_joint,3.64319063025,3.61638454534,4.75198777858,4.87383361906,0.0,0.0
1494450135804537254,584,1494450135858447658,,wheel_left_joint,wheel_right_joint,3.74066730263,3.71386121772,4.87383361906,4.87383361906,0.0,0.0
1494450135831022816,585,1494450135878782225,,wheel_left_joint,wheel_right_joint,3.83327014139,3.80646405648,4.63014193811,4.63014193811,0.0,0.0
1494450135843992325,586,1494450135899250333,,wheel_left_joint,wheel_right_joint,3.92343606334,3.89662997844,4.50829609763,4.50829609763,0.0,0.0
1494450135864038099,587,1494450135919003406,,wheel_left_joint,wheel_right_joint,4.01116506848,3.98435898358,4.38645025715,4.38645025715,0.0,0.0
1494450135889456488,588,1494450135938943602,,wheel_left_joint,wheel_right_joint,4.10620482406,4.07939873915,4.75198777858,4.75198777858,0.0,0.0
1494450135908525808,589,1494450135958876298,,wheel_left_joint,wheel_right_joint,4.19880766282,4.17443849472,4.63014193811,4.75198777858,0.0,0.0
1494450135924278049,590,1494450135978917119,,wheel_left_joint,wheel_right_joint,4.28897358477,4.26704133349,4.50829609763,4.63014193811,0.0,0.0
1494450135945175051,591,1494450135999493684,,wheel_left_joint,wheel_right_joint,4.3742656731,4.35477033863,4.26460441668,4.38645025715,0.0,0.0
1494450135965469839,592,1494450136019475130,,wheel_left_joint,wheel_right_joint,4.46199467825,4.44006242696,4.38645025715,4.26460441668,0.0,0.0
1494450135984718851,593,1494450136039421409,,wheel_left_joint,wheel_right_joint,4.54972368339,4.53022834891,4.38645025715,4.50829609763,0.0,0.0
1494450136006594708,594,1494450136059339939,,wheel_left_joint,wheel_right_joint,4.63745268853,4.62283118768,4.38645025715,4.63014193811,0.0,0.0
1494450136029902911,595,1494450136079679798,,wheel_left_joint,wheel_right_joint,4.73249244411,4.71787094325,4.75198777858,4.75198777858,0.0,0.0
1494450136046377449,596,1494450136099846534,,wheel_left_joint,wheel_right_joint,4.82265836606,4.81047378201,4.50829609763,4.63014193811,0.0,0.0
1494450136066049894,597,1494450136119698356,,wheel_left_joint,wheel_right_joint,4.91526120482,4.90063970396,4.63014193811,4.50829609763,0.0,0.0
1494450136094309166,598,1494450136140523378,,wheel_left_joint,wheel_right_joint,5.00542712677,4.99080562592,4.50829609763,4.50829609763,0.0,0.0
1494450136103520500,599,1494450136158984837,,wheel_left_joint,wheel_right_joint,5.10046688234,5.08340846468,4.75198777858,4.63014193811,0.0,0.0
1494450136123105128,600,1494450136179049616,,wheel_left_joint,wheel_right_joint,5.2174388892,5.20038047154,5.84860034287,5.84860034287,0.0,0.0
1494450136150123540,601,1494450136198866730,,wheel_left_joint,wheel_right_joint,5.33684781287,5.31735247839,5.97044618335,5.84860034287,0.0,0.0
1494450136165230935,602,1494450136218947675,,wheel_left_joint,wheel_right_joint,5.45625673654,5.43432448525,5.97044618335,5.84860034287,0.0,0.0
1494450136196183648,603,1494450136244194907,,wheel_left_joint,wheel_right_joint,5.57322874339,5.55129649211,5.84860034287,5.84860034287,0.0,0.0
1494450136208646434,604,1494450136263410401,,wheel_left_joint,wheel_right_joint,5.68776383344,5.65608391492,5.72675450239,5.23937114049,0.0,0.0
1494450136224326047,605,1494450136279892295,,wheel_left_joint,wheel_right_joint,5.79742508987,5.74868675368,5.48306282144,4.63014193811,0.0,0.0
1494450136244626088,606,1494450136299015957,,wheel_left_joint,wheel_right_joint,5.90464942949,5.84372650925,5.36121698096,4.75198777858,0.0,0.0
1494450136263757137,607,1494450136319038236,,wheel_left_joint,wheel_right_joint,6.01674760273,5.94851393206,5.60490866192,5.23937114049,0.0,0.0
1494450136282885080,608,1494450136338905433,,wheel_left_joint,wheel_right_joint,6.1385934432,6.06304902211,6.09229202382,5.72675450239,0.0,0.0
1494450136303568703,609,1494450136358815962,,wheel_left_joint,wheel_right_joint,6.2653131173,6.18489486258,6.33598370478,6.09229202382,0.0,0.0
1494450136323072316,610,1494450136378894157,,wheel_left_joint,wheel_right_joint,6.38472204097,6.30917761987,5.97044618335,6.2141378643,0.0,0.0
1494450136342881455,611,1494450136398817729,,wheel_left_joint,wheel_right_joint,6.49925713101,6.42614962673,5.72675450239,5.84860034287,0.0,0.0
1494450136363226653,612,1494450136418847674,,wheel_left_joint,wheel_right_joint,6.61379222106,6.53824779997,5.72675450239,5.60490866192,0.0,0.0
1494450136383423284,613,1494450136439041993,,wheel_left_joint,wheel_right_joint,6.73076422792,6.6479090564,5.84860034287,5.48306282144,0.0,0.0
1494450136405161300,614,1494450136459762557,,wheel_left_joint,wheel_right_joint,6.85017315159,6.76244414644,5.97044618335,5.72675450239,0.0,0.0
1494450136422924624,615,1494450136478910636,,wheel_left_joint,wheel_right_joint,6.96714515844,6.87697923649,5.84860034287,5.72675450239,0.0,0.0
1494450136444840543,616,1494450136500657107,,wheel_left_joint,wheel_right_joint,7.0841171653,6.98907740973,5.84860034287,5.60490866192,0.0,0.0
1494450136464653004,617,1494450136520340431,,wheel_left_joint,wheel_right_joint,7.20596300578,7.10117558297,6.09229202382,5.60490866192,0.0,0.0
1494450136484640355,618,1494450136539770798,,wheel_left_joint,wheel_right_joint,7.32293501263,7.20596300578,5.84860034287,5.23937114049,0.0,0.0
1494450136505879407,619,1494450136558751128,,wheel_left_joint,wheel_right_joint,7.43503318587,7.3131873454,5.60490866192,5.36121698096,0.0,0.0
1494450136527110853,620,1494450136579333402,,wheel_left_joint,wheel_right_joint,7.54956827592,7.42772243544,5.72675450239,5.72675450239,0.0,0.0
1494450136542833016,621,1494450136598770103,,wheel_left_joint,wheel_right_joint,7.66654028278,7.55200519273,5.84860034287,6.2141378643,0.0,0.0
1494450136564615392,622,1494450136618752424,,wheel_left_joint,wheel_right_joint,7.78594920645,7.6714141164,5.97044618335,5.97044618335,0.0,0.0
1494450136586486688,623,1494450136638836119,,wheel_left_joint,wheel_right_joint,7.90048429649,7.79082304006,5.72675450239,5.97044618335,0.0,0.0
1494450136606359736,624,1494450136659969804,,wheel_left_joint,wheel_right_joint,8.01501938654,7.90779504692,5.72675450239,5.84860034287,0.0,0.0
1494450136624122340,625,1494450136679913334,,wheel_left_joint,wheel_right_joint,8.1319913934,8.02476705378,5.84860034287,5.84860034287,0.0,0.0
1494450136644609591,626,1494450136699780489,,wheel_left_joint,wheel_right_joint,8.25140031707,8.14173906064,5.97044618335,5.84860034287,0.0,0.0
1494450136663760208,627,1494450136719830892,,wheel_left_joint,wheel_right_joint,8.37568307435,8.26358490111,6.2141378643,6.09229202382,0.0,0.0
1494450136684468863,628,1494450136740000420,,wheel_left_joint,wheel_right_joint,8.49509199802,8.38543074159,5.97044618335,6.09229202382,0.0,0.0
1494450136708258411,629,1494450136759709785,,wheel_left_joint,wheel_right_joint,8.61206400488,8.50240274845,5.84860034287,5.84860034287,0.0,0.0
1494450136723670019,630,1494450136779802230,,wheel_left_joint,wheel_right_joint,8.75096826302,8.63887008978,6.94521290716,6.82336706668,0.0,0.0
1494450136744801265,631,1494450136799811884,,wheel_left_joint,wheel_right_joint,8.89230943797,8.78264818154,7.06705874763,7.18890458811,0.0,0.0
1494450136765647785,632,1494450136819729663,,wheel_left_joint,wheel_right_joint,9.03852444654,8.93130010692,7.31075042859,7.43259626906,0.0,0.0
1494450136784379373,633,1494450136839744192,,wheel_left_joint,wheel_right_joint,9.18717637192,9.08238894911,7.43259626906,7.55444210954,0.0,0.0
1494450136804064709,634,1494450136859768013,,wheel_left_joint,wheel_right_joint,9.33095446369,9.22129320726,7.18890458811,6.94521290716,0.0,0.0
1494450136824147224,635,1494450136879791583,,wheel_left_joint,wheel_right_joint,9.46498488821,9.35532363178,6.7015212262,6.7015212262,0.0,0.0
1494450136844032643,636,1494450136899741821,,wheel_left_joint,wheel_right_joint,9.59901531273,9.48935405631,6.7015212262,6.7015212262,0.0,0.0
1494450136864551775,637,1494450136919648142,,wheel_left_joint,wheel_right_joint,9.73548265407,9.63069523126,6.82336706668,7.06705874763,0.0,0.0
1494450136885833783,638,1494450136939864170,,wheel_left_joint,wheel_right_joint,9.87926074583,9.77203640621,7.18890458811,7.06705874763,0.0,0.0
1494450136903847150,639,1494450136959691908,,wheel_left_joint,wheel_right_joint,10.0279126712,9.92068833159,7.43259626906,7.43259626906,0.0,0.0
1494450136925113375,640,1494450136979731437,,wheel_left_joint,wheel_right_joint,10.1741276798,10.069340257,7.31075042859,7.43259626906,0.0,0.0
1494450136946003932,641,1494450136999707758,,wheel_left_joint,wheel_right_joint,10.3203426884,10.2131183487,7.31075042859,7.18890458811,0.0,0.0
1494450136967430438,642,1494450137020965651,,wheel_left_joint,wheel_right_joint,10.4641207801,10.3568964405,7.18890458811,7.18890458811,0.0,0.0
1494450136984350584,643,1494450137039648108,,wheel_left_joint,wheel_right_joint,10.6078988719,10.5006745323,7.18890458811,7.18890458811,0.0,0.0
1494450137007169410,644,1494450137059899385,,wheel_left_joint,wheel_right_joint,10.7492400468,10.644452624,7.06705874763,7.18890458811,0.0,0.0
1494450137027100799,645,1494450137079910248,,wheel_left_joint,wheel_right_joint,10.8905812218,10.7809199654,7.06705874763,6.82336706668,0.0,0.0
1494450137045043122,646,1494450137099888069,,wheel_left_joint,wheel_right_joint,11.0319223967,10.9246980571,7.06705874763,7.18890458811,0.0,0.0
1494450137067293263,647,1494450137119832848,,wheel_left_joint,wheel_right_joint,11.1732635717,11.0684761489,7.06705874763,7.18890458811,0.0,0.0
1494450137086017796,648,1494450137140002917,,wheel_left_joint,wheel_right_joint,11.3146047466,11.2122542406,7.06705874763,7.18890458811,0.0,0.0
1494450137106073434,649,1494450137160024780,,wheel_left_joint,wheel_right_joint,11.4583828384,11.348721582,7.18890458811,6.82336706668,0.0,0.0
1494450137125501615,650,1494450137179606104,,wheel_left_joint,wheel_right_joint,11.6021609302,11.4900627569,7.18890458811,7.06705874763,0.0,0.0
1494450137143643158,651,1494450137199623966,,wheel_left_joint,wheel_right_joint,11.7459390219,11.6362777655,7.18890458811,7.31075042859,0.0,0.0
1494450137165000901,652,1494450137220793402,,wheel_left_joint,wheel_right_joint,11.8921540305,11.7824927741,7.31075042859,7.31075042859,0.0,0.0
1494450137184614468,653,1494450137240679223,,wheel_left_joint,wheel_right_joint,12.0334952055,11.9189601154,7.06705874763,6.82336706668,0.0,0.0
1494450137208854796,654,1494450137262440945,,wheel_left_joint,wheel_right_joint,12.1699625468,12.0505536231,6.82336706668,6.57967538573,0.0,0.0
1494450137227298815,655,1494450137281005487,,wheel_left_joint,wheel_right_joint,12.3088668049,12.1845840476,6.94521290716,6.7015212262,0.0,0.0
1494450137251059494,656,1494450137301152765,,wheel_left_joint,wheel_right_joint,12.4550818135,12.3259252226,7.31075042859,7.06705874763,0.0,0.0
1494450137266299199,657,1494450137321478874,,wheel_left_joint,wheel_right_joint,12.6061706557,12.474577148,7.55444210954,7.43259626906,0.0,0.0
1494450137285342295,658,1494450137340846242,,wheel_left_joint,wheel_right_joint,12.7548225811,12.6207921566,7.43259626906,7.31075042859,0.0,0.0
1494450137308626902,659,1494450137360870771,,wheel_left_joint,wheel_right_joint,12.896163756,12.7523856643,7.06705874763,6.57967538573,0.0,0.0
1494450137327206931,660,1494450137381032049,,wheel_left_joint,wheel_right_joint,13.0350680142,12.883979172,6.94521290716,6.57967538573,0.0,0.0
1494450137345403643,661,1494450137401184577,,wheel_left_joint,wheel_right_joint,13.1764091891,13.0180095965,7.06705874763,6.7015212262,0.0,0.0
1494450137366417708,662,1494450137420799026,,wheel_left_joint,wheel_right_joint,13.3226241977,13.1617876883,7.31075042859,7.18890458811,0.0,0.0
1494450137385780283,663,1494450137441992336,,wheel_left_joint,wheel_right_joint,13.4737130399,13.2982550296,7.55444210954,6.82336706668,0.0,0.0
1494450137406520657,664,1494450137460614211,,wheel_left_joint,wheel_right_joint,13.6150542148,13.4322854541,7.06705874763,6.7015212262,0.0,0.0
1494450137425180466,665,1494450137480630615,,wheel_left_joint,wheel_right_joint,13.753958473,13.561442045,6.94521290716,6.45782954525,0.0,0.0
1494450137444978560,666,1494450137500598019,,wheel_left_joint,wheel_right_joint,13.8952996479,13.6979093864,7.06705874763,6.82336706668,0.0,0.0
1494450137465644996,667,1494450137520882212,,wheel_left_joint,wheel_right_joint,14.0439515733,13.8489982286,7.43259626906,7.55444210954,0.0,0.0
1494450137485583927,668,1494450137540627535,,wheel_left_joint,wheel_right_joint,14.1901665819,13.9976501539,7.31075042859,7.43259626906,0.0,0.0
1494450137506030526,669,1494450137562112509,,wheel_left_joint,wheel_right_joint,14.32907084,14.1438651625,6.94521290716,7.31075042859,0.0,0.0
1494450137527648057,670,1494450137580707259,,wheel_left_joint,wheel_right_joint,14.470412015,14.2876432543,7.06705874763,7.18890458811,0.0,0.0
1494450137546355102,671,1494450137601625864,,wheel_left_joint,wheel_right_joint,14.6166270236,14.431421346,7.31075042859,7.18890458811,0.0,0.0
1494450137565311739,672,1494450137620661776,,wheel_left_joint,wheel_right_joint,14.7628420321,14.5776363546,7.31075042859,7.31075042859,0.0,0.0
1494450137586690404,673,1494450137640612514,,wheel_left_joint,wheel_right_joint,14.9114939575,14.72628828,7.43259626906,7.43259626906,0.0,0.0
1494450137607550420,674,1494450137662606859,,wheel_left_joint,wheel_right_joint,15.0577089661,14.8700663717,7.31075042859,7.18890458811,0.0,0.0
1494450137629866368,675,1494450137681226942,,wheel_left_joint,wheel_right_joint,15.2014870578,15.0138444635,7.18890458811,7.18890458811,0.0,0.0
1494450137646656361,676,1494450137701312470,,wheel_left_joint,wheel_right_joint,15.3452651496,15.1600594721,7.18890458811,7.31075042859,0.0,0.0
1494450137674118431,677,1494450137725974166,,wheel_left_joint,wheel_right_joint,15.4914801582,15.3087113975,7.31075042859,7.43259626906,0.0,0.0
1494450137687225825,678,1494450137742628475,,wheel_left_joint,wheel_right_joint,15.6401320836,15.454926406,7.43259626906,7.31075042859,0.0,0.0
1494450137707919698,679,1494450137761567472,,wheel_left_joint,wheel_right_joint,15.7814732585,15.6011414146,7.06705874763,7.31075042859,0.0,0.0
1494450137731709937,680,1494450137781842624,,wheel_left_joint,wheel_right_joint,15.9276882671,15.74979334,7.31075042859,7.43259626906,0.0,0.0
1494450137747107537,681,1494450137800978660,,wheel_left_joint,wheel_right_joint,16.0763401925,15.8960083486,7.43259626906,7.31075042859,0.0,0.0
1494450137765222517,682,1494450137820685817,,wheel_left_joint,wheel_right_joint,16.2249921178,16.0446602739,7.43259626906,7.43259626906,0.0,0.0
1494450137786245348,683,1494450137841005093,,wheel_left_joint,wheel_right_joint,16.3687702096,16.1884383657,7.18890458811,7.18890458811,0.0,0.0
1494450137805059517,684,1494450137860609793,,wheel_left_joint,wheel_right_joint,16.5125483014,16.3346533743,7.18890458811,7.31075042859,0.0,0.0
1494450137866929778,685,1494450137880801695,,wheel_left_joint,wheel_right_joint,16.6563263931,16.4759945492,7.18890458811,7.06705874763,0.0,0.0
1494450137874092351,686,1494450137902714249,,wheel_left_joint,wheel_right_joint,16.8049783185,16.6246464746,7.43259626906,7.43259626906,0.0,0.0
1494450137874100472,687,1494450137921132792,,wheel_left_joint,wheel_right_joint,16.9487564103,16.7732984,7.18890458811,7.43259626906,0.0,0.0
1494450137886080301,688,1494450137941988522,,wheel_left_joint,wheel_right_joint,17.092534502,16.9146395749,7.18890458811,7.06705874763,0.0,0.0
1494450137905527743,689,1494450137960582022,,wheel_left_joint,wheel_right_joint,17.2387495106,17.0511069163,7.31075042859,6.82336706668,0.0,0.0
1494450137946662212,690,1494450137981895081,,wheel_left_joint,wheel_right_joint,17.387401436,17.1973219248,7.43259626906,7.31075042859,0.0,0.0
1494450137950182966,691,1494450138001434239,,wheel_left_joint,wheel_right_joint,17.5336164446,17.348410767,7.31075042859,7.55444210954,0.0,0.0
1494450137969303200,692,1494450138023643207,,wheel_left_joint,wheel_right_joint,17.6822683699,17.4921888588,7.43259626906,7.18890458811,0.0,0.0
1494450137992975146,693,1494450138042159457,,wheel_left_joint,wheel_right_joint,17.8260464617,17.6310931169,7.18890458811,6.94521290716,0.0,0.0
1494450138007229343,694,1494450138061574617,,wheel_left_joint,wheel_right_joint,17.9673876367,17.7773081255,7.06705874763,7.31075042859,0.0,0.0
1494450138029410008,695,1494450138082591720,,wheel_left_joint,wheel_right_joint,18.1136026452,17.9235231341,7.31075042859,7.31075042859,0.0,0.0
1494450138051387493,696,1494450138101480218,,wheel_left_joint,wheel_right_joint,18.2646914874,18.0721750595,7.55444210954,7.43259626906,0.0,0.0
1494450138066235020,697,1494450138121579538,,wheel_left_joint,wheel_right_joint,18.4157803296,18.218390068,7.55444210954,7.31075042859,0.0,0.0
1494450138099137342,698,1494450138141404568,,wheel_left_joint,wheel_right_joint,18.5571215046,18.3548574094,7.06705874763,6.82336706668,0.0,0.0
1494450138107748903,699,1494450138161449597,,wheel_left_joint,wheel_right_joint,18.7008995963,18.4913247507,7.18890458811,6.82336706668,0.0,0.0
1494450138127896289,700,1494450138182466367,,wheel_left_joint,wheel_right_joint,18.8495515217,18.6375397593,7.43259626906,7.31075042859,0.0,0.0
1494450138146763430,701,1494450138201508697,,wheel_left_joint,wheel_right_joint,19.0030772807,18.7910655183,7.67628795002,7.67628795002,0.0,0.0
1494450138169164049,702,1494450138223049962,,wheel_left_joint,wheel_right_joint,19.1566030397,18.9445912773,7.67628795002,7.67628795002,0.0,0.0
1494450138187767478,703,1494450138242013834,,wheel_left_joint,wheel_right_joint,19.3052549651,19.0859324522,7.43259626906,7.06705874763,0.0,0.0
1494450138208693066,704,1494450138262018530,,wheel_left_joint,wheel_right_joint,19.4441592232,19.2199628768,6.94521290716,6.7015212262,0.0,0.0
1494450138231279703,705,1494450138283939792,,wheel_left_joint,wheel_right_joint,19.587937315,19.3515563845,7.18890458811,6.57967538573,0.0,0.0
1494450138249740925,706,1494450138301969088,,wheel_left_joint,wheel_right_joint,19.7341523236,19.4880237258,7.31075042859,6.82336706668,0.0,0.0
1494450138267937843,707,1494450138322009867,,wheel_left_joint,wheel_right_joint,19.8876780826,19.6269279839,7.67628795002,6.94521290716,0.0,0.0
1494450138286668004,708,1494450138342682515,,wheel_left_joint,wheel_right_joint,20.0387669248,19.7682691589,7.55444210954,7.06705874763,0.0,0.0
1494450138305182048,709,1494450138361301515,,wheel_left_joint,wheel_right_joint,20.1898557669,19.9096103339,7.55444210954,7.06705874763,0.0,0.0
1494450138327459729,710,1494450138381880539,,wheel_left_joint,wheel_right_joint,20.3360707755,20.0533884256,7.31075042859,7.18890458811,0.0,0.0
1494450138347191773,711,1494450138401261241,,wheel_left_joint,wheel_right_joint,20.4847227009,20.1996034342,7.43259626906,7.31075042859,0.0,0.0
1494450138366713964,712,1494450138421416602,,wheel_left_joint,wheel_right_joint,20.6285007927,20.3506922764,7.18890458811,7.55444210954,0.0,0.0
1494450138392976268,713,1494450138442961825,,wheel_left_joint,wheel_right_joint,20.7698419676,20.4969072849,7.06705874763,7.31075042859,0.0,0.0
1494450138410908574,714,1494450138462587650,,wheel_left_joint,wheel_right_joint,20.9160569762,20.6406853767,7.31075042859,7.18890458811,0.0,0.0
1494450138428392044,715,1494450138481952851,,wheel_left_joint,wheel_right_joint,21.0647089016,20.7869003853,7.43259626906,7.31075042859,0.0,0.0
1494450138449339479,716,1494450138501537592,,wheel_left_joint,wheel_right_joint,21.2157977438,20.9404261443,7.55444210954,7.67628795002,0.0,0.0
1494450138467997767,717,1494450138521525497,,wheel_left_joint,wheel_right_joint,21.366886586,21.0939519033,7.55444210954,7.67628795002,0.0,0.0
1494450138486333094,718,1494450138542230436,,wheel_left_joint,wheel_right_joint,21.5155385113,21.2401669119,7.43259626906,7.31075042859,0.0,0.0
1494450138507237679,719,1494450138561295224,,wheel_left_joint,wheel_right_joint,21.6641904367,21.3863819204,7.43259626906,7.31075042859,0.0,0.0
1494450138530759412,720,1494450138582009330,,wheel_left_joint,wheel_right_joint,21.8177161957,21.5374707626,7.67628795002,7.55444210954,0.0,0.0
1494450138555095746,721,1494450138601736070,,wheel_left_joint,wheel_right_joint,21.9663681211,21.6909965216,7.43259626906,7.67628795002,0.0,0.0
1494450138569364867,722,1494450138622736632,,wheel_left_joint,wheel_right_joint,22.1125831297,21.8420853638,7.31075042859,7.55444210954,0.0,0.0
1494450138586682071,723,1494450138642147458,,wheel_left_joint,wheel_right_joint,22.261235055,21.9907372892,7.43259626906,7.43259626906,0.0,0.0
1494450138607106783,724,1494450138661296078,,wheel_left_joint,wheel_right_joint,22.4074500636,22.1393892146,7.31075042859,7.43259626906,0.0,0.0
1494450138626332112,725,1494450138682420305,,wheel_left_joint,wheel_right_joint,22.5536650722,22.28804114,7.31075042859,7.43259626906,0.0,0.0
1494450138645714880,726,1494450138701332636,,wheel_left_joint,wheel_right_joint,22.7047539144,22.4366930653,7.55444210954,7.43259626906,0.0,0.0
1494450138668228084,727,1494450138722254824,,wheel_left_joint,wheel_right_joint,22.8558427566,22.5877819075,7.55444210954,7.55444210954,0.0,0.0
1494450138688827754,728,1494450138742895722,,wheel_left_joint,wheel_right_joint,23.0118054324,22.7388707497,7.79813379049,7.55444210954,0.0,0.0
1494450138712910271,729,1494450138762717586,,wheel_left_joint,wheel_right_joint,23.1628942746,22.8899595919,7.55444210954,7.55444210954,0.0,0.0
1494450138729028564,730,1494450138783239319,,wheel_left_joint,wheel_right_joint,23.3091092831,23.0434853509,7.31075042859,7.67628795002,0.0,0.0
1494450138750335674,731,1494450138802905851,,wheel_left_joint,wheel_right_joint,23.4553242917,23.1872634427,7.31075042859,7.18890458811,0.0,0.0
1494450138768138923,732,1494450138822642508,,wheel_left_joint,wheel_right_joint,23.5966654667,23.3286046176,7.06705874763,7.06705874763,0.0,0.0
1494450138828358178,733,1494450138882533263,,wheel_left_joint,wheel_right_joint,24.0548058269,23.7769973106,7.63567266986,7.47321154922,0.0,0.0
1494450138847184368,734,1494450138902245920,,wheel_left_joint,wheel_right_joint,24.2058946691,23.925649236,7.55444210954,7.43259626906,0.0,0.0
1494450138873790499,735,1494450138923482979,,wheel_left_joint,wheel_right_joint,24.3545465944,24.0743011613,7.43259626906,7.43259626906,0.0,0.0
1494450138891107247,736,1494450138943065637,,wheel_left_joint,wheel_right_joint,24.5031985198,24.2229530867,7.43259626906,7.43259626906,0.0,0.0
1494450138910340983,737,1494450138962876501,,wheel_left_joint,wheel_right_joint,24.6518504452,24.3740419289,7.43259626906,7.55444210954,0.0,0.0
1494450138939639975,738,1494450138983692940,,wheel_left_joint,wheel_right_joint,24.8005023706,24.5226938543,7.43259626906,7.43259626906,0.0,0.0
1494450138949866884,739,1494450139003176057,,wheel_left_joint,wheel_right_joint,24.9515912128,24.6664719461,7.55444210954,7.18890458811,0.0,0.0
1494450138967614620,740,1494450139022672341,,wheel_left_joint,wheel_right_joint,25.1002431381,24.8053762042,7.43259626906,6.94521290716,0.0,0.0
1494450138990130410,741,1494450139042106917,,wheel_left_joint,wheel_right_joint,25.2488950635,24.9540281296,7.43259626906,7.43259626906,0.0,0.0
1494450139007596467,742,1494450139062126196,,wheel_left_joint,wheel_right_joint,25.4024208225,25.1099908054,7.67628795002,7.79813379049,0.0,0.0
1494450139028048093,743,1494450139083312923,,wheel_left_joint,wheel_right_joint,25.5559465815,25.2635165644,7.67628795002,7.67628795002,0.0,0.0
1494450139047282581,744,1494450139103122954,,wheel_left_joint,wheel_right_joint,25.7094723405,25.4121684898,7.67628795002,7.43259626906,0.0,0.0
1494450139071945031,745,1494450139123615854,,wheel_left_joint,wheel_right_joint,25.8581242659,25.5583834983,7.43259626906,7.31075042859,0.0,0.0
1494450139086608645,746,1494450139142319645,,wheel_left_joint,wheel_right_joint,26.0067761913,25.6972877565,7.43259626906,6.94521290716,0.0,0.0
1494450139106566174,747,1494450139162140259,,wheel_left_joint,wheel_right_joint,26.1578650335,25.8337550978,7.55444210954,6.82336706668,0.0,0.0
1494450139127920398,748,1494450139182251620,,wheel_left_joint,wheel_right_joint,26.3138277093,25.9775331896,7.79813379049,7.18890458811,0.0,0.0
1494450139147769674,749,1494450139202112276,,wheel_left_joint,wheel_right_joint,26.4624796347,26.1213112813,7.43259626906,7.18890458811,0.0,0.0
1494450139168571077,750,1494450139223124921,,wheel_left_joint,wheel_right_joint,26.6135684769,26.2602155395,7.55444210954,6.94521290716,0.0,0.0
1494450139188116364,751,1494450139242131043,,wheel_left_joint,wheel_right_joint,26.7622204022,26.4064305481,7.43259626906,7.31075042859,0.0,0.0
1494450139206288197,752,1494450139262077614,,wheel_left_joint,wheel_right_joint,26.9108723276,26.5599563071,7.43259626906,7.67628795002,0.0,0.0
1494450139227203814,753,1494450139282127476,,wheel_left_joint,wheel_right_joint,27.0619611698,26.7159189829,7.55444210954,7.79813379049,0.0,0.0
1494450139248197139,754,1494450139303054455,,wheel_left_joint,wheel_right_joint,27.213050012,26.8694447419,7.55444210954,7.67628795002,0.0,0.0
1494450139269060257,755,1494450139322692529,,wheel_left_joint,wheel_right_joint,27.3641388542,27.0180966672,7.55444210954,7.43259626906,0.0,0.0
1494450139286204909,756,1494450139342077606,,wheel_left_joint,wheel_right_joint,27.5127907796,27.1716224262,7.43259626906,7.67628795002,0.0,0.0
1494450139307077595,757,1494450139363021793,,wheel_left_joint,wheel_right_joint,27.6663165386,27.3275851021,7.67628795002,7.79813379049,0.0,0.0
1494450139327744603,758,1494450139383048781,,wheel_left_joint,wheel_right_joint,27.8198422976,27.4811108611,7.67628795002,7.67628795002,0.0,0.0
1494450139347375881,759,1494450139402091194,,wheel_left_joint,wheel_right_joint,27.9733680566,27.6297627864,7.67628795002,7.43259626906,0.0,0.0
1494450139393134079,760,1494450139422582510,,wheel_left_joint,wheel_right_joint,28.1244568988,27.7808516286,7.55444210954,7.55444210954,0.0,0.0
1494450139404826971,761,1494450139442808871,,wheel_left_joint,wheel_right_joint,28.2706719073,27.9319404708,7.31075042859,7.55444210954,0.0,0.0
1494450139410463001,762,1494450139462574485,,wheel_left_joint,wheel_right_joint,28.4241976663,28.083029313,7.67628795002,7.55444210954,0.0,0.0
1494450139457117624,763,1494450139483699338,,wheel_left_joint,wheel_right_joint,28.5801603422,28.2389919888,7.79813379049,7.79813379049,0.0,0.0
1494450139483552148,764,1494450139503837449,,wheel_left_joint,wheel_right_joint,28.7336861012,28.3949546646,7.67628795002,7.79813379049,0.0,0.0
1494450139489632576,765,1494450139523871020,,wheel_left_joint,wheel_right_joint,28.8823380265,28.5484804236,7.43259626906,7.67628795002,0.0,0.0
1494450139492915040,766,1494450139543552135,,wheel_left_joint,wheel_right_joint,29.0309899519,28.6995692658,7.43259626906,7.55444210954,0.0,0.0
1494450139507648209,767,1494450139562999336,,wheel_left_joint,wheel_right_joint,29.1820787941,28.850658108,7.55444210954,7.55444210954,0.0,0.0
1494450139535857028,768,1494450139590975627,,wheel_left_joint,wheel_right_joint,29.3356045531,28.9993100334,7.67628795002,7.43259626906,0.0,0.0
1494450139561404036,769,1494450139603133060,,wheel_left_joint,wheel_right_joint,29.4891303121,29.1528357924,7.67628795002,7.67628795002,0.0,0.0
1494450139576208919,770,1494450139623347754,,wheel_left_joint,wheel_right_joint,29.6402191543,29.3087984682,7.55444210954,7.79813379049,0.0,0.0
1494450139587163229,771,1494450139643009536,,wheel_left_joint,wheel_right_joint,29.7913079965,29.464761144,7.55444210954,7.79813379049,0.0,0.0
1494450139608307815,772,1494450139663103065,,wheel_left_joint,wheel_right_joint,29.9472706723,29.6134130694,7.79813379049,7.43259626906,0.0,0.0
1494450139627829421,773,1494450139682959929,,wheel_left_joint,wheel_right_joint,30.0959225977,29.759628078,7.43259626906,7.31075042859,0.0,0.0
1494450139647148219,774,1494450139702951333,,wheel_left_joint,wheel_right_joint,30.2470114399,29.9107169202,7.55444210954,7.55444210954,0.0,0.0
1494450139669495401,775,1494450139722968529,,wheel_left_joint,wheel_right_joint,30.4005371989,30.0642426792,7.67628795002,7.67628795002,0.0,0.0
1494450139690239987,776,1494450139743880633,,wheel_left_joint,wheel_right_joint,30.5564998747,30.2177684382,7.79813379049,7.67628795002,0.0,0.0
1494450139708003434,777,1494450139763021295,,wheel_left_joint,wheel_right_joint,30.7124625505,30.3688572804,7.79813379049,7.55444210954,0.0,0.0
1494450139726600070,778,1494450139782938617,,wheel_left_joint,wheel_right_joint,30.8635513927,30.5199461225,7.55444210954,7.55444210954,0.0,0.0
1494450139746842236,779,1494450139802937813,,wheel_left_joint,wheel_right_joint,31.0073294844,30.6710349647,7.18890458811,7.55444210954,0.0,0.0
1494450139771978958,780,1494450139822927634,,wheel_left_joint,wheel_right_joint,31.1559814098,30.8148130565,7.43259626906,7.18890458811,0.0,0.0
1494450139787156686,781,1494450139842951538,,wheel_left_joint,wheel_right_joint,31.3095071688,30.9610280651,7.67628795002,7.31075042859,0.0,0.0
1494450139811947579,782,1494450139865510544,,wheel_left_joint,wheel_right_joint,31.4630329278,31.1121169073,7.67628795002,7.55444210954,0.0,0.0
1494450139827145713,783,1494450139882933138,,wheel_left_joint,wheel_right_joint,31.6214325204,31.2680795831,7.91997963097,7.79813379049,0.0,0.0
1494450139848848201,784,1494450139903013583,,wheel_left_joint,wheel_right_joint,31.7773951963,31.4264791757,7.79813379049,7.91997963097,0.0,0.0
1494450139871129385,785,1494450139923770856,,wheel_left_joint,wheel_right_joint,31.9333578721,31.5775680179,7.79813379049,7.55444210954,0.0,0.0
1494450139890209064,786,1494450139943625595,,wheel_left_joint,wheel_right_joint,32.0868836311,31.7262199433,7.67628795002,7.43259626906,0.0,0.0
1494450139913800624,787,1494450139963078712,,wheel_left_joint,wheel_right_joint,32.2330986396,31.8724349518,7.31075042859,7.31075042859,0.0,0.0
1494450139927030465,788,1494450139982946534,,wheel_left_joint,wheel_right_joint,32.381750565,32.0162130436,7.43259626906,7.18890458811,0.0,0.0
1494450139946807770,789,1494450140003012813,,wheel_left_joint,wheel_right_joint,32.5328394072,32.1551173017,7.55444210954,6.94521290716,0.0,0.0
1494450139967392732,790,1494450140022985592,,wheel_left_joint,wheel_right_joint,32.6912389998,32.3013323103,7.91997963097,7.31075042859,0.0,0.0
1494450139991122687,791,1494450140044134653,,wheel_left_joint,wheel_right_joint,32.8545124261,32.4499842357,8.16367131192,7.43259626906,0.0,0.0
1494450140010939964,792,1494450140063474855,,wheel_left_joint,wheel_right_joint,33.0104751019,32.5913254106,7.79813379049,7.06705874763,0.0,0.0
1494450140028611483,793,1494450140083847756,,wheel_left_joint,wheel_right_joint,33.1591270273,32.7448511696,7.43259626906,7.67628795002,0.0,0.0
1494450140048285982,794,1494450140103865869,,wheel_left_joint,wheel_right_joint,33.3053420358,32.9008138455,7.31075042859,7.79813379049,0.0,0.0
1494450140069140373,795,1494450140123837398,,wheel_left_joint,wheel_right_joint,33.4613047116,33.0592134381,7.79813379049,7.91997963097,0.0,0.0
1494450140089233176,796,1494450140142928561,,wheel_left_joint,wheel_right_joint,33.6123935538,33.2103022803,7.55444210954,7.55444210954,0.0,0.0
1494450140122135069,797,1494450140162879632,,wheel_left_joint,wheel_right_joint,33.763482396,33.3638280393,7.55444210954,7.67628795002,0.0,0.0
1494450140130384526,798,1494450140184018026,,wheel_left_joint,wheel_right_joint,33.9145712382,33.5197907151,7.55444210954,7.79813379049,0.0,0.0
1494450140150437752,799,1494450140204396094,,wheel_left_joint,wheel_right_joint,34.0680969972,33.6757533909,7.67628795002,7.79813379049,0.0,0.0
1494450140170291979,800,1494450140223829545,,wheel_left_joint,wheel_right_joint,34.2264965898,33.8317160667,7.91997963097,7.79813379049,0.0,0.0
1494450140189323968,801,1494450140243838782,,wheel_left_joint,wheel_right_joint,34.3848961825,33.9876787425,7.91997963097,7.79813379049,0.0,0.0
1494450140207639095,802,1494450140263799271,,wheel_left_joint,wheel_right_joint,34.5384219415,34.1436414183,7.67628795002,7.79813379049,0.0,0.0
1494450140229855436,803,1494450140283842133,,wheel_left_joint,wheel_right_joint,34.6919477005,34.2996040941,7.67628795002,7.79813379049,0.0,0.0
1494450140248843645,804,1494450140303875245,,wheel_left_joint,wheel_right_joint,34.8454734595,34.4506929363,7.67628795002,7.55444210954,0.0,0.0
1494450140270439735,805,1494450140323952190,,wheel_left_joint,wheel_right_joint,34.9989992185,34.6042186953,7.67628795002,7.67628795002,0.0,0.0
1494450140289233078,806,1494450140343875637,,wheel_left_joint,wheel_right_joint,35.1476511438,34.7553075375,7.43259626906,7.55444210954,0.0,0.0
1494450140309084750,807,1494450140363806959,,wheel_left_joint,wheel_right_joint,35.298739986,34.9112702133,7.55444210954,7.79813379049,0.0,0.0
1494450140327500336,808,1494450140383781322,,wheel_left_joint,wheel_right_joint,35.4498288282,35.0672328891,7.55444210954,7.79813379049,0.0,0.0
1494450140351331803,809,1494450140403752143,,wheel_left_joint,wheel_right_joint,35.6106653376,35.2231955649,8.04182547145,7.79813379049,0.0,0.0
1494450140372050193,810,1494450140424744622,,wheel_left_joint,wheel_right_joint,35.7690649303,35.3815951576,7.91997963097,7.91997963097,0.0,0.0
1494450140404970731,811,1494450140443801076,,wheel_left_joint,wheel_right_joint,35.9225906893,35.5375578334,7.67628795002,7.79813379049,0.0,0.0
1494450140425034498,812,1494450140463746773,,wheel_left_joint,wheel_right_joint,36.0712426146,35.6935205092,7.43259626906,7.79813379049,0.0,0.0
1494450140429292813,813,1494450140483844343,,wheel_left_joint,wheel_right_joint,36.2272052905,35.8470462682,7.79813379049,7.67628795002,0.0,0.0
1494450140450934663,814,1494450140504477325,,wheel_left_joint,wheel_right_joint,36.3856048831,35.9981351104,7.91997963097,7.55444210954,0.0,0.0
1494450140471701104,815,1494450140524478104,,wheel_left_joint,wheel_right_joint,36.5391306421,36.1516608694,7.67628795002,7.67628795002,0.0,0.0
1494450140488773287,816,1494450140543709265,,wheel_left_joint,wheel_right_joint,36.6926564011,36.3076235452,7.67628795002,7.79813379049,0.0,0.0
1494450140508898971,817,1494450140563804585,,wheel_left_joint,wheel_right_joint,36.8437452433,36.4562754706,7.55444210954,7.43259626906,0.0,0.0
1494450140527493505,818,1494450140583763073,,wheel_left_joint,wheel_right_joint,37.0021448359,36.6098012296,7.91997963097,7.67628795002,0.0,0.0
1494450140548667518,819,1494450140603782978,,wheel_left_joint,wheel_right_joint,37.1581075117,36.7657639054,7.79813379049,7.79813379049,0.0,0.0
1494450140574546258,820,1494450140626156361,,wheel_left_joint,wheel_right_joint,37.3116332707,36.924163498,7.67628795002,7.91997963097,0.0,0.0
1494450140591724907,821,1494450140643842369,,wheel_left_joint,wheel_right_joint,37.4651590297,37.0728154234,7.67628795002,7.43259626906,0.0,0.0
1494450140610891301,822,1494450140664095188,,wheel_left_joint,wheel_right_joint,37.6211217055,37.2214673487,7.79813379049,7.43259626906,0.0,0.0
1494450140628166330,823,1494450140683877511,,wheel_left_joint,wheel_right_joint,37.7697736309,37.3676823573,7.43259626906,7.31075042859,0.0,0.0
1494450140649706351,824,1494450140704221412,,wheel_left_joint,wheel_right_joint,37.9257363067,37.5236450331,7.79813379049,7.79813379049,0.0,0.0
1494450140668254013,825,1494450140723720404,,wheel_left_joint,wheel_right_joint,38.0816989825,37.6820446257,7.79813379049,7.91997963097,0.0,0.0
1494450140689334589,826,1494450140743705725,,wheel_left_joint,wheel_right_joint,38.2425354919,37.8428811352,8.04182547145,8.04182547145,0.0,0.0
1494450140708021109,827,1494450140763698255,,wheel_left_joint,wheel_right_joint,38.4009350846,37.9964068942,7.91997963097,7.67628795002,0.0,0.0
1494450140727349704,828,1494450140783664659,,wheel_left_joint,wheel_right_joint,38.5593346772,38.1499326532,7.91997963097,7.67628795002,0.0,0.0
1494450140749549000,829,1494450140804746387,,wheel_left_joint,wheel_right_joint,38.7104235194,38.2985845786,7.55444210954,7.43259626906,0.0,0.0
1494450140770773500,830,1494450140824776041,,wheel_left_joint,wheel_right_joint,38.8615123616,38.4374888367,7.55444210954,6.94521290716,0.0,0.0
1494450140791809426,831,1494450140844729779,,wheel_left_joint,wheel_right_joint,39.022348871,38.5861407621,8.04182547145,7.43259626906,0.0,0.0
1494450140814164562,832,1494450140864671476,,wheel_left_joint,wheel_right_joint,39.1831853804,38.7396665211,8.04182547145,7.67628795002,0.0,0.0
1494450140835428800,833,1494450140885514748,,wheel_left_joint,wheel_right_joint,39.3440218898,38.8907553633,8.04182547145,7.55444210954,0.0,0.0
1494450140848190342,834,1494450140903700877,,wheel_left_joint,wheel_right_joint,39.495110732,39.0394072887,7.55444210954,7.43259626906,0.0,0.0
1494450140870862245,835,1494450140924862562,,wheel_left_joint,wheel_right_joint,39.6461995742,39.1929330477,7.55444210954,7.67628795002,0.0,0.0
1494450140890359289,836,1494450140945819541,,wheel_left_joint,wheel_right_joint,39.7997253332,39.3513326403,7.67628795002,7.91997963097,0.0,0.0
1494450140909749270,837,1494450140964799371,,wheel_left_joint,wheel_right_joint,39.9532510922,39.5097322329,7.67628795002,7.91997963097,0.0,0.0
1494450140929291660,838,1494450140984835067,,wheel_left_joint,wheel_right_joint,40.1067768512,39.6705687423,7.67628795002,8.04182547145,0.0,0.0
1494450140978664839,839,1494450141004844096,,wheel_left_joint,wheel_right_joint,40.262739527,39.8289683349,7.79813379049,7.91997963097,0.0,0.0
1494450140993215952,840,1494450141024731585,,wheel_left_joint,wheel_right_joint,40.4235760365,39.9898048444,8.04182547145,8.04182547145,0.0,0.0
1494450140993232175,841,1494450141044948279,,wheel_left_joint,wheel_right_joint,40.5844125459,40.148204437,8.04182547145,7.91997963097,0.0,0.0
1494450141010944977,842,1494450141064670228,,wheel_left_joint,wheel_right_joint,40.7428121385,40.3041671128,7.91997963097,7.79813379049,0.0,0.0
1494450141029635820,843,1494450141084795590,,wheel_left_joint,wheel_right_joint,40.8939009807,40.4576928718,7.55444210954,7.67628795002,0.0,0.0
1494450141049458875,844,1494450141104598621,,wheel_left_joint,wheel_right_joint,41.0498636565,40.6136555476,7.79813379049,7.79813379049,0.0,0.0
1494450141070787458,845,1494450141125279977,,wheel_left_joint,wheel_right_joint,41.2082632491,40.7696182234,7.91997963097,7.79813379049,0.0,0.0
1494450141096210408,846,1494450141145795627,,wheel_left_joint,wheel_right_joint,41.3666628418,40.9304547329,7.91997963097,8.04182547145,0.0,0.0
1494450141112827887,847,1494450141165608700,,wheel_left_joint,wheel_right_joint,41.5201886008,41.0888543255,7.67628795002,7.91997963097,0.0,0.0
1494450141132489507,848,1494450141186511513,,wheel_left_joint,wheel_right_joint,41.6737143598,41.2448170013,7.67628795002,7.79813379049,0.0,0.0
1494450141153095196,849,1494450141205241720,,wheel_left_joint,wheel_right_joint,41.8321139524,41.4007796771,7.91997963097,7.79813379049,0.0,0.0
1494450141171901735,850,1494450141225416165,,wheel_left_joint,wheel_right_joint,41.9953873786,41.5591792697,8.16367131192,7.91997963097,0.0,0.0
1494450141191001425,851,1494450141245754108,,wheel_left_joint,wheel_right_joint,42.1513500544,41.7200157791,7.79813379049,8.04182547145,0.0,0.0
1494450141214372039,852,1494450141264603356,,wheel_left_joint,wheel_right_joint,42.3048758134,41.8808522886,7.67628795002,8.04182547145,0.0,0.0
1494450141228606923,853,1494450141284570927,,wheel_left_joint,wheel_right_joint,42.4559646556,42.0319411308,7.55444210954,7.55444210954,0.0,0.0
1494450141249129883,854,1494450141304637789,,wheel_left_joint,wheel_right_joint,42.6143642482,42.1854668898,7.91997963097,7.67628795002,0.0,0.0
1494450141270161269,855,1494450141324650485,,wheel_left_joint,wheel_right_joint,42.7727638409,42.3414295656,7.91997963097,7.79813379049,0.0,0.0
1494450141292506385,856,1494450141345256218,,wheel_left_joint,wheel_right_joint,42.9262895999,42.502266075,7.67628795002,8.04182547145,0.0,0.0
1494450141319258958,857,1494450141371089945,,wheel_left_joint,wheel_right_joint,43.0871261093,42.6606656676,8.04182547145,7.91997963097,0.0,0.0
1494450141330653648,858,1494450141384672032,,wheel_left_joint,wheel_right_joint,43.2430887851,42.8141914266,7.79813379049,7.67628795002,0.0,0.0
1494450141350554753,859,1494450141404580937,,wheel_left_joint,wheel_right_joint,43.4014883777,42.9701541024,7.91997963097,7.79813379049,0.0,0.0
1494450141369268910,860,1494450141424597300,,wheel_left_joint,wheel_right_joint,43.5525772199,43.1261167782,7.55444210954,7.79813379049,0.0,0.0
1494450141389230509,861,1494450141444553913,,wheel_left_joint,wheel_right_joint,43.7036660621,43.2796425372,7.55444210954,7.67628795002,0.0,0.0
1494450141410728546,862,1494450141464549692,,wheel_left_joint,wheel_right_joint,43.8596287379,43.4258575458,7.79813379049,7.31075042859,0.0,0.0
1494450141431531555,863,1494450141486631953,,wheel_left_joint,wheel_right_joint,44.0180283305,43.5745094712,7.91997963097,7.43259626906,0.0,0.0
1494450141452635843,864,1494450141505145287,,wheel_left_joint,wheel_right_joint,44.1764279231,43.7329090638,7.91997963097,7.91997963097,0.0,0.0
1494450141472494808,865,1494450141525349940,,wheel_left_joint,wheel_right_joint,44.3348275158,43.8937455732,7.91997963097,8.04182547145,0.0,0.0
1494450141491894391,866,1494450141545256428,,wheel_left_joint,wheel_right_joint,44.4932271084,44.0521451659,7.91997963097,7.91997963097,0.0,0.0
1494450141512596282,867,1494450141566290824,,wheel_left_joint,wheel_right_joint,44.6540636178,44.2105447585,8.04182547145,7.91997963097,0.0,0.0
1494450141533057124,868,1494450141586534226,,wheel_left_joint,wheel_right_joint,44.792967876,44.344575183,6.94521290716,6.7015212262,0.0,0.0
1494450141550819184,869,1494450141605608889,,wheel_left_joint,wheel_right_joint,44.9221244669,44.4737317739,6.45782954525,6.45782954525,0.0,0.0
1494450141569590723,870,1494450141625672292,,wheel_left_joint,wheel_right_joint,45.0561548914,44.6077621984,6.7015212262,6.7015212262,0.0,0.0
1494450141590379227,871,1494450141645587573,,wheel_left_joint,wheel_right_joint,45.1901853159,44.7393557061,6.7015212262,6.57967538573,0.0,0.0
1494450141610437144,872,1494450141665503144,,wheel_left_joint,wheel_right_joint,45.3266526572,44.8612015466,6.82336706668,6.09229202382,0.0,0.0
1494450141631534124,873,1494450141685855921,,wheel_left_joint,wheel_right_joint,45.4631199986,44.9903581375,6.82336706668,6.45782954525,0.0,0.0
1494450141652659791,874,1494450141706127073,,wheel_left_joint,wheel_right_joint,45.5971504231,45.112203978,6.7015212262,6.09229202382,0.0,0.0
1494450141681462322,875,1494450141733475495,,wheel_left_joint,wheel_right_joint,45.726307014,45.2316129017,6.45782954525,5.97044618335,0.0,0.0
1494450141689774550,876,1494450141745602386,,wheel_left_joint,wheel_right_joint,45.8505897713,45.3607694926,6.2141378643,6.45782954525,0.0,0.0
1494450141710405333,877,1494450141765711915,,wheel_left_joint,wheel_right_joint,45.9724356118,45.4850522499,6.09229202382,6.2141378643,0.0,0.0
1494450141729819448,878,1494450141785994275,,wheel_left_joint,wheel_right_joint,46.0772230346,45.5922765895,5.23937114049,5.36121698096,0.0,0.0
1494450141752776041,879,1494450141805789681,,wheel_left_joint,wheel_right_joint,46.1844473742,45.6995009291,5.36121698096,5.36121698096,0.0,0.0
1494450141770612286,880,1494450141825583921,,wheel_left_joint,wheel_right_joint,46.2989824642,45.816472936,5.72675450239,5.84860034287,0.0,0.0
1494450141791423936,881,1494450141846316152,,wheel_left_joint,wheel_right_joint,46.4159544711,45.9383187764,5.84860034287,6.09229202382,0.0,0.0
1494450141811792996,882,1494450141866255098,,wheel_left_joint,wheel_right_joint,46.5280526443,46.0504169497,5.60490866192,5.60490866192,0.0,0.0
1494450141832998227,883,1494450141886275169,,wheel_left_joint,wheel_right_joint,46.635276984,46.1600782061,5.36121698096,5.48306282144,0.0,0.0
1494450141851113897,884,1494450141906203449,,wheel_left_joint,wheel_right_joint,46.7449382404,46.2673025457,5.48306282144,5.36121698096,0.0,0.0
1494450141871322657,885,1494450141926713683,,wheel_left_joint,wheel_right_joint,46.8545994968,46.379400719,5.48306282144,5.60490866192,0.0,0.0
1494450141890641948,886,1494450141946485339,,wheel_left_joint,wheel_right_joint,46.9666976701,46.4866250586,5.60490866192,5.36121698096,0.0,0.0
1494450141909988138,887,1494450141965453128,,wheel_left_joint,wheel_right_joint,47.0739220097,46.5987232318,5.36121698096,5.60490866192,0.0,0.0
1494450141931673579,888,1494450141985630822,,wheel_left_joint,wheel_right_joint,47.1665248484,46.698636821,4.63014193811,4.99567945953,0.0,0.0
1494450141949215737,889,1494450142005483520,,wheel_left_joint,wheel_right_joint,47.2420692695,46.7766181589,3.77722105477,3.89906689525,0.0,0.0
1494450141973095840,890,1494450142026494332,,wheel_left_joint,wheel_right_joint,47.3273613579,46.8570364136,4.26460441668,4.02091273572,0.0,0.0
1494450141991195572,891,1494450142046193447,,wheel_left_joint,wheel_right_joint,47.4199641966,46.9520761692,4.63014193811,4.75198777858,0.0,0.0
1494450142009823092,892,1494450142065505816,,wheel_left_joint,wheel_right_joint,47.5150039522,47.0495528416,4.75198777858,4.87383361906,0.0,0.0
1494450142032266068,893,1494450142085571970,,wheel_left_joint,wheel_right_joint,47.6027329573,47.1397187635,4.38645025715,4.50829609763,0.0,0.0
1494450142050386385,894,1494450142105547333,,wheel_left_joint,wheel_right_joint,47.6831512121,47.2250108519,4.02091273572,4.26460441668,0.0,0.0
1494450142077114861,895,1494450142127686427,,wheel_left_joint,wheel_right_joint,47.7660063836,47.3054291066,4.1427585762,4.02091273572,0.0,0.0
1494450142098241589,896,1494450142147303460,,wheel_left_joint,wheel_right_joint,47.8464246383,47.3858473613,4.02091273572,4.02091273572,0.0,0.0
