%time,field.transforms0.header.seq,field.transforms0.header.stamp,field.transforms0.header.frame_id,field.transforms0.child_frame_id,field.transforms0.transform.translation.x,field.transforms0.transform.translation.y,field.transforms0.transform.translation.z,field.transforms0.transform.rotation.x,field.transforms0.transform.rotation.y,field.transforms0.transform.rotation.z,field.transforms0.transform.rotation.w,field.transforms1.header.seq,field.transforms1.header.stamp,field.transforms1.header.frame_id,field.transforms1.child_frame_id,field.transforms1.transform.translation.x,field.transforms1.transform.translation.y,field.transforms1.transform.translation.z,field.transforms1.transform.rotation.x,field.transforms1.transform.rotation.y,field.transforms1.transform.rotation.z,field.transforms1.transform.rotation.w,field.transforms2.header.seq,field.transforms2.header.stamp,field.transforms2.header.frame_id,field.transforms2.child_frame_id,field.transforms2.transform.translation.x,field.transforms2.transform.translation.y,field.transforms2.transform.translation.z,field.transforms2.transform.rotation.x,field.transforms2.transform.rotation.y,field.transforms2.transform.rotation.z,field.transforms2.transform.rotation.w,field.transforms3.header.seq,field.transforms3.header.stamp,field.transforms3.header.frame_id,field.transforms3.child_frame_id,field.transforms3.transform.translation.x,field.transforms3.transform.translation.y,field.transforms3.transform.translation.z,field.transforms3.transform.rotation.x,field.transforms3.transform.rotation.y,field.transforms3.transform.rotation.z,field.transforms3.transform.rotation.w,field.transforms4.header.seq,field.transforms4.header.stamp,field.transforms4.header.frame_id,field.transforms4.child_frame_id,field.transforms4.transform.translation.x,field.transforms4.transform.translation.y,field.transforms4.transform.translation.z,field.transforms4.transform.rotation.x,field.transforms4.transform.rotation.y,field.transforms4.transform.rotation.z,field.transforms4.transform.rotation.w,field.transforms5.header.seq,field.transforms5.header.stamp,field.transforms5.header.frame_id,field.transforms5.child_frame_id,field.transforms5.transform.translation.x,field.transforms5.transform.translation.y,field.transforms5.transform.translation.z,field.transforms5.transform.rotation.x,field.transforms5.transform.rotation.y,field.transforms5.transform.rotation.z,field.transforms5.transform.rotation.w,field.transforms6.header.seq,field.transforms6.header.stamp,field.transforms6.header.frame_id,field.transforms6.child_frame_id,field.transforms6.transform.translation.x,field.transforms6.transform.translation.y,field.transforms6.transform.translation.z,field.transforms6.transform.rotation.x,field.transforms6.transform.rotation.y,field.transforms6.transform.rotation.z,field.transforms6.transform.rotation.w
1494450135450694252,0,1494450135043884784,raphael/base_footprint,raphael/base_link,0.0,0.0,0.0102,0.0,0.0,0.0,1.0,0,1494450135043884784,raphael/base_link,raphael/caster_back_link,-0.135,0.0,0.009,-0.707106781185,0.0,0.0,0.707106781188,0,1494450135043884784,raphael/base_link,raphael/caster_front_link,0.115,0.0,0.007,-0.707106781185,0.0,0.0,0.707106781188,0,1494450135043884784,raphael/base_link,raphael/cliff_sensor_front_link,0.156,0.0,0.0214,0.0,0.707106781185,0.0,0.707106781188,0,1494450135043884784,raphael/base_link,raphael/cliff_sensor_left_link,0.08734,0.13601,0.0214,0.0,0.707106781185,0.0,0.707106781188,0,1494450135043884784,raphael/base_link,raphael/cliff_sensor_right_link,0.085,-0.13601,0.0214,0.0,0.707106781185,0.0,0.707106781188,0,1494450135043884784,raphael/base_link,raphael/gyro_link,0.056,0.062,0.0202,0.0,0.0,0.0,1.0
1494450135450702002,0,1494450134557523245,raphael/base_link,raphael/wheel_left_link,0.0,0.115,0.025,-0.700993179708,0.092782336686,0.0927823366864,0.700993179711,0,1494450134557523245,raphael/base_link,raphael/wheel_right_link,0.0,-0.115,0.025,-0.701437057821,0.0893647241007,0.0893647241012,0.701437057824
1494450135450710350,0,1494450134556673086,odom,base_footprint,0.0090409584989,-5.93962370875e-06,0.0,0.0,0.0,-0.000261799384809,0.999999965731
1494450135450718478,0,1494450135077952437,raphael/base_footprint,raphael/base_link,0.0,0.0,0.0102,0.0,0.0,0.0,1.0,0,1494450135077952437,raphael/base_link,raphael/caster_back_link,-0.135,0.0,0.009,-0.707106781185,0.0,0.0,0.707106781188,0,1494450135077952437,raphael/base_link,raphael/caster_front_link,0.115,0.0,0.007,-0.707106781185,0.0,0.0,0.707106781188,0,1494450135077952437,raphael/base_link,raphael/cliff_sensor_front_link,0.156,0.0,0.0214,0.0,0.707106781185,0.0,0.707106781188,0,1494450135077952437,raphael/base_link,raphael/cliff_sensor_left_link,0.08734,0.13601,0.0214,0.0,0.707106781185,0.0,0.707106781188,0,1494450135077952437,raphael/base_link,raphael/cliff_sensor_right_link,0.085,-0.13601,0.0214,0.0,0.707106781185,0.0,0.707106781188,0,1494450135077952437,raphael/base_link,raphael/gyro_link,0.056,0.062,0.0202,0.0,0.0,0.0,1.0
1494450135450727886,0,1494450134577091569,odom,base_footprint,0.00942477284379,-6.14058844815e-06,0.0,0.0,0.0,-0.00034906584331,0.999999939077
1494450135450734589,0,1494450134597065807,odom,base_footprint,0.00980858714775,-6.4085414245e-06,0.0,0.0,0.0,-0.000436332299153,0.999999904807
1494450135450741120,0,1494450134597232305,raphael/base_link,raphael/wheel_left_link,0.0,0.115,0.025,-0.699810657988,0.101316548319,0.101316548319,0.699810657992,0,1494450134597232305,raphael/base_link,raphael/wheel_right_link,0.0,-0.115,0.025,-0.700532650058,0.0961977453004,0.0961977453009,0.700532650061
1494450135450772560,0,1494450134617097169,odom,base_footprint,0.0103203394829,-6.85512969802e-06,0.0,0.0,0.0,-0.000523598751674,0.999999862922
1494450135450808727,0,1494450135111611468,raphael/base_footprint,raphael/base_link,0.0,0.0,0.0102,0.0,0.0,0.0,1.0,0,1494450135111611468,raphael/base_link,raphael/caster_back_link,-0.135,0.0,0.009,-0.707106781185,0.0,0.0,0.707106781188,0,1494450135111611468,raphael/base_link,raphael/caster_front_link,0.115,0.0,0.007,-0.707106781185,0.0,0.0,0.707106781188,0,1494450135111611468,raphael/base_link,raphael/cliff_sensor_front_link,0.156,0.0,0.0214,0.0,0.707106781185,0.0,0.707106781188,0,1494450135111611468,raphael/base_link,raphael/cliff_sensor_left_link,0.08734,0.13601,0.0214,0.0,0.707106781185,0.0,0.707106781188,0,1494450135111611468,raphael/base_link,raphael/cliff_sensor_right_link,0.085,-0.13601,0.0214,0.0,0.707106781185,0.0,0.707106781188,0,1494450135111611468,raphael/base_link,raphael/gyro_link,0.056,0.062,0.0202,0.0,0.0,0.0,1.0
1494450135450815372,0,1494450134637064406,odom,base_footprint,0.0108320917323,-7.39103559631e-06,0.0,0.0,0.0,-0.000698131644088,0.999999756306
1494450135450824278,0,1494450134637231780,raphael/base_link,raphael/wheel_left_link,0.0,0.115,0.025,-0.698118084181,0.11238834698,0.112388346981,0.698118084184,0,1494450134637231780,raphael/base_link,raphael/wheel_right_link,0.0,-0.115,0.025,-0.699180424754,0.105578092607,0.105578092608,0.699180424757
1494450135450831585,0,1494450135144541131,raphael/base_footprint,raphael/base_link,0.0,0.0,0.0102,0.0,0.0,0.0,1.0,0,1494450135144541131,raphael/base_link,raphael/caster_back_link,-0.135,0.0,0.009,-0.707106781185,0.0,0.0,0.707106781188,0,1494450135144541131,raphael/base_link,raphael/caster_front_link,0.115,0.0,0.007,-0.707106781185,0.0,0.0,0.707106781188,0,1494450135144541131,raphael/base_link,raphael/cliff_sensor_front_link,0.156,0.0,0.0214,0.0,0.707106781185,0.0,0.707106781188,0,1494450135144541131,raphael/base_link,raphael/cliff_sensor_left_link,0.08734,0.13601,0.0214,0.0,0.707106781185,0.0,0.707106781188,0,1494450135144541131,raphael/base_link,raphael/cliff_sensor_right_link,0.085,-0.13601,0.0214,0.0,0.707106781185,0.0,0.707106781188,0,1494450135144541131,raphael/base_link,raphael/gyro_link,0.056,0.062,0.0202,0.0,0.0,0.0,1.0
1494450135450839315,0,1494450134657069560,odom,base_footprint,0.0113011977609,-8.0460316011e-06,0.0,0.0,0.0,-0.000872664515235,0.999999619228
1494450135450843219,0,1494450134677150088,odom,base_footprint,0.011727657553,-8.79034510688e-06,0.0,0.0,0.0,-0.0010471973598,0.999999451689
1494450135450958181,0,1494450135177678750,raphael/base_footprint,raphael/base_link,0.0,0.0,0.0102,0.0,0.0,0.0,1.0,0,1494450135177678750,raphael/base_link,raphael/caster_back_link,-0.135,0.0,0.009,-0.707106781185,0.0,0.0,0.707106781188,0,1494450135177678750,raphael/base_link,raphael/caster_front_link,0.115,0.0,0.007,-0.707106781185,0.0,0.0,0.707106781188,0,1494450135177678750,raphael/base_link,raphael/cliff_sensor_front_link,0.156,0.0,0.0214,0.0,0.707106781185,0.0,0.707106781188,0,1494450135177678750,raphael/base_link,raphael/cliff_sensor_left_link,0.08734,0.13601,0.0214,0.0,0.707106781185,0.0,0.707106781188,0,1494450135177678750,raphael/base_link,raphael/cliff_sensor_right_link,0.085,-0.13601,0.0214,0.0,0.707106781185,0.0,0.707106781188,0,1494450135177678750,raphael/base_link,raphael/gyro_link,0.056,0.062,0.0202,0.0,0.0,0.0,1.0
1494450135451145901,0,1494450134697075034,odom,base_footprint,0.0122820549112,-9.95147391651e-06,0.0,0.0,0.0,-0.00113446377045,0.999999356496
1494450135451155847,0,1494450134717048980,odom,base_footprint,0.012793806124,-1.11126025788e-05,0.0,0.0,0.0,-0.00122173017247,0.999999253687
1494450135451161869,0,1494450134677362045,raphael/base_link,raphael/wheel_left_link,0.0,0.115,0.025,-0.696549078928,0.121734878497,0.121734878497,0.696549078931,0,1494450134677362045,raphael/base_link,raphael/wheel_right_link,0.0,-0.115,0.025,-0.697842130492,0.114089267278,0.114089267279,0.697842130495
1494450135451167808,0,1494450135211452530,raphael/base_footprint,raphael/base_link,0.0,0.0,0.0102,0.0,0.0,0.0,1.0,0,1494450135211452530,raphael/base_link,raphael/caster_back_link,-0.135,0.0,0.009,-0.707106781185,0.0,0.0,0.707106781188,0,1494450135211452530,raphael/base_link,raphael/caster_front_link,0.115,0.0,0.007,-0.707106781185,0.0,0.0,0.707106781188,0,1494450135211452530,raphael/base_link,raphael/cliff_sensor_front_link,0.156,0.0,0.0214,0.0,0.707106781185,0.0,0.707106781188,0,1494450135211452530,raphael/base_link,raphael/cliff_sensor_left_link,0.08734,0.13601,0.0214,0.0,0.707106781185,0.0,0.707106781188,0,1494450135211452530,raphael/base_link,raphael/cliff_sensor_right_link,0.085,-0.13601,0.0214,0.0,0.707106781185,0.0,0.707106781188,0,1494450135211452530,raphael/base_link,raphael/gyro_link,0.056,0.062,0.0202,0.0,0.0,0.0,1.0
1494450135452246796,0,1494450134717260562,raphael/base_link,raphael/wheel_left_link,0.0,0.115,0.025,-0.69453350229,0.132752454569,0.132752454569,0.694533502294,0,1494450134717260562,raphael/base_link,raphael/wheel_right_link,0.0,-0.115,0.025,-0.696099439703,0.124280207769,0.12428020777,0.696099439706
1494450135452253988,0,1494450134737272132,odom,base_footprint,0.01339084896,-1.25714563391e-05,0.0,0.0,0.0,-0.00130899656517,0.999999143264
1494450135452262427,0,1494450134757317577,odom,base_footprint,0.0139452456342,-1.40228667542e-05,0.0,0.0,0.0,-0.00148352932002,0.99999889957
1494450135452271037,0,1494450135244171445,raphael/base_footprint,raphael/base_link,0.0,0.0,0.0102,0.0,0.0,0.0,1.0,0,1494450135244171445,raphael/base_link,raphael/caster_back_link,-0.135,0.0,0.009,-0.707106781185,0.0,0.0,0.707106781188,0,1494450135244171445,raphael/base_link,raphael/caster_front_link,0.115,0.0,0.007,-0.707106781185,0.0,0.0,0.707106781188,0,1494450135244171445,raphael/base_link,raphael/cliff_sensor_front_link,0.156,0.0,0.0214,0.0,0.707106781185,0.0,0.707106781188,0,1494450135244171445,raphael/base_link,raphael/cliff_sensor_left_link,0.08734,0.13601,0.0214,0.0,0.707106781185,0.0,0.707106781188,0,1494450135244171445,raphael/base_link,raphael/cliff_sensor_right_link,0.085,-0.13601,0.0214,0.0,0.707106781185,0.0,0.707106781188,0,1494450135244171445,raphael/base_link,raphael/gyro_link,0.056,0.062,0.0202,0.0,0.0,0.0,1.0
1494450135452276894,0,1494450134757671782,raphael/base_link,raphael/wheel_left_link,0.0,0.115,0.025,-0.692343667848,0.143736723175,0.143736723175,0.692343667851,0,1494450134757671782,raphael/base_link,raphael/wheel_right_link,0.0,-0.115,0.025,-0.693878242429,0.136135905186,0.136135905186,0.693878242433
1494450135452283891,0,1494450135278068516,raphael/base_footprint,raphael/base_link,0.0,0.0,0.0102,0.0,0.0,0.0,1.0,0,1494450135278068516,raphael/base_link,raphael/caster_back_link,-0.135,0.0,0.009,-0.707106781185,0.0,0.0,0.707106781188,0,1494450135278068516,raphael/base_link,raphael/caster_front_link,0.115,0.0,0.007,-0.707106781185,0.0,0.0,0.707106781188,0,1494450135278068516,raphael/base_link,raphael/cliff_sensor_front_link,0.156,0.0,0.0214,0.0,0.707106781185,0.0,0.707106781188,0,1494450135278068516,raphael/base_link,raphael/cliff_sensor_left_link,0.08734,0.13601,0.0214,0.0,0.707106781185,0.0,0.707106781188,0,1494450135278068516,raphael/base_link,raphael/cliff_sensor_right_link,0.085,-0.13601,0.0214,0.0,0.707106781185,0.0,0.707106781188,0,1494450135278068516,raphael/base_link,raphael/gyro_link,0.056,0.062,0.0202,0.0,0.0,0.0,1.0
1494450135452292028,0,1494450134781677733,odom,base_footprint,0.0144569959117,-1.5541264849e-05,0.0,0.0,0.0,-0.00148352932002,0.99999889957
1494450135452297681,0,1494450134797681423,odom,base_footprint,0.0150113920455,-1.71861961184e-05,0.0,0.0,0.0,-0.00139626294791,0.999999025224
1494450135452304622,0,1494450134797982170,raphael/base_link,raphael/wheel_left_link,0.0,0.115,0.025,-0.689980125027,0.154684928371,0.154684928372,0.68998012503,0,1494450134797982170,raphael/base_link,raphael/wheel_right_link,0.0,-0.115,0.025,-0.6918136319,0.146266533135,0.146266533135,0.691813631903
1494450135452310782,0,1494450135311627965,raphael/base_footprint,raphael/base_link,0.0,0.0,0.0102,0.0,0.0,0.0,1.0,0,1494450135311627965,raphael/base_link,raphael/caster_back_link,-0.135,0.0,0.009,-0.707106781185,0.0,0.0,0.707106781188,0,1494450135311627965,raphael/base_link,raphael/caster_front_link,0.115,0.0,0.007,-0.707106781185,0.0,0.0,0.707106781188,0,1494450135311627965,raphael/base_link,raphael/cliff_sensor_front_link,0.156,0.0,0.0214,0.0,0.707106781185,0.0,0.707106781188,0,1494450135311627965,raphael/base_link,raphael/cliff_sensor_left_link,0.08734,0.13601,0.0214,0.0,0.707106781185,0.0,0.707106781188,0,1494450135311627965,raphael/base_link,raphael/cliff_sensor_right_link,0.085,-0.13601,0.0214,0.0,0.707106781185,0.0,0.707106781188,0,1494450135311627965,raphael/base_link,raphael/gyro_link,0.056,0.062,0.0202,0.0,0.0,0.0,1.0
1494450135452317138,0,1494450134817096207,odom,base_footprint,0.0156084343359,-1.88534570509e-05,0.0,0.0,0.0,-0.00122173017247,0.999999253687
1494450135452324293,0,1494450134837016195,odom,base_footprint,0.0161628312551,-2.02081069711e-05,0.0,0.0,0.0,-0.00113446377045,0.999999356496
1494450135452334864,0,1494450134837232860,raphael/base_link,raphael/wheel_left_link,0.0,0.115,0.025,-0.687644726281,0.164756579277,0.164756579278,0.687644726285,0,1494450134837232860,raphael/base_link,raphael/wheel_right_link,0.0,-0.115,0.025,-0.689024940482,0.158885592145,0.158885592145,0.689024940486
1494450135452341497,0,1494450135344820875,raphael/base_footprint,raphael/base_link,0.0,0.0,0.0102,0.0,0.0,0.0,1.0,0,1494450135344820875,raphael/base_link,raphael/caster_back_link,-0.135,0.0,0.009,-0.707106781185,0.0,0.0,0.707106781188,0,1494450135344820875,raphael/base_link,raphael/caster_front_link,0.115,0.0,0.007,-0.707106781185,0.0,0.0,0.707106781188,0,1494450135344820875,raphael/base_link,raphael/cliff_sensor_front_link,0.156,0.0,0.0214,0.0,0.707106781185,0.0,0.707106781188,0,1494450135344820875,raphael/base_link,raphael/cliff_sensor_left_link,0.08734,0.13601,0.0214,0.0,0.707106781185,0.0,0.707106781188,0,1494450135344820875,raphael/base_link,raphael/cliff_sensor_right_link,0.085,-0.13601,0.0214,0.0,0.707106781185,0.0,0.707106781188,0,1494450135344820875,raphael/base_link,raphael/gyro_link,0.056,0.062,0.0202,0.0,0.0,0.0,1.0
1494450135452347805,0,1494450134857322180,odom,base_footprint,0.0167172284022,-2.14659963553e-05,0.0,0.0,0.0,-0.000959930941173,0.999999539266
1494450135452357137,0,1494450135377759955,raphael/base_footprint,raphael/base_link,0.0,0.0,0.0102,0.0,0.0,0.0,1.0,0,1494450135377759955,raphael/base_link,raphael/caster_back_link,-0.135,0.0,0.009,-0.707106781185,0.0,0.0,0.707106781188,0,1494450135377759955,raphael/base_link,raphael/caster_front_link,0.115,0.0,0.007,-0.707106781185,0.0,0.0,0.707106781188,0,1494450135377759955,raphael/base_link,raphael/cliff_sensor_front_link,0.156,0.0,0.0214,0.0,0.707106781185,0.0,0.707106781188,0,1494450135377759955,raphael/base_link,raphael/cliff_sensor_left_link,0.08734,0.13601,0.0214,0.0,0.707106781185,0.0,0.707106781188,0,1494450135377759955,raphael/base_link,raphael/cliff_sensor_right_link,0.085,-0.13601,0.0214,0.0,0.707106781185,0.0,0.707106781188,0,1494450135377759955,raphael/base_link,raphael/gyro_link,0.056,0.062,0.0202,0.0,0.0,0.0,1.0
1494450135452364145,0,1494450134877266542,odom,base_footprint,0.0181245452661,-2.41678540932e-05,0.0,0.0,0.0,-0.000698131644088,0.999999756306
1494450135452374253,0,1494450134897265446,odom,base_footprint,0.0194465713466,-2.60137519249e-05,0.0,0.0,0.0,-0.000610865200207,0.999999813422
1494450135452385286,0,1494450134877573665,raphael/base_link,raphael/wheel_left_link,0.0,0.115,0.025,-0.682533436182,0.184792068259,0.18479206826,0.682533436185,0,1494450134877573665,raphael/base_link,raphael/wheel_right_link,0.0,-0.115,0.025,-0.684518809676,0.177296359798,0.177296359799,0.684518809679
1494450135452391863,0,1494450135410532036,raphael/base_footprint,raphael/base_link,0.0,0.0,0.0102,0.0,0.0,0.0,1.0,0,1494450135410532036,raphael/base_link,raphael/caster_back_link,-0.135,0.0,0.009,-0.707106781185,0.0,0.0,0.707106781188,0,1494450135410532036,raphael/base_link,raphael/caster_front_link,0.115,0.0,0.007,-0.707106781185,0.0,0.0,0.707106781188,0,1494450135410532036,raphael/base_link,raphael/cliff_sensor_front_link,0.156,0.0,0.0214,0.0,0.707106781185,0.0,0.707106781188,0,1494450135410532036,raphael/base_link,raphael/cliff_sensor_left_link,0.08734,0.13601,0.0214,0.0,0.707106781185,0.0,0.707106781188,0,1494450135410532036,raphael/base_link,raphael/cliff_sensor_right_link,0.085,-0.13601,0.0214,0.0,0.707106781185,0.0,0.707106781188,0,1494450135410532036,raphael/base_link,raphael/gyro_link,0.056,0.062,0.0202,0.0,0.0,0.0,1.0
1494450135452398381,0,1494450134917569806,raphael/base_link,raphael/wheel_left_link,0.0,0.115,0.025,-0.674034611367,0.213722583452,0.213722583453,0.67403461137,0,1494450134917569806,raphael/base_link,raphael/wheel_right_link,0.0,-0.115,0.025,-0.676588633364,0.205494090428,0.205494090429,0.676588633367
1494450135452405966,0,1494450135444340482,raphael/base_footprint,raphael/base_link,0.0,0.0,0.0102,0.0,0.0,0.0,1.0,0,1494450135444340482,raphael/base_link,raphael/caster_back_link,-0.135,0.0,0.009,-0.707106781185,0.0,0.0,0.707106781188,0,1494450135444340482,raphael/base_link,raphael/caster_front_link,0.115,0.0,0.007,-0.707106781185,0.0,0.0,0.707106781188,0,1494450135444340482,raphael/base_link,raphael/cliff_sensor_front_link,0.156,0.0,0.0214,0.0,0.707106781185,0.0,0.707106781188,0,1494450135444340482,raphael/base_link,raphael/cliff_sensor_left_link,0.08734,0.13601,0.0214,0.0,0.707106781185,0.0,0.707106781188,0,1494450135444340482,raphael/base_link,raphael/cliff_sensor_right_link,0.085,-0.13601,0.0214,0.0,0.707106781185,0.0,0.707106781188,0,1494450135444340482,raphael/base_link,raphael/gyro_link,0.056,0.062,0.0202,0.0,0.0,0.0,1.0
1494450135452412644,0,1494450134958159358,raphael/base_link,raphael/wheel_left_link,0.0,0.115,0.025,-0.664604811602,0.241454849595,0.241454849596,0.664604811605,0,1494450134958159358,raphael/base_link,raphael/wheel_right_link,0.0,-0.115,0.025,-0.66918546295,0.228453094035,0.228453094036,0.669185462953
1494450135452418519,0,1494450134917260267,odom,base_footprint,0.0210671198155,-2.79936263629e-05,0.0,0.0,0.0,-0.000698131644088,0.999999756306
1494450135452424737,0,1494450134937435961,odom,base_footprint,0.0224744379012,-2.99586143773e-05,0.0,0.0,0.0,-0.000785398082652,0.999999691575
1494450135452433878,0,1494450134957973818,odom,base_footprint,0.0237111716563,-3.19012728147e-05,0.0,0.0,0.0,-0.00130899656517,0.999999143264
1494450135452443110,0,1494450135478051221,raphael/base_footprint,raphael/base_link,0.0,0.0,0.0102,0.0,0.0,0.0,1.0,0,1494450135478051221,raphael/base_link,raphael/caster_back_link,-0.135,0.0,0.009,-0.707106781185,0.0,0.0,0.707106781188,0,1494450135478051221,raphael/base_link,raphael/caster_front_link,0.115,0.0,0.007,-0.707106781185,0.0,0.0,0.707106781188,0,1494450135478051221,raphael/base_link,raphael/cliff_sensor_front_link,0.156,0.0,0.0214,0.0,0.707106781185,0.0,0.707106781188,0,1494450135478051221,raphael/base_link,raphael/cliff_sensor_left_link,0.08734,0.13601,0.0214,0.0,0.707106781185,0.0,0.707106781188,0,1494450135478051221,raphael/base_link,raphael/cliff_sensor_right_link,0.085,-0.13601,0.0214,0.0,0.707106781185,0.0,0.707106781188,0,1494450135478051221,raphael/base_link,raphael/gyro_link,0.056,0.062,0.0202,0.0,0.0,0.0,1.0
1494450135452449734,0,1494450134997178341,raphael/base_link,raphael/wheel_left_link,0.0,0.115,0.025,-0.656303152223,0.263184673526,0.263184673528,0.656303152227,0,1494450134997178341,raphael/base_link,raphael/wheel_right_link,0.0,-0.115,0.025,-0.661613523127,0.249534658941,0.249534658943,0.66161352313
1494450135452456127,0,1494450134976994022,odom,base_footprint,0.0248199650048,-3.48040936451e-05,0.0,0.0,0.0,-0.00165806202968,0.999998625414
1494450135452462922,0,1494450134996989510,odom,base_footprint,0.0259714018663,-3.86224168701e-05,0.0,0.0,0.0,-0.0019198609978,0.999998157065
1494450135452471118,0,1494450135510655304,raphael/base_footprint,raphael/base_link,0.0,0.0,0.0102,0.0,0.0,0.0,1.0,0,1494450135510655304,raphael/base_link,raphael/caster_back_link,-0.135,0.0,0.009,-0.707106781185,0.0,0.0,0.707106781188,0,1494450135510655304,raphael/base_link,raphael/caster_front_link,0.115,0.0,0.007,-0.707106781185,0.0,0.0,0.707106781188,0,1494450135510655304,raphael/base_link,raphael/cliff_sensor_front_link,0.156,0.0,0.0214,0.0,0.707106781185,0.0,0.707106781188,0,1494450135510655304,raphael/base_link,raphael/cliff_sensor_left_link,0.08734,0.13601,0.0214,0.0,0.707106781185,0.0,0.707106781188,0,1494450135510655304,raphael/base_link,raphael/cliff_sensor_right_link,0.085,-0.13601,0.0214,0.0,0.707106781185,0.0,0.707106781188,0,1494450135510655304,raphael/base_link,raphael/gyro_link,0.056,0.062,0.0202,0.0,0.0,0.0,1.0
1494450135452477234,0,1494450135018344526,odom,base_footprint,0.0273360652196,-4.38623737352e-05,0.0,0.0,0.0,-0.0019198609978,0.999998157065
1494450135455367786,0,1494450135036942610,odom,base_footprint,0.0288713114921,-4.97573252084e-05,0.0,0.0,0.0,-0.00183259468883,0.999998320797
1494450135455374719,0,1494450135037103192,raphael/base_link,raphael/wheel_left_link,0.0,0.115,0.025,-0.645193102068,0.289354213796,0.289354213797,0.645193102071,0,1494450135037103192,raphael/base_link,raphael/wheel_right_link,0.0,-0.115,0.025,-0.650373540241,0.277514428728,0.277514428729,0.650373540244
1494450135455388051,0,1494450135544711082,raphael/base_footprint,raphael/base_link,0.0,0.0,0.0102,0.0,0.0,0.0,1.0,0,1494450135544711082,raphael/base_link,raphael/caster_back_link,-0.135,0.0,0.009,-0.707106781185,0.0,0.0,0.707106781188,0,1494450135544711082,raphael/base_link,raphael/caster_front_link,0.115,0.0,0.007,-0.707106781185,0.0,0.0,0.707106781188,0,1494450135544711082,raphael/base_link,raphael/cliff_sensor_front_link,0.156,0.0,0.0214,0.0,0.707106781185,0.0,0.707106781188,0,1494450135544711082,raphael/base_link,raphael/cliff_sensor_left_link,0.08734,0.13601,0.0214,0.0,0.707106781185,0.0,0.707106781188,0,1494450135544711082,raphael/base_link,raphael/cliff_sensor_right_link,0.085,-0.13601,0.0214,0.0,0.707106781185,0.0,0.707106781188,0,1494450135544711082,raphael/base_link,raphael/gyro_link,0.056,0.062,0.0202,0.0,0.0,0.0,1.0
1494450135455394362,0,1494450135056965555,odom,base_footprint,0.0305344960432,-5.58532422672e-05,0.0,0.0,0.0,-0.00148352932002,0.99999889957
1494450135455400554,0,1494450135577226457,raphael/base_footprint,raphael/base_link,0.0,0.0,0.0102,0.0,0.0,0.0,1.0,0,1494450135577226457,raphael/base_link,raphael/caster_back_link,-0.135,0.0,0.009,-0.707106781185,0.0,0.0,0.707106781188,0,1494450135577226457,raphael/base_link,raphael/caster_front_link,0.115,0.0,0.007,-0.707106781185,0.0,0.0,0.707106781188,0,1494450135577226457,raphael/base_link,raphael/cliff_sensor_front_link,0.156,0.0,0.0214,0.0,0.707106781185,0.0,0.707106781188,0,1494450135577226457,raphael/base_link,raphael/cliff_sensor_left_link,0.08734,0.13601,0.0214,0.0,0.707106781185,0.0,0.707106781188,0,1494450135577226457,raphael/base_link,raphael/cliff_sensor_right_link,0.085,-0.13601,0.0214,0.0,0.707106781185,0.0,0.707106781188,0,1494450135577226457,raphael/base_link,raphael/gyro_link,0.056,0.062,0.0202,0.0,0.0,0.0,1.0
1494450135455407274,0,1494450135076950792,odom,base_footprint,0.0331358932868,-6.35717659158e-05,0.0,0.0,0.0,-0.00122173017247,0.999999253687
1494450135455414363,0,1494450135097032987,odom,base_footprint,0.0352681891296,-6.87819579168e-05,0.0,0.0,0.0,-0.00122173017247,0.999999253687
1494450135455420509,0,1494450135117066433,odom,base_footprint,0.0376563604737,-7.4617372958e-05,0.0,0.0,0.0,-0.00157079568083,0.9999987663
1494450135455428403,0,1494450135077104791,raphael/base_link,raphael/wheel_left_link,0.0,0.115,0.025,-0.625577309623,0.329625590151,0.329625590153,0.625577309626,0,1494450135077104791,raphael/base_link,raphael/wheel_right_link,0.0,-0.115,0.025,-0.633040061065,0.315055996744,0.315055996746,0.633040061068
1494450135455434901,0,1494450135610982529,raphael/base_footprint,raphael/base_link,0.0,0.0,0.0102,0.0,0.0,0.0,1.0,0,1494450135610982529,raphael/base_link,raphael/caster_back_link,-0.135,0.0,0.009,-0.707106781185,0.0,0.0,0.707106781188,0,1494450135610982529,raphael/base_link,raphael/caster_front_link,0.115,0.0,0.007,-0.707106781185,0.0,0.0,0.707106781188,0,1494450135610982529,raphael/base_link,raphael/cliff_sensor_front_link,0.156,0.0,0.0214,0.0,0.707106781185,0.0,0.707106781188,0,1494450135610982529,raphael/base_link,raphael/cliff_sensor_left_link,0.08734,0.13601,0.0214,0.0,0.707106781185,0.0,0.707106781188,0,1494450135610982529,raphael/base_link,raphael/cliff_sensor_right_link,0.085,-0.13601,0.0214,0.0,0.707106781185,0.0,0.707106781188,0,1494450135610982529,raphael/base_link,raphael/gyro_link,0.056,0.062,0.0202,0.0,0.0,0.0,1.0
1494450135455443031,0,1494450135117436763,raphael/base_link,raphael/wheel_left_link,0.0,0.115,0.025,-0.603450996528,0.368574137437,0.368574137439,0.603450996531,0,1494450135117436763,raphael/base_link,raphael/wheel_right_link,0.0,-0.115,0.025,-0.610955564854,0.355996204715,0.355996204717,0.610955564857
1494450135455451328,0,1494450135138181118,odom,base_footprint,0.0399165896607,-8.17181157279e-05,0.0,0.0,0.0,-0.00165806202968,0.999998625414
1494450135455457632,0,1494450135157155698,odom,base_footprint,0.0420915259546,-8.89305040418e-05,0.0,0.0,0.0,-0.00148352932002,0.99999889957
1494450135455602199,0,1494450135644136065,raphael/base_footprint,raphael/base_link,0.0,0.0,0.0102,0.0,0.0,0.0,1.0,0,1494450135644136065,raphael/base_link,raphael/caster_back_link,-0.135,0.0,0.009,-0.707106781185,0.0,0.0,0.707106781188,0,1494450135644136065,raphael/base_link,raphael/caster_front_link,0.115,0.0,0.007,-0.707106781185,0.0,0.0,0.707106781188,0,1494450135644136065,raphael/base_link,raphael/cliff_sensor_front_link,0.156,0.0,0.0214,0.0,0.707106781185,0.0,0.707106781188,0,1494450135644136065,raphael/base_link,raphael/cliff_sensor_left_link,0.08734,0.13601,0.0214,0.0,0.707106781185,0.0,0.707106781188,0,1494450135644136065,raphael/base_link,raphael/cliff_sensor_right_link,0.085,-0.13601,0.0214,0.0,0.707106781185,0.0,0.707106781188,0,1494450135644136065,raphael/base_link,raphael/gyro_link,0.056,0.062,0.0202,0.0,0.0,0.0,1.0
1494450135455886734,0,1494450135157358946,raphael/base_link,raphael/wheel_left_link,0.0,0.115,0.025,-0.579397275791,0.405337879804,0.405337879806,0.579397275794,0,1494450135157358946,raphael/base_link,raphael/wheel_right_link,0.0,-0.115,0.025,-0.586708404088,0.394681198653,0.394681198655,0.586708404091
1494450135455893880,0,1494450135678051261,raphael/base_footprint,raphael/base_link,0.0,0.0,0.0102,0.0,0.0,0.0,1.0,0,1494450135678051261,raphael/base_link,raphael/caster_back_link,-0.135,0.0,0.009,-0.707106781185,0.0,0.0,0.707106781188,0,1494450135678051261,raphael/base_link,raphael/caster_front_link,0.115,0.0,0.007,-0.707106781185,0.0,0.0,0.707106781188,0,1494450135678051261,raphael/base_link,raphael/cliff_sensor_front_link,0.156,0.0,0.0214,0.0,0.707106781185,0.0,0.707106781188,0,1494450135678051261,raphael/base_link,raphael/cliff_sensor_left_link,0.08734,0.13601,0.0214,0.0,0.707106781185,0.0,0.707106781188,0,1494450135678051261,raphael/base_link,raphael/cliff_sensor_right_link,0.085,-0.13601,0.0214,0.0,0.707106781185,0.0,0.707106781188,0,1494450135678051261,raphael/base_link,raphael/gyro_link,0.056,0.062,0.0202,0.0,0.0,0.0,1.0
1494450135455902521,0,1494450135177486016,odom,base_footprint,0.0440105894949,-9.46244968973e-05,0.0,0.0,0.0,-0.00113446377045,0.999999356496
1494450135455908120,0,1494450135198061081,odom,base_footprint,0.0460575943458,-9.92690115463e-05,0.0,0.0,0.0,-0.000785398082652,0.999999691575
1494450135455916345,0,1494450135198274162,raphael/base_link,raphael/wheel_left_link,0.0,0.115,0.025,-0.555780501108,0.43715904953,0.437159049532,0.55578050111,0,1494450135198274162,raphael/base_link,raphael/wheel_right_link,0.0,-0.115,0.025,-0.563156519888,0.427615170575,0.427615170577,0.56315651989
1494450135455922515,0,1494450135711466294,raphael/base_footprint,raphael/base_link,0.0,0.0,0.0102,0.0,0.0,0.0,1.0,0,1494450135711466294,raphael/base_link,raphael/caster_back_link,-0.135,0.0,0.009,-0.707106781185,0.0,0.0,0.707106781188,0,1494450135711466294,raphael/base_link,raphael/caster_front_link,0.115,0.0,0.007,-0.707106781185,0.0,0.0,0.707106781188,0,1494450135711466294,raphael/base_link,raphael/cliff_sensor_front_link,0.156,0.0,0.0214,0.0,0.707106781185,0.0,0.707106781188,0,1494450135711466294,raphael/base_link,raphael/cliff_sensor_left_link,0.08734,0.13601,0.0214,0.0,0.707106781185,0.0,0.707106781188,0,1494450135711466294,raphael/base_link,raphael/cliff_sensor_right_link,0.085,-0.13601,0.0214,0.0,0.707106781185,0.0,0.707106781188,0,1494450135711466294,raphael/base_link,raphael/gyro_link,0.056,0.062,0.0202,0.0,0.0,0.0,1.0
1494450135455934356,0,1494450135217970861,odom,base_footprint,0.0483178318982,-0.000102819387311,0.0,0.0,0.0,-0.000610865200207,0.999999813422
1494450135456146116,0,1494450135237004565,odom,base_footprint,0.0507060085892,-0.000105737097009,0.0,0.0,0.0,-0.000610865200207,0.999999813422
1494450135456152857,0,1494450135237192563,raphael/base_link,raphael/wheel_left_link,0.0,0.115,0.025,-0.524681366635,0.47403529774,0.474035297742,0.524681366638,0,1494450135237192563,raphael/base_link,raphael/wheel_right_link,0.0,-0.115,0.025,-0.534387177274,0.463066242305,0.463066242307,0.534387177277
1494450135456165023,0,1494450135744132959,raphael/base_footprint,raphael/base_link,0.0,0.0,0.0102,0.0,0.0,0.0,1.0,0,1494450135744132959,raphael/base_link,raphael/caster_back_link,-0.135,0.0,0.009,-0.707106781185,0.0,0.0,0.707106781188,0,1494450135744132959,raphael/base_link,raphael/caster_front_link,0.115,0.0,0.007,-0.707106781185,0.0,0.0,0.707106781188,0,1494450135744132959,raphael/base_link,raphael/cliff_sensor_front_link,0.156,0.0,0.0214,0.0,0.707106781185,0.0,0.707106781188,0,1494450135744132959,raphael/base_link,raphael/cliff_sensor_left_link,0.08734,0.13601,0.0214,0.0,0.707106781185,0.0,0.707106781188,0,1494450135744132959,raphael/base_link,raphael/cliff_sensor_right_link,0.085,-0.13601,0.0214,0.0,0.707106781185,0.0,0.707106781188,0,1494450135744132959,raphael/base_link,raphael/gyro_link,0.056,0.062,0.0202,0.0,0.0,0.0,1.0
1494450135456171859,0,1494450135256969011,odom,base_footprint,0.0531368312926,-0.000108706908666,0.0,0.0,0.0,-0.000698131644088,0.999999756306
1494450135456178611,0,1494450135276992790,odom,base_footprint,0.0555676534406,-0.000112100978873,0.0,0.0,0.0,-0.000785398082652,0.999999691575
1494450135456276286,0,1494450135777943365,raphael/base_footprint,raphael/base_link,0.0,0.0,0.0102,0.0,0.0,0.0,1.0,0,1494450135777943365,raphael/base_link,raphael/caster_back_link,-0.135,0.0,0.009,-0.707106781185,0.0,0.0,0.707106781188,0,1494450135777943365,raphael/base_link,raphael/caster_front_link,0.115,0.0,0.007,-0.707106781185,0.0,0.0,0.707106781188,0,1494450135777943365,raphael/base_link,raphael/cliff_sensor_front_link,0.156,0.0,0.0214,0.0,0.707106781185,0.0,0.707106781188,0,1494450135777943365,raphael/base_link,raphael/cliff_sensor_left_link,0.08734,0.13601,0.0214,0.0,0.707106781185,0.0,0.707106781188,0,1494450135777943365,raphael/base_link,raphael/cliff_sensor_right_link,0.085,-0.13601,0.0214,0.0,0.707106781185,0.0,0.707106781188,0,1494450135777943365,raphael/base_link,raphael/gyro_link,0.056,0.062,0.0202,0.0,0.0,0.0,1.0
1494450135456283403,0,1494450135296972236,odom,base_footprint,0.0578278909929,-0.000115651354638,0.0,0.0,0.0,-0.000785398082652,0.999999691575
1494450135456290621,0,1494450135317910381,odom,base_footprint,0.0600454825538,-0.000119134742181,0.0,0.0,0.0,-0.000610865200207,0.999999813422
1494450135456296519,0,1494450135277176538,raphael/base_link,raphael/wheel_left_link,0.0,0.115,0.025,-0.491140350552,0.508705372546,0.508705372549,0.491140350554,0,1494450135277176538,raphael/base_link,raphael/wheel_right_link,0.0,-0.115,0.025,-0.500355348971,0.499644398301,0.499644398304,0.500355348973
1494450135456303980,0,1494450135810761487,raphael/base_footprint,raphael/base_link,0.0,0.0,0.0102,0.0,0.0,0.0,1.0,0,1494450135810761487,raphael/base_link,raphael/caster_back_link,-0.135,0.0,0.009,-0.707106781185,0.0,0.0,0.707106781188,0,1494450135810761487,raphael/base_link,raphael/caster_front_link,0.115,0.0,0.007,-0.707106781185,0.0,0.0,0.707106781188,0,1494450135810761487,raphael/base_link,raphael/cliff_sensor_front_link,0.156,0.0,0.0214,0.0,0.707106781185,0.0,0.707106781188,0,1494450135810761487,raphael/base_link,raphael/cliff_sensor_left_link,0.08734,0.13601,0.0214,0.0,0.707106781185,0.0,0.707106781188,0,1494450135810761487,raphael/base_link,raphael/cliff_sensor_right_link,0.085,-0.13601,0.0214,0.0,0.707106781185,0.0,0.707106781188,0,1494450135810761487,raphael/base_link,raphael/gyro_link,0.056,0.062,0.0202,0.0,0.0,0.0,1.0
1494450135456381889,0,1494450135318101254,raphael/base_link,raphael/wheel_left_link,0.0,0.115,0.025,-0.457944918011,0.538782379134,0.538782379136,0.457944918014,0,1494450135318101254,raphael/base_link,raphael/wheel_right_link,0.0,-0.115,0.025,-0.467068620144,0.530892554171,0.530892554173,0.467068620147
1494450135456388407,0,1494450135337979868,odom,base_footprint,0.0623057212078,-0.000121896146003,0.0,0.0,0.0,-0.000261799384809,0.999999965731
1494450135456394234,0,1494450135358089729,odom,base_footprint,0.0646086072771,-0.000123101934439,0.0,0.0,0.0,-0.000261799384809,0.999999965731
1494450135456401245,0,1494450135844562892,raphael/base_footprint,raphael/base_link,0.0,0.0,0.0102,0.0,0.0,0.0,1.0,0,1494450135844562892,raphael/base_link,raphael/caster_back_link,-0.135,0.0,0.009,-0.707106781185,0.0,0.0,0.707106781188,0,1494450135844562892,raphael/base_link,raphael/caster_front_link,0.115,0.0,0.007,-0.707106781185,0.0,0.0,0.707106781188,0,1494450135844562892,raphael/base_link,raphael/cliff_sensor_front_link,0.156,0.0,0.0214,0.0,0.707106781185,0.0,0.707106781188,0,1494450135844562892,raphael/base_link,raphael/cliff_sensor_left_link,0.08734,0.13601,0.0214,0.0,0.707106781185,0.0,0.707106781188,0,1494450135844562892,raphael/base_link,raphael/cliff_sensor_right_link,0.085,-0.13601,0.0214,0.0,0.707106781185,0.0,0.707106781188,0,1494450135844562892,raphael/base_link,raphael/gyro_link,0.056,0.062,0.0202,0.0,0.0,0.0,1.0
1494450135456449395,0,1494450135358455809,raphael/base_link,raphael/wheel_left_link,0.0,0.115,0.025,-0.421529446482,0.56772610099,0.567726100993,0.421529446484,0,1494450135358455809,raphael/base_link,raphael/wheel_right_link,0.0,-0.115,0.025,-0.431834725621,0.55992746829,0.559927468293,0.431834725623
1494450135456457424,0,1494450135877333348,raphael/base_footprint,raphael/base_link,0.0,0.0,0.0102,0.0,0.0,0.0,1.0,0,1494450135877333348,raphael/base_link,raphael/caster_back_link,-0.135,0.0,0.009,-0.707106781185,0.0,0.0,0.707106781188,0,1494450135877333348,raphael/base_link,raphael/caster_front_link,0.115,0.0,0.007,-0.707106781185,0.0,0.0,0.707106781188,0,1494450135877333348,raphael/base_link,raphael/cliff_sensor_front_link,0.156,0.0,0.0214,0.0,0.707106781185,0.0,0.707106781188,0,1494450135877333348,raphael/base_link,raphael/cliff_sensor_left_link,0.08734,0.13601,0.0214,0.0,0.707106781185,0.0,0.707106781188,0,1494450135877333348,raphael/base_link,raphael/cliff_sensor_right_link,0.085,-0.13601,0.0214,0.0,0.707106781185,0.0,0.707106781188,0,1494450135877333348,raphael/base_link,raphael/gyro_link,0.056,0.062,0.0202,0.0,0.0,0.0,1.0
1494450135456512675,0,1494450135378391714,odom,base_footprint,0.0670394314614,-0.000124374711122,0.0,0.0,0.0,-0.000174532924313,0.999999984769
1494450135456518418,0,1494450135397966538,odom,base_footprint,0.0692996716645,-0.000125163683823,0.0,0.0,0.0,0.000174532924313,0.999999984769
1494450135456527301,0,1494450135398155078,raphael/base_link,raphael/wheel_left_link,0.0,0.115,0.025,-0.383289742537,0.594212902303,0.594212902306,0.383289742539,0,1494450135398155078,raphael/base_link,raphael/wheel_right_link,0.0,-0.115,0.025,-0.392653573591,0.588067318548,0.588067318551,0.392653573592
1494450135456562495,0,1494450135911101795,raphael/base_footprint,raphael/base_link,0.0,0.0,0.0102,0.0,0.0,0.0,1.0,0,1494450135911101795,raphael/base_link,raphael/caster_back_link,-0.135,0.0,0.009,-0.707106781185,0.0,0.0,0.707106781188,0,1494450135911101795,raphael/base_link,raphael/caster_front_link,0.115,0.0,0.007,-0.707106781185,0.0,0.0,0.707106781188,0,1494450135911101795,raphael/base_link,raphael/cliff_sensor_front_link,0.156,0.0,0.0214,0.0,0.707106781185,0.0,0.707106781188,0,1494450135911101795,raphael/base_link,raphael/cliff_sensor_left_link,0.08734,0.13601,0.0214,0.0,0.707106781185,0.0,0.707106781188,0,1494450135911101795,raphael/base_link,raphael/cliff_sensor_right_link,0.085,-0.13601,0.0214,0.0,0.707106781185,0.0,0.707106781188,0,1494450135911101795,raphael/base_link,raphael/gyro_link,0.056,0.062,0.0202,0.0,0.0,0.0,1.0
1494450135456569288,0,1494450135417962317,odom,base_footprint,0.0716025579092,-0.000124359824845,0.0,0.0,0.0,0.00034906584331,0.999999939077
1494450135456575287,0,1494450135438275010,odom,base_footprint,0.0736922135642,-0.000122900969751,0.0,0.0,0.0,0.000174532924313,0.999999984769
1494450135456640929,0,1494450135438545882,raphael/base_link,raphael/wheel_left_link,0.0,0.115,0.025,-0.345648485436,0.616868806566,0.616868806569,0.345648485437,0,1494450135438545882,raphael/base_link,raphael/wheel_right_link,0.0,-0.115,0.025,-0.354630764703,0.611749148527,0.61174914853,0.354630764705
1494450135456650298,0,1494450135944826118,raphael/base_footprint,raphael/base_link,0.0,0.0,0.0102,0.0,0.0,0.0,1.0,0,1494450135944826118,raphael/base_link,raphael/caster_back_link,-0.135,0.0,0.009,-0.707106781185,0.0,0.0,0.707106781188,0,1494450135944826118,raphael/base_link,raphael/caster_front_link,0.115,0.0,0.007,-0.707106781185,0.0,0.0,0.707106781188,0,1494450135944826118,raphael/base_link,raphael/cliff_sensor_front_link,0.156,0.0,0.0214,0.0,0.707106781185,0.0,0.707106781188,0,1494450135944826118,raphael/base_link,raphael/cliff_sensor_left_link,0.08734,0.13601,0.0214,0.0,0.707106781185,0.0,0.707106781188,0,1494450135944826118,raphael/base_link,raphael/cliff_sensor_right_link,0.085,-0.13601,0.0214,0.0,0.707106781185,0.0,0.707106781188,0,1494450135944826118,raphael/base_link,raphael/gyro_link,0.056,0.062,0.0202,0.0,0.0,0.0,1.0
1494450135456671245,0,1494450135457920792,odom,base_footprint,0.0758671616842,-0.000122141769605,0.0,0.0,0.0,-8.72664624889e-05,0.999999996192
1494450135456678530,0,1494450135978016195,raphael/base_footprint,raphael/base_link,0.0,0.0,0.0102,0.0,0.0,0.0,1.0,0,1494450135978016195,raphael/base_link,raphael/caster_back_link,-0.135,0.0,0.009,-0.707106781185,0.0,0.0,0.707106781188,0,1494450135978016195,raphael/base_link,raphael/caster_front_link,0.115,0.0,0.007,-0.707106781185,0.0,0.0,0.707106781188,0,1494450135978016195,raphael/base_link,raphael/cliff_sensor_front_link,0.156,0.0,0.0214,0.0,0.707106781185,0.0,0.707106781188,0,1494450135978016195,raphael/base_link,raphael/cliff_sensor_left_link,0.08734,0.13601,0.0214,0.0,0.707106781185,0.0,0.707106781188,0,1494450135978016195,raphael/base_link,raphael/cliff_sensor_right_link,0.085,-0.13601,0.0214,0.0,0.707106781185,0.0,0.707106781188,0,1494450135978016195,raphael/base_link,raphael/gyro_link,0.056,0.062,0.0202,0.0,0.0,0.0,1.0
1494450135456712180,0,1494450135477938779,odom,base_footprint,0.0780847559471,-0.000122528812823,0.0,0.0,0.0,-8.72664624889e-05,0.999999996192
1494450135456717319,0,1494450135498165764,odom,base_footprint,0.0804302883405,-0.000122938185457,0.0,0.0,0.0,-0.000174532924313,0.999999984769
1494450135463358211,0,1494450135478129152,raphael/base_link,raphael/wheel_left_link,0.0,0.115,0.025,-0.305896358362,0.637516602088,0.637516602092,0.305896358363,0,1494450135478129152,raphael/base_link,raphael/wheel_right_link,0.0,-0.115,0.025,-0.315955798536,0.632591442693,0.632591442696,0.315955798538
1494450135463367638,0,1494450136011911016,raphael/base_footprint,raphael/base_link,0.0,0.0,0.0102,0.0,0.0,0.0,1.0,0,1494450136011911016,raphael/base_link,raphael/caster_back_link,-0.135,0.0,0.009,-0.707106781185,0.0,0.0,0.707106781188,0,1494450136011911016,raphael/base_link,raphael/caster_front_link,0.115,0.0,0.007,-0.707106781185,0.0,0.0,0.707106781188,0,1494450136011911016,raphael/base_link,raphael/cliff_sensor_front_link,0.156,0.0,0.0214,0.0,0.707106781185,0.0,0.707106781188,0,1494450136011911016,raphael/base_link,raphael/cliff_sensor_left_link,0.08734,0.13601,0.0214,0.0,0.707106781185,0.0,0.707106781188,0,1494450136011911016,raphael/base_link,raphael/cliff_sensor_right_link,0.085,-0.13601,0.0214,0.0,0.707106781185,0.0,0.707106781188,0,1494450136011911016,raphael/base_link,raphael/gyro_link,0.056,0.062,0.0202,0.0,0.0,0.0,1.0
1494450135465837639,0,1494450135518975161,odom,base_footprint,0.0826905285436,-0.000123727158157,0.0,0.0,0.0,-0.00034906584331,0.999999939077
1494450135483316513,0,1494450135537977407,odom,base_footprint,0.0848654762661,-0.000125245558357,0.0,0.0,0.0,-0.00034906584331,0.999999939077
1494450135502874024,0,1494450135557874562,odom,base_footprint,0.0871683620899,-0.000126853276215,0.0,0.0,0.0,-0.000261799384809,0.999999965731
1494450135503089278,0,1494450135519163076,raphael/base_link,raphael/wheel_left_link,0.0,0.115,0.025,-0.264117605567,0.65592826622,0.655928266224,0.264117605568,0,1494450135519163076,raphael/base_link,raphael/wheel_right_link,0.0,-0.115,0.025,-0.272885053857,0.652329477625,0.652329477629,0.272885053858
1494450135503104185,0,1494450136044971594,raphael/base_footprint,raphael/base_link,0.0,0.0,0.0102,0.0,0.0,0.0,1.0,0,1494450136044971594,raphael/base_link,raphael/caster_back_link,-0.135,0.0,0.009,-0.707106781185,0.0,0.0,0.707106781188,0,1494450136044971594,raphael/base_link,raphael/caster_front_link,0.115,0.0,0.007,-0.707106781185,0.0,0.0,0.707106781188,0,1494450136044971594,raphael/base_link,raphael/cliff_sensor_front_link,0.156,0.0,0.0214,0.0,0.707106781185,0.0,0.707106781188,0,1494450136044971594,raphael/base_link,raphael/cliff_sensor_left_link,0.08734,0.13601,0.0214,0.0,0.707106781185,0.0,0.707106781188,0,1494450136044971594,raphael/base_link,raphael/cliff_sensor_right_link,0.085,-0.13601,0.0214,0.0,0.707106781185,0.0,0.707106781188,0,1494450136044971594,raphael/base_link,raphael/gyro_link,0.056,0.062,0.0202,0.0,0.0,0.0,1.0
1494450135503110403,0,1494450135558090685,raphael/base_link,raphael/wheel_left_link,0.0,0.115,0.025,-0.221237771005,0.671605426332,0.671605426335,0.221237771007,0,1494450135558090685,raphael/base_link,raphael/wheel_right_link,0.0,-0.115,0.025,-0.231033651829,0.668298923925,0.668298923929,0.23103365183
1494450135522634510,0,1494450135578456877,odom,base_footprint,0.0894712481593,-0.000128059064651,0.0,0.0,0.0,-8.72664624889e-05,0.999999996192
1494450135541540787,0,1494450135597854620,odom,base_footprint,0.0918167805527,-0.000128468437285,0.0,0.0,0.0,-8.72664624889e-05,0.999999996192
1494450135543656175,0,1494450136078130839,raphael/base_footprint,raphael/base_link,0.0,0.0,0.0102,0.0,0.0,0.0,1.0,0,1494450136078130839,raphael/base_link,raphael/caster_back_link,-0.135,0.0,0.009,-0.707106781185,0.0,0.0,0.707106781188,0,1494450136078130839,raphael/base_link,raphael/caster_front_link,0.115,0.0,0.007,-0.707106781185,0.0,0.0,0.707106781188,0,1494450136078130839,raphael/base_link,raphael/cliff_sensor_front_link,0.156,0.0,0.0214,0.0,0.707106781185,0.0,0.707106781188,0,1494450136078130839,raphael/base_link,raphael/cliff_sensor_left_link,0.08734,0.13601,0.0214,0.0,0.707106781185,0.0,0.707106781188,0,1494450136078130839,raphael/base_link,raphael/cliff_sensor_right_link,0.085,-0.13601,0.0214,0.0,0.707106781185,0.0,0.707106781188,0,1494450136078130839,raphael/base_link,raphael/gyro_link,0.056,0.062,0.0202,0.0,0.0,0.0,1.0
1494450135546541011,0,1494450135598033535,raphael/base_link,raphael/wheel_left_link,0.0,0.115,0.025,-0.176601471487,0.684698415557,0.68469841556,0.176601471487,0,1494450135598033535,raphael/base_link,raphael/wheel_right_link,0.0,-0.115,0.025,-0.185762376413,0.682269990185,0.682269990188,0.185762376414
1494450135554629052,0,1494450136110928211,raphael/base_footprint,raphael/base_link,0.0,0.0,0.0102,0.0,0.0,0.0,1.0,0,1494450136110928211,raphael/base_link,raphael/caster_back_link,-0.135,0.0,0.009,-0.707106781185,0.0,0.0,0.707106781188,0,1494450136110928211,raphael/base_link,raphael/caster_front_link,0.115,0.0,0.007,-0.707106781185,0.0,0.0,0.707106781188,0,1494450136110928211,raphael/base_link,raphael/cliff_sensor_front_link,0.156,0.0,0.0214,0.0,0.707106781185,0.0,0.707106781188,0,1494450136110928211,raphael/base_link,raphael/cliff_sensor_left_link,0.08734,0.13601,0.0214,0.0,0.707106781185,0.0,0.707106781188,0,1494450136110928211,raphael/base_link,raphael/cliff_sensor_right_link,0.085,-0.13601,0.0214,0.0,0.707106781185,0.0,0.707106781188,0,1494450136110928211,raphael/base_link,raphael/gyro_link,0.056,0.062,0.0202,0.0,0.0,0.0,1.0
1494450135562093870,0,1494450135617835399,odom,base_footprint,0.0941196669026,-0.00012887036678,0.0,0.0,0.0,-0.000261799384809,0.999999965731
1494450135596993737,0,1494450135638027135,raphael/base_link,raphael/wheel_left_link,0.0,0.115,0.025,-0.131200902397,0.694828268861,0.694828268864,0.131200902398,0,1494450135638027135,raphael/base_link,raphael/wheel_right_link,0.0,-0.115,0.025,-0.140501651966,0.693007421167,0.69300742117,0.140501651967
1494450135597001956,0,1494450135637825136,odom,base_footprint,0.096422552972,-0.000130076155217,0.0,0.0,0.0,-0.00034906584331,0.999999939077
1494450135600616290,0,1494450136144557534,raphael/base_footprint,raphael/base_link,0.0,0.0,0.0102,0.0,0.0,0.0,1.0,0,1494450136144557534,raphael/base_link,raphael/caster_back_link,-0.135,0.0,0.009,-0.707106781185,0.0,0.0,0.707106781188,0,1494450136144557534,raphael/base_link,raphael/caster_front_link,0.115,0.0,0.007,-0.707106781185,0.0,0.0,0.707106781188,0,1494450136144557534,raphael/base_link,raphael/cliff_sensor_front_link,0.156,0.0,0.0214,0.0,0.707106781185,0.0,0.707106781188,0,1494450136144557534,raphael/base_link,raphael/cliff_sensor_left_link,0.08734,0.13601,0.0214,0.0,0.707106781185,0.0,0.707106781188,0,1494450136144557534,raphael/base_link,raphael/cliff_sensor_right_link,0.085,-0.13601,0.0214,0.0,0.707106781185,0.0,0.707106781188,0,1494450136144557534,raphael/base_link,raphael/gyro_link,0.056,0.062,0.0202,0.0,0.0,0.0,1.0
1494450135603660112,0,1494450135658192120,odom,base_footprint,0.0987680848295,-0.000131713645628,0.0,0.0,0.0,-0.000261799384809,0.999999965731
1494450135621743073,0,1494450136178367856,raphael/base_footprint,raphael/base_link,0.0,0.0,0.0102,0.0,0.0,0.0,1.0,0,1494450136178367856,raphael/base_link,raphael/caster_back_link,-0.135,0.0,0.009,-0.707106781185,0.0,0.0,0.707106781188,0,1494450136178367856,raphael/base_link,raphael/caster_front_link,0.115,0.0,0.007,-0.707106781185,0.0,0.0,0.707106781188,0,1494450136178367856,raphael/base_link,raphael/cliff_sensor_front_link,0.156,0.0,0.0214,0.0,0.707106781185,0.0,0.707106781188,0,1494450136178367856,raphael/base_link,raphael/cliff_sensor_left_link,0.08734,0.13601,0.0214,0.0,0.707106781185,0.0,0.707106781188,0,1494450136178367856,raphael/base_link,raphael/cliff_sensor_right_link,0.085,-0.13601,0.0214,0.0,0.707106781185,0.0,0.707106781188,0,1494450136178367856,raphael/base_link,raphael/gyro_link,0.056,0.062,0.0202,0.0,0.0,0.0,1.0
1494450135621791785,0,1494450135677912110,odom,base_footprint,0.102137121857,-0.000133477669451,0.0,0.0,0.0,-0.000261799384809,0.999999965731
1494450135641807811,0,1494450135697809098,odom,base_footprint,0.105335574731,-0.000135152375613,0.0,0.0,0.0,-0.00034906584331,0.999999939077
1494450135662477960,0,1494450135718780452,odom,base_footprint,0.108661965365,-0.000137474634742,0.0,0.0,0.0,-8.72664624889e-05,0.999999996192
1494450135663335460,0,1494450135678313982,raphael/base_link,raphael/wheel_left_link,0.0,0.115,0.025,-0.074103436554,0.703213111858,0.703213111861,0.0741034365543,0,1494450135678313982,raphael/base_link,raphael/wheel_right_link,0.0,-0.115,0.025,-0.0835216936267,0.702156767888,0.702156767892,0.0835216936271
1494450135663422381,0,1494450136211061396,raphael/base_footprint,raphael/base_link,0.0,0.0,0.0102,0.0,0.0,0.0,1.0,0,1494450136211061396,raphael/base_link,raphael/caster_back_link,-0.135,0.0,0.009,-0.707106781185,0.0,0.0,0.707106781188,0,1494450136211061396,raphael/base_link,raphael/caster_front_link,0.115,0.0,0.007,-0.707106781185,0.0,0.0,0.707106781188,0,1494450136211061396,raphael/base_link,raphael/cliff_sensor_front_link,0.156,0.0,0.0214,0.0,0.707106781185,0.0,0.707106781188,0,1494450136211061396,raphael/base_link,raphael/cliff_sensor_left_link,0.08734,0.13601,0.0214,0.0,0.707106781185,0.0,0.707106781188,0,1494450136211061396,raphael/base_link,raphael/cliff_sensor_right_link,0.085,-0.13601,0.0214,0.0,0.707106781185,0.0,0.707106781188,0,1494450136211061396,raphael/base_link,raphael/gyro_link,0.056,0.062,0.0202,0.0,0.0,0.0,1.0
1494450135684929633,0,1494450135737946905,odom,base_footprint,0.111860418629,-0.000138032870151,0.0,0.0,0.0,0.000261799384809,0.999999965731
1494450135702864627,0,1494450135757789435,odom,base_footprint,0.114930933388,-0.000136425152236,0.0,0.0,0.0,0.000436332299153,0.999999904807
1494450135704130696,0,1494450135718929951,raphael/base_link,raphael/wheel_left_link,0.0,0.115,0.025,-0.00789791354269,0.707062672582,0.707062672586,0.00789791354273,0,1494450135718929951,raphael/base_link,raphael/wheel_right_link,0.0,-0.115,0.025,-0.0182350184257,0.706871617835,0.706871617838,0.0182350184258
1494450135704150849,0,1494450136244760552,raphael/base_footprint,raphael/base_link,0.0,0.0,0.0102,0.0,0.0,0.0,1.0,0,1494450136244760552,raphael/base_link,raphael/caster_back_link,-0.135,0.0,0.009,-0.707106781185,0.0,0.0,0.707106781188,0,1494450136244760552,raphael/base_link,raphael/caster_front_link,0.115,0.0,0.007,-0.707106781185,0.0,0.0,0.707106781188,0,1494450136244760552,raphael/base_link,raphael/cliff_sensor_front_link,0.156,0.0,0.0214,0.0,0.707106781185,0.0,0.707106781188,0,1494450136244760552,raphael/base_link,raphael/cliff_sensor_left_link,0.08734,0.13601,0.0214,0.0,0.707106781185,0.0,0.707106781188,0,1494450136244760552,raphael/base_link,raphael/cliff_sensor_right_link,0.085,-0.13601,0.0214,0.0,0.707106781185,0.0,0.707106781188,0,1494450136244760552,raphael/base_link,raphael/gyro_link,0.056,0.062,0.0202,0.0,0.0,0.0,1.0
1494450135704186016,0,1494450135758021767,raphael/base_link,raphael/wheel_left_link,0.0,0.115,0.025,0.0549418435491,0.704969072956,0.70496907296,-0.0549418435493,0,1494450135758021767,raphael/base_link,raphael/wheel_right_link,0.0,-0.115,0.025,0.0454884611865,0.705642118851,0.705642118854,-0.0454884611867
1494450135722839493,0,1494450135778018254,odom,base_footprint,0.117702925204,-0.000134006132421,0.0,0.0,0.0,0.000698131644088,0.999999756306
1494450135743618336,0,1494450136277625424,raphael/base_footprint,raphael/base_link,0.0,0.0,0.0102,0.0,0.0,0.0,1.0,0,1494450136277625424,raphael/base_link,raphael/caster_back_link,-0.135,0.0,0.009,-0.707106781185,0.0,0.0,0.707106781188,0,1494450136277625424,raphael/base_link,raphael/caster_front_link,0.115,0.0,0.007,-0.707106781185,0.0,0.0,0.707106781188,0,1494450136277625424,raphael/base_link,raphael/cliff_sensor_front_link,0.156,0.0,0.0214,0.0,0.707106781185,0.0,0.707106781188,0,1494450136277625424,raphael/base_link,raphael/cliff_sensor_left_link,0.08734,0.13601,0.0214,0.0,0.707106781185,0.0,0.707106781188,0,1494450136277625424,raphael/base_link,raphael/cliff_sensor_right_link,0.085,-0.13601,0.0214,0.0,0.707106781185,0.0,0.707106781188,0,1494450136277625424,raphael/base_link,raphael/gyro_link,0.056,0.062,0.0202,0.0,0.0,0.0,1.0
1494450135749226064,0,1494450135802317161,odom,base_footprint,0.120560207378,-0.000130016611301,0.0,0.0,0.0,0.000785398082652,0.999999691575
1494450135749938636,0,1494450135802643408,raphael/base_link,raphael/wheel_left_link,0.0,0.115,0.025,0.111395578579,0.698277183553,0.698277183556,-0.11139557858,0,1494450135802643408,raphael/base_link,raphael/wheel_right_link,0.0,-0.115,0.025,0.102026814567,0.699707459662,0.699707459666,-0.102026814567
1494450135755839147,0,1494450136311968116,raphael/base_footprint,raphael/base_link,0.0,0.0,0.0102,0.0,0.0,0.0,1.0,0,1494450136311968116,raphael/base_link,raphael/caster_back_link,-0.135,0.0,0.009,-0.707106781185,0.0,0.0,0.707106781188,0,1494450136311968116,raphael/base_link,raphael/caster_front_link,0.115,0.0,0.007,-0.707106781185,0.0,0.0,0.707106781188,0,1494450136311968116,raphael/base_link,raphael/cliff_sensor_front_link,0.156,0.0,0.0214,0.0,0.707106781185,0.0,0.707106781188,0,1494450136311968116,raphael/base_link,raphael/cliff_sensor_left_link,0.08734,0.13601,0.0214,0.0,0.707106781185,0.0,0.707106781188,0,1494450136311968116,raphael/base_link,raphael/cliff_sensor_right_link,0.085,-0.13601,0.0214,0.0,0.707106781185,0.0,0.707106781188,0,1494450136311968116,raphael/base_link,raphael/gyro_link,0.056,0.062,0.0202,0.0,0.0,0.0,1.0
1494450135764070826,0,1494450135818169602,odom,base_footprint,0.123673364761,-0.000125126471097,0.0,0.0,0.0,0.000785398082652,0.999999691575
1494450135787499174,0,1494450135838779042,raphael/base_link,raphael/wheel_left_link,0.0,0.115,0.025,0.175488367897,0.684984549264,0.684984549267,-0.175488367898,0,1494450135838779042,raphael/base_link,raphael/wheel_right_link,0.0,-0.115,0.025,0.166292003514,0.687275031967,0.68727503197,-0.166292003515
1494450135787523212,0,1494450135838408712,odom,base_footprint,0.127042398094,-0.00011983440156,0.0,0.0,0.0,0.000698131644088,0.999999756306
1494450135789916636,0,1494450136344758864,raphael/base_footprint,raphael/base_link,0.0,0.0,0.0102,0.0,0.0,0.0,1.0,0,1494450136344758864,raphael/base_link,raphael/caster_back_link,-0.135,0.0,0.009,-0.707106781185,0.0,0.0,0.707106781188,0,1494450136344758864,raphael/base_link,raphael/caster_front_link,0.115,0.0,0.007,-0.707106781185,0.0,0.0,0.707106781188,0,1494450136344758864,raphael/base_link,raphael/cliff_sensor_front_link,0.156,0.0,0.0214,0.0,0.707106781185,0.0,0.707106781188,0,1494450136344758864,raphael/base_link,raphael/cliff_sensor_left_link,0.08734,0.13601,0.0214,0.0,0.707106781185,0.0,0.707106781188,0,1494450136344758864,raphael/base_link,raphael/cliff_sensor_right_link,0.085,-0.13601,0.0214,0.0,0.707106781185,0.0,0.707106781188,0,1494450136344758864,raphael/base_link,raphael/gyro_link,0.056,0.062,0.0202,0.0,0.0,0.0,1.0
1494450135804076170,0,1494450135858167368,odom,base_footprint,0.130454078302,-0.000115070794252,0.0,0.0,0.0,0.000610865200207,0.999999813422
1494450135826189505,0,1494450136378557852,raphael/base_footprint,raphael/base_link,0.0,0.0,0.0102,0.0,0.0,0.0,1.0,0,1494450136378557852,raphael/base_link,raphael/caster_back_link,-0.135,0.0,0.009,-0.707106781185,0.0,0.0,0.707106781188,0,1494450136378557852,raphael/base_link,raphael/caster_front_link,0.115,0.0,0.007,-0.707106781185,0.0,0.0,0.707106781188,0,1494450136378557852,raphael/base_link,raphael/cliff_sensor_front_link,0.156,0.0,0.0214,0.0,0.707106781185,0.0,0.707106781188,0,1494450136378557852,raphael/base_link,raphael/cliff_sensor_left_link,0.08734,0.13601,0.0214,0.0,0.707106781185,0.0,0.707106781188,0,1494450136378557852,raphael/base_link,raphael/cliff_sensor_right_link,0.085,-0.13601,0.0214,0.0,0.707106781185,0.0,0.707106781188,0,1494450136378557852,raphael/base_link,raphael/gyro_link,0.056,0.062,0.0202,0.0,0.0,0.0,1.0
1494450135830567595,0,1494450135878207189,odom,base_footprint,0.133695175239,-0.000111111045376,0.0,0.0,0.0,0.000436332299153,0.999999904807
1494450135843964844,0,1494450135898886836,odom,base_footprint,0.136850981306,-0.000108357084356,0.0,0.0,0.0,0.000610865200207,0.999999813422
1494450135863734276,0,1494450135918778825,odom,base_footprint,0.139921494194,-0.000104605743316,0.0,0.0,0.0,0.000785398082652,0.999999691575
1494450135866856800,0,1494450135878782225,raphael/base_link,raphael/wheel_left_link,0.0,0.115,0.025,0.239699214114,0.66524002191,0.665240021913,-0.239699214115,0,1494450135878782225,raphael/base_link,raphael/wheel_right_link,0.0,-0.115,0.025,0.230761711165,0.668392872985,0.668392872989,-0.230761711166
1494450135866872527,0,1494450136411098769,raphael/base_footprint,raphael/base_link,0.0,0.0,0.0102,0.0,0.0,0.0,1.0,0,1494450136411098769,raphael/base_link,raphael/caster_back_link,-0.135,0.0,0.009,-0.707106781185,0.0,0.0,0.707106781188,0,1494450136411098769,raphael/base_link,raphael/caster_front_link,0.115,0.0,0.007,-0.707106781185,0.0,0.0,0.707106781188,0,1494450136411098769,raphael/base_link,raphael/cliff_sensor_front_link,0.156,0.0,0.0214,0.0,0.707106781185,0.0,0.707106781188,0,1494450136411098769,raphael/base_link,raphael/cliff_sensor_left_link,0.08734,0.13601,0.0214,0.0,0.707106781185,0.0,0.707106781188,0,1494450136411098769,raphael/base_link,raphael/cliff_sensor_right_link,0.085,-0.13601,0.0214,0.0,0.707106781185,0.0,0.707106781188,0,1494450136411098769,raphael/base_link,raphael/gyro_link,0.056,0.062,0.0202,0.0,0.0,0.0,1.0
1494450135866878669,0,1494450135919003406,raphael/base_link,raphael/wheel_left_link,0.0,0.115,0.025,0.297845050339,0.641317648273,0.641317648276,-0.297845050341,0,1494450135919003406,raphael/base_link,raphael/wheel_right_link,0.0,-0.115,0.025,0.289222947754,0.64525195582,0.645251955824,-0.289222947755
1494450135882942254,0,1494450135938757354,odom,base_footprint,0.143247881536,-9.93806620014e-05,0.0,0.0,0.0,0.00113446377045,0.999999356496
1494450135908207269,0,1494450135958724008,odom,base_footprint,0.146531618484,-9.19300864186e-05,0.0,0.0,0.0,0.00139626294791,0.999999025224
1494450135909565450,0,1494450136444772258,raphael/base_footprint,raphael/base_link,0.0,0.0,0.0102,0.0,0.0,0.0,1.0,0,1494450136444772258,raphael/base_link,raphael/caster_back_link,-0.135,0.0,0.009,-0.707106781185,0.0,0.0,0.707106781188,0,1494450136444772258,raphael/base_link,raphael/caster_front_link,0.115,0.0,0.007,-0.707106781185,0.0,0.0,0.707106781188,0,1494450136444772258,raphael/base_link,raphael/cliff_sensor_front_link,0.156,0.0,0.0214,0.0,0.707106781185,0.0,0.707106781188,0,1494450136444772258,raphael/base_link,raphael/cliff_sensor_left_link,0.08734,0.13601,0.0214,0.0,0.707106781185,0.0,0.707106781188,0,1494450136444772258,raphael/base_link,raphael/cliff_sensor_right_link,0.085,-0.13601,0.0214,0.0,0.707106781185,0.0,0.707106781188,0,1494450136444772258,raphael/base_link,raphael/gyro_link,0.056,0.062,0.0202,0.0,0.0,0.0,1.0
