%time,field.header.seq,field.header.stamp,field.header.frame_id,field.time_stamp,field.bumper,field.wheel_drop,field.cliff,field.left_encoder,field.right_encoder,field.left_pwm,field.right_pwm,field.buttons,field.charger,field.battery,field.bottom0,field.bottom1,field.bottom2,field.current0,field.current1,field.over_current,field.digital_input,field.analog_input0,field.analog_input1,field.analog_input2,field.analog_input3
1494527466455324207,0,1494527465479214951,,11592,0,0,0,53671,142,0,0,0,0,151,1554,1906,1623,0,0,0,0,4074,4075,4075,4059
1494527466455397774,1,1494527465499250558,,11612,0,0,0,53671,142,0,0,0,0,151,1628,1906,1623,0,0,0,0,4069,4075,4073,4058
1494527466455411447,2,1494527465519218790,,11632,0,0,0,53671,142,0,0,0,0,151,1628,1904,1622,0,0,0,0,4071,4073,4065,4062
1494527466455431339,3,1494527465539385936,,11652,0,0,0,53671,142,0,0,0,0,151,1556,1904,1599,0,0,0,0,4066,4075,4062,4065
1494527466455514886,4,1494527465559458834,,11672,0,0,0,53671,142,0,0,0,0,151,1551,1904,1621,0,0,0,0,4071,4086,4059,4066
1494527466455522840,5,1494527465580211974,,11692,0,0,0,53671,142,0,0,0,0,151,1550,1880,1622,0,0,0,0,4071,4070,4062,4072
1494527466455539448,6,1494527465605810601,,11712,0,0,0,53671,142,0,0,0,0,151,1552,1880,1622,0,0,0,0,4070,4067,4061,4067
1494527466455561101,7,1494527465620356020,,11732,0,0,0,53671,142,0,0,0,0,151,1552,1880,1620,0,0,0,0,4074,4071,4063,4072
1494527466455570934,8,1494527465639282014,,11752,0,0,0,53671,142,0,0,0,0,151,1553,1880,1626,0,0,0,0,4069,4064,4064,4072
1494527466455692078,9,1494527465659298120,,11772,0,0,0,53671,142,0,0,0,0,151,1554,1903,1626,0,0,0,0,4069,4071,4063,4074
1494527466455698789,10,1494527465679918262,,11792,0,0,0,53671,142,0,0,0,0,151,1576,1904,1626,0,0,0,0,4069,4072,4071,4075
1494527466455719504,11,1494527465699343042,,11812,0,0,0,53671,142,0,0,0,0,151,1576,1907,1624,0,0,0,0,4067,4074,4068,4073
1494527466455733112,12,1494527465719370107,,11832,0,0,0,53671,142,0,0,0,0,151,1576,1907,1623,0,0,0,0,4066,4073,4065,4076
1494527466455747698,13,1494527465739189632,,11852,0,0,0,53671,142,0,0,0,0,151,1577,1904,1623,0,0,0,0,4062,4072,4072,4075
1494527466455756064,14,1494527465759311030,,11872,0,0,0,53671,142,0,0,0,0,151,1577,1904,1623,0,0,0,0,4063,4070,4069,4077
1494527466455778650,15,1494527465780506290,,11892,0,0,0,53671,142,0,0,0,0,151,1556,1904,1623,0,0,0,0,4068,4074,4073,4082
1494527466455790437,16,1494527465800867351,,11912,0,0,0,53671,142,0,0,0,0,151,1556,1903,1621,0,0,0,0,4065,4075,4077,4083
1494527466455803087,17,1494527465820234840,,11932,0,0,0,53671,142,0,0,0,0,151,1554,1902,1619,0,0,0,0,4070,4069,4069,4076
1494527466455819592,18,1494527465840342196,,11952,0,0,0,53671,142,0,0,0,0,151,1573,1902,1624,0,0,0,0,4063,4072,4076,4078
1494527466455831734,19,1494527465860162096,,11972,0,0,0,53671,142,0,0,0,0,151,1573,1906,1628,0,0,0,0,4063,4072,4071,4081
1494527466455855305,20,1494527465880368659,,11992,0,0,0,53671,142,0,0,0,0,151,1573,1906,1628,0,0,0,0,4067,4072,4071,4080
1494527466455866823,21,1494527465899355111,,12012,0,0,0,53671,142,0,0,0,0,151,1577,1906,1621,0,0,0,0,4068,4078,4075,4086
1494527466455887564,22,1494527465920010877,,12032,0,0,0,53671,142,0,0,0,0,151,1577,1902,1621,0,0,0,0,4067,4076,4080,4072
1494527466455893440,23,1494527465939404949,,12052,0,0,0,53671,142,0,0,0,0,151,1569,1905,1621,0,0,0,0,4067,4074,4078,4071
1494527466455907177,24,1494527465959120934,,12072,0,0,0,53671,142,0,0,0,0,151,1555,1905,1623,0,0,0,0,4072,4073,4073,4063
1494527466455929205,25,1494527465979091750,,12092,0,0,0,53671,142,0,0,0,0,151,1555,1900,1623,0,0,0,0,4069,4077,4081,4066
1494527466455948425,26,1494527466000271093,,12112,0,0,0,53671,142,0,0,0,0,151,1574,1905,1622,0,0,0,0,4073,4072,4065,4059
1494527466455977024,27,1494527466021099691,,12132,0,0,0,53671,142,0,0,0,0,151,1574,1905,1619,0,0,0,0,4074,4081,4072,4065
1494527466455991373,28,1494527466040336182,,12152,0,0,0,53671,142,0,0,0,0,151,1552,1905,1619,0,0,0,0,4071,4080,4066,4060
1494527466456018642,29,1494527466060180832,,12172,0,0,0,53671,142,0,0,0,0,151,1552,1904,1619,0,0,0,0,4067,4076,4062,4069
1494527466456038095,30,1494527466080331896,,12192,0,0,0,53671,142,0,0,0,0,151,1571,1904,1621,0,0,0,0,4068,4082,4059,4068
1494527466456060346,31,1494527466100276754,,12212,0,0,0,53671,142,0,0,0,0,151,1573,1882,1621,0,0,0,0,4070,4068,4063,4070
1494527466456104522,32,1494527466120316319,,12232,0,0,0,53671,142,0,0,0,0,151,1574,1882,1621,0,0,0,0,4071,4069,4060,4069
1494527466456119586,33,1494527466140830796,,12252,0,0,0,53671,142,0,0,0,0,151,1576,1881,1619,0,0,0,0,4068,4070,4061,4072
1494527466456192409,34,1494527466160123369,,12272,0,0,0,53671,142,0,0,0,0,151,1576,1879,1628,0,0,0,0,4072,4069,4061,4069
1494527466456215577,35,1494527466181017300,,12292,0,0,0,53671,142,0,0,0,0,151,1563,1882,1628,0,0,0,0,4075,4065,4065,4071
1494527466456234615,36,1494527466200183916,,12312,0,0,0,53671,142,0,0,0,0,151,1556,1882,1628,0,0,0,0,4064,4064,4066,4077
1494527466456244048,37,1494527466220229565,,12332,0,0,0,53671,142,0,0,0,0,151,1554,1905,1625,0,0,0,0,4067,4065,4065,4075
1494527466456256479,38,1494527466240154298,,12352,0,0,0,53671,142,0,0,0,0,151,1553,1905,1625,0,0,0,0,4063,4066,4066,4075
1494527466456276915,39,1494527466260396610,,12372,0,0,0,53671,142,0,0,0,0,151,1554,1903,1622,0,0,0,0,4065,4074,4071,4073
1494527466456293488,40,1494527466280058180,,12392,0,0,0,53671,142,0,0,0,0,151,1554,1900,1622,0,0,0,0,4062,4068,4068,4075
1494527466456316842,41,1494527466300057870,,12412,0,0,0,53671,142,0,0,0,0,151,1551,1882,1621,0,0,0,0,4062,4070,4072,4077
1494527466456340013,42,1494527466320328933,,12432,0,0,0,53671,142,0,0,0,0,151,1558,1882,1622,0,0,0,0,4066,4067,4067,4075
1494527466456356674,43,1494527466340097293,,12452,0,0,0,53671,142,0,0,0,0,151,1574,1882,1622,0,0,0,0,4065,4071,4066,4076
1494527466456379035,44,1494527466361888921,,12472,0,0,0,53671,142,0,0,0,0,151,1578,1880,1630,0,0,0,0,4061,4066,4070,4080
1494527466456829779,45,1494527466380098715,,12492,0,0,0,53671,142,0,0,0,0,151,1578,1902,1630,0,0,0,0,4064,4069,4067,4075
1494527466456836154,46,1494527466400471777,,12512,0,0,0,53671,142,0,0,0,0,151,1578,1909,1630,0,0,0,0,4061,4070,4067,4076
1494527466456842996,47,1494527466420240636,,12532,0,0,0,53671,142,0,0,0,0,151,1553,1909,1626,0,0,0,0,4068,4073,4067,4078
1494527466456979166,48,1494527466441962808,,12552,0,0,0,53671,142,0,0,0,0,151,1551,1883,1627,0,0,0,0,4060,4068,4070,4078
1494527466456985767,49,1494527466460467723,,12572,0,0,0,53671,142,0,0,0,0,151,1559,1904,1627,0,0,0,0,4063,4070,4074,4083
1494527466456992658,50,1494527466480394331,,12592,0,0,0,53671,142,0,0,0,0,151,1559,1904,1623,0,0,0,0,4067,4077,4072,4077
1494527466457000220,51,1494527466500734060,,12612,0,0,0,53671,142,0,0,0,0,151,1576,1904,1622,0,0,0,0,4065,4070,4074,4082
1494527466457036045,52,1494527466520129382,,12632,0,0,0,53671,142,0,0,0,0,151,1576,1902,1641,0,0,0,0,4069,4078,4074,4075
1494527466457041443,53,1494527466540128989,,12652,0,0,0,53671,142,0,0,0,0,151,1573,1902,1641,0,0,0,0,4066,4072,4074,4082
1494527466457050691,54,1494527466561028295,,12672,0,0,0,53671,142,0,0,0,0,151,1573,1903,1641,0,0,0,0,4073,4080,4078,4084
1494527466457058790,55,1494527466581062152,,12692,0,0,0,53671,142,0,0,0,0,151,1574,1905,1623,0,0,0,0,4069,4079,4071,4066
1494527466457066632,56,1494527466601120466,,12712,0,0,0,53671,142,0,0,0,0,151,1574,1905,1623,0,0,0,0,4072,4071,4073,4069
1494527466457074569,57,1494527466621073199,,12732,0,0,0,53671,142,0,0,0,0,151,1561,1900,1620,0,0,0,0,4065,4074,4071,4069
1494527466457082572,58,1494527466640892850,,12752,0,0,0,53671,142,0,0,0,0,151,1561,1900,1623,0,0,0,0,4071,4070,4072,4067
1494527466457092918,59,1494527466661031706,,12772,0,0,0,53671,142,0,0,0,0,151,1573,1880,1623,0,0,0,0,4067,4073,4076,4072
1494527466457100304,60,1494527466680909856,,12792,0,0,0,53671,142,0,0,0,0,151,1573,1901,1622,0,0,0,0,4067,4075,4079,4067
1494527466457170785,61,1494527466705660534,,12812,0,0,0,53671,142,0,0,0,0,151,1572,1903,1620,0,0,0,0,4069,4077,4073,4068
1494527466457174064,62,1494527466720994278,,12832,0,0,0,53671,142,0,0,0,0,151,1572,1904,1625,0,0,0,0,4073,4073,4075,4067
1494527466457177319,63,1494527466741190508,,12852,0,0,0,53671,142,0,0,0,0,151,1553,1904,1625,0,0,0,0,4073,4081,4083,4068
1494527466457248164,64,1494527466761273906,,12872,0,0,0,53671,142,0,0,0,0,151,1578,1902,1623,0,0,0,0,4074,4074,4066,4060
1494527466457339216,65,1494527466781482261,,12892,0,0,0,53671,142,0,0,0,0,151,1578,1903,1624,0,0,0,0,4070,4078,4071,4066
1494527466457343831,66,1494527466806046191,,12912,0,0,0,53671,142,0,0,0,0,151,1578,1903,1624,0,0,0,0,4069,4081,4070,4062
1494527466457372885,67,1494527466821184228,,12932,0,0,0,53671,142,0,0,0,0,151,1551,1903,1623,0,0,0,0,4075,4072,4063,4063
1494527466457414629,68,1494527466841261793,,12952,0,0,0,53671,142,0,0,0,0,151,1550,1901,1623,0,0,0,0,4069,4079,4066,4065
1494527466457419316,69,1494527466861588147,,12972,0,0,0,53671,142,0,0,0,0,151,1573,1901,1623,0,0,0,0,4070,4079,4065,4068
1494527466457461171,70,1494527466881092259,,12992,0,0,0,53671,142,0,0,0,0,151,1574,1902,1623,0,0,0,0,4074,4075,4058,4066
1494527466457501710,71,1494527466901099908,,13012,0,0,0,53671,142,0,0,0,0,151,1574,1904,1623,0,0,0,0,4070,4076,4064,4070
1494527466457551381,72,1494527466921354179,,13032,0,0,0,53671,142,0,0,0,0,151,1568,1904,1623,0,0,0,0,4073,4081,4059,4068
1494527466463741896,73,1494527466942146444,,13052,0,0,0,53671,142,0,0,0,0,151,1571,1884,1622,0,0,0,0,4068,4077,4064,4061
1494527466474050283,74,1494527466961143646,,13072,0,0,0,53671,142,0,0,0,0,151,1571,1884,1624,0,0,0,0,4071,4076,4064,4064
1494527466494747140,75,1494527466981029463,,13092,0,0,0,53671,142,0,0,0,0,151,1555,1883,1626,0,0,0,0,4076,4071,4058,4067
1494527466514369014,76,1494527467000983446,,13112,0,0,0,53671,142,0,0,0,0,151,1611,1901,1626,0,0,0,0,4077,4075,4067,4074
1494527466535928695,77,1494527467020934137,,13132,0,0,0,53671,142,0,0,0,0,151,1611,1901,1626,0,0,0,0,4074,4074,4066,4067
1494527466554769108,78,1494527467040896537,,13152,0,0,0,53671,142,0,0,0,0,151,1611,1881,1625,0,0,0,0,4073,4068,4065,4076
1494527466579560486,79,1494527467060950685,,13172,0,0,0,53671,142,0,0,0,0,151,1553,1881,1621,0,0,0,0,4077,4071,4066,4071
1494527466593841791,80,1494527467080909210,,13192,0,0,0,53671,142,0,0,0,0,151,1572,1881,1623,0,0,0,0,4067,4063,4064,4073
1494527466614617077,81,1494527467100853193,,13212,0,0,0,53671,142,0,0,0,0,151,1575,1905,1623,0,0,0,0,4063,4065,4064,4074
1494527466635098214,82,1494527467121808790,,13232,0,0,0,53671,142,0,0,0,0,151,1575,1908,1622,0,0,0,0,4066,4065,4066,4078
1494527466656458753,83,1494527467142122060,,13252,0,0,0,53671,142,0,0,0,0,151,1573,1917,1622,0,0,0,0,4066,4066,4068,4075
1494527466675493634,84,1494527467162337332,,13272,0,0,0,53671,142,0,0,0,0,151,1573,1917,1622,0,0,0,0,4063,4069,4071,4082
1494527466695709449,85,1494527467181803654,,13292,0,0,0,53671,142,0,0,0,0,151,1572,1906,1622,0,0,0,0,4066,4070,4072,4085
1494527466714813066,86,1494527467201871886,,13312,0,0,0,53671,142,0,0,0,0,151,1573,1902,1622,0,0,0,0,4063,4071,4073,4084
1494527466746127612,87,1494527467220792714,,13332,0,0,0,53671,142,0,0,0,0,151,1574,1898,1621,0,0,0,0,4063,4074,4072,4082
1494527466774731541,88,1494527467240756655,,13352,0,0,0,53671,142,0,0,0,0,151,1574,1905,1617,0,0,0,0,4070,4071,4073,4080
1494527466779461050,89,1494527467262676908,,13372,0,0,0,53671,142,0,0,0,0,152,1574,1905,1621,0,0,0,0,4067,4076,4077,4069
1494527466794646654,90,1494527467280886827,,13392,0,0,0,53671,142,0,0,0,0,152,1576,1905,1621,0,0,0,0,4074,4079,4078,4072
1494527466815728328,91,1494527467301775133,,13412,0,0,0,53671,142,0,0,0,0,152,1576,1900,1626,0,0,0,0,4070,4074,4073,4067
1494527466837626497,92,1494527467321894322,,13432,0,0,0,53671,142,0,0,0,0,152,1552,1885,1626,0,0,0,0,4069,4074,4078,4067
1494527466856153817,93,1494527467342884085,,13452,0,0,0,53671,142,0,0,0,0,152,1551,1881,1622,0,0,0,0,4067,4077,4078,4066
1494527466875598992,94,1494527467361810038,,13472,0,0,0,53671,142,0,0,0,0,152,1550,1903,1619,0,0,0,0,4070,4080,4078,4065
1494527466898136907,95,1494527467382355223,,13492,0,0,0,53671,142,0,0,0,0,152,1554,1903,1600,0,0,0,0,4071,4077,4071,4066
1494527466918871245,96,1494527467402887991,,13512,0,0,0,53671,142,0,0,0,0,152,1554,1902,1620,0,0,0,0,4066,4075,4073,4068
1494527466936019409,97,1494527467421720070,,13532,0,0,0,53671,142,0,0,0,0,151,1576,1902,1623,0,0,0,0,4073,4075,4071,4063
1494527466954820670,98,1494527467441737303,,13552,0,0,0,53671,142,0,0,0,0,151,1578,1881,1623,0,0,0,0,4068,4073,4084,4065
1494527466975364829,99,1494527467461740452,,13572,0,0,0,53671,142,0,0,0,0,152,1578,1903,1622,0,0,0,0,4066,4074,4062,4063
1494527466995780937,100,1494527467481673560,,13592,0,0,0,53671,142,0,0,0,0,152,1577,1910,1621,0,0,0,0,4069,4076,4067,4069
1494527467018874943,101,1494527467502742447,,13612,0,0,0,53671,142,0,0,0,0,152,1577,1910,1621,0,0,0,0,4069,4074,4066,4070
1494527467034844082,102,1494527467521769649,,13632,0,0,0,53671,142,0,0,0,0,152,1576,1906,1625,0,0,0,0,4073,4077,4060,4065
1494527467056049654,103,1494527467541650800,,13652,0,0,0,53671,142,0,0,0,0,152,1570,1902,1625,0,0,0,0,4072,4074,4059,4066
1494527467077856670,104,1494527467561809656,,13672,0,0,0,53671,142,0,0,0,0,152,1553,1901,1625,0,0,0,0,4074,4074,4062,4067
1494527467096049224,105,1494527467581856388,,13692,0,0,0,53671,142,0,0,0,0,152,1554,1902,1624,0,0,0,0,4074,4076,4066,4075
1494527467121149606,106,1494527467601840079,,13712,0,0,0,53671,142,0,0,0,0,152,1575,1903,1622,0,0,0,0,4069,4069,4062,4072
1494527467135553368,107,1494527467621728646,,13732,0,0,0,53671,142,0,0,0,0,152,1575,1903,1622,0,0,0,0,4073,4072,4062,4069
1494527467158198543,108,1494527467642341913,,13752,0,0,0,53671,142,0,0,0,0,152,1575,1887,1622,0,0,0,0,4076,4064,4065,4071
1494527467177556304,109,1494527467662286563,,13772,0,0,0,53671,142,0,0,0,0,152,1572,1884,1622,0,0,0,0,4066,4063,4065,4075
1494527467199127061,110,1494527467683267909,,13792,0,0,0,53671,142,0,0,0,0,152,1552,1906,1623,0,0,0,0,4065,4069,4069,4074
1494527467218603651,111,1494527467702651357,,13812,0,0,0,53671,142,0,0,0,0,152,1552,1906,1623,0,0,0,0,4066,4066,4072,4076
1494527467240331602,112,1494527467721596810,,13832,0,0,0,53671,142,0,0,0,0,152,1569,1903,1623,0,0,0,0,4063,4070,4073,4076
1494527467255904699,113,1494527467741606459,,13852,0,0,0,53671,142,0,0,0,0,152,1571,1900,1623,0,0,0,0,4062,4068,4072,4074
1494527467286420428,114,1494527467762714387,,13872,0,0,0,53671,142,0,0,0,0,152,1571,1900,1623,0,0,0,0,4063,4070,4072,4076
1494527467297395603,115,1494527467781871421,,13892,0,0,0,53671,142,0,0,0,0,152,1561,1900,1623,0,0,0,0,4063,4067,4070,4080
1494527467318702623,116,1494527467802720186,,13912,0,0,0,53671,142,0,0,0,0,152,1557,1882,1623,0,0,0,0,4066,4067,4069,4075
1494527467346329704,117,1494527467822602586,,13932,0,0,0,53671,142,0,0,0,0,152,1569,1884,1623,0,0,0,0,4059,4067,4070,4080
1494527467367802285,118,1494527467842604235,,13952,0,0,0,53671,142,0,0,0,0,152,1569,1903,1625,0,0,0,0,4063,4070,4075,4074
1494527467375438261,119,1494527467861866768,,13972,0,0,0,53671,142,0,0,0,0,152,1561,1904,1625,0,0,0,0,4064,4069,4069,4081
1494527467398081194,120,1494527467882800740,,13992,0,0,0,53671,142,0,0,0,0,152,1557,1904,1623,0,0,0,0,4063,4071,4070,4079
1494527467416588935,121,1494527467902755390,,14012,0,0,0,53671,142,0,0,0,0,152,1557,1881,1623,0,0,0,0,4067,4078,4077,4080
1494527467436375560,122,1494527467922709998,,14032,0,0,0,53671,142,0,0,0,0,152,1573,1881,1624,0,0,0,0,4066,4078,4075,4078
1494527467456190301,123,1494527467942708230,,14052,0,0,0,53671,142,0,0,0,0,152,1576,1899,1624,0,0,0,0,4067,4071,4073,4087
1494527467476082191,124,1494527467962983376,,14072,0,0,0,53671,142,0,0,0,0,152,1578,1903,1621,0,0,0,0,4072,4071,4074,4076
1494527467496334310,125,1494527467982624571,,14092,0,0,0,53671,142,0,0,0,0,152,1578,1903,1621,0,0,0,0,4066,4073,4072,4069
1494527467517364946,126,1494527468004116787,,14112,0,0,0,53671,142,0,0,0,0,152,1578,1903,1623,0,0,0,0,4071,4072,4073,4069
1494527467535773030,127,1494527468022647828,,14132,0,0,0,53671,142,0,0,0,0,152,1576,1907,1623,0,0,0,0,4071,4071,4072,4066
1494527467556080626,128,1494527468042661144,,14152,0,0,0,53671,142,0,0,0,0,152,1576,1907,1619,0,0,0,0,4069,4079,4073,4067
1494527467577731424,129,1494527468063713865,,14172,0,0,0,53671,142,0,0,0,0,152,1576,1905,1625,0,0,0,0,4067,4074,4079,4071
1494527467599417677,130,1494527468085172706,,14192,0,0,0,53671,142,0,0,0,0,152,1559,1903,1625,0,0,0,0,4069,4074,4075,4071
1494527467616285477,131,1494527468102712217,,14212,0,0,0,53671,142,0,0,0,0,152,1572,1903,1620,0,0,0,0,4068,4076,4081,4066
1494527467637250042,132,1494527468122629159,,14232,0,0,0,53671,142,0,0,0,0,152,1577,1901,1620,0,0,0,0,4067,4076,4071,4061
1494527467657959448,133,1494527468142773515,,14252,0,0,0,53671,142,0,0,0,0,152,1577,1904,1625,0,0,0,0,4069,4075,4062,4063
1494527467676139422,134,1494527468162836456,,14272,0,0,0,53671,142,0,0,0,0,152,1577,1904,1625,0,0,0,0,4070,4077,4066,4068
1494527467697194867,135,1494527468182520942,,14292,0,0,0,53671,142,0,0,0,0,152,1575,1899,1625,0,0,0,0,4069,4078,4059,4069
1494527467716560901,136,1494527468202557716,,14312,0,0,0,53671,142,0,0,0,0,152,1571,1886,1623,0,0,0,0,4072,4080,4057,4067
1494527467739609629,137,1494527468226202950,,14332,0,0,0,53671,142,0,0,0,0,152,1578,1902,1622,0,0,0,0,4069,4070,4064,4066
1494527467756317878,138,1494527468242747805,,14352,0,0,0,53671,142,0,0,0,0,152,1578,1905,1622,0,0,0,0,4074,4068,4058,4067
1494527467776812956,139,1494527468263499654,,14372,0,0,0,53671,142,0,0,0,0,152,1569,1905,1623,0,0,0,0,4075,4066,4060,4068
1494527467795645574,140,1494527468282450441,,14392,0,0,0,53671,142,0,0,0,0,152,1554,1900,1630,0,0,0,0,4076,4073,4061,4071
1494527467817278885,141,1494527468302699254,,14412,0,0,0,53671,142,0,0,0,0,152,1559,1904,1630,0,0,0,0,4075,4064,4063,4069
1494527467840767685,142,1494527468322630488,,14432,0,0,0,53671,142,0,0,0,0,152,1559,1904,1623,0,0,0,0,4069,4067,4061,4071
1494527467856692406,143,1494527468342699470,,14452,0,0,0,53671,142,0,0,0,0,152,1550,1903,1621,0,0,0,0,4067,4070,4064,4074
1494527467876914368,144,1494527468362493122,,14472,0,0,0,53671,142,0,0,0,0,152,1554,1905,1622,0,0,0,0,4071,4073,4073,4079
1494527467896780607,145,1494527468382637728,,14492,0,0,0,53671,142,0,0,0,0,152,1554,1905,1625,0,0,0,0,4067,4066,4067,4076
1494527467916685097,146,1494527468402740710,,14512,0,0,0,53671,142,0,0,0,0,152,1553,1905,1625,0,0,0,0,4066,4067,4068,4076
1494527467942010242,147,1494527468422469154,,14532,0,0,0,53671,142,0,0,0,0,152,1553,1881,1625,0,0,0,0,4066,4067,4069,4077
1494527467957335428,148,1494527468443559041,,14552,0,0,0,53671,142,0,0,0,0,152,1555,1903,1623,0,0,0,0,4065,4071,4069,4078
1494527467977638153,149,1494527468463482525,,14572,0,0,0,53671,142,0,0,0,0,152,1555,1903,1623,0,0,0,0,4065,4070,4068,4074
1494527467996389753,150,1494527468483534340,,14592,0,0,0,53671,142,0,0,0,0,152,1557,1903,1622,0,0,0,0,4063,4073,4074,4078
1494527468018062616,151,1494527468503469282,,14612,0,0,0,53671,142,0,0,0,0,152,1557,1903,1619,0,0,0,0,4070,4070,4069,4079
1494527468044534686,152,1494527468523791720,,14632,0,0,0,53671,142,0,0,0,0,152,1574,1903,1622,0,0,0,0,4069,4078,4072,4077
1494527468062038911,153,1494527468543815369,,14652,0,0,0,53671,142,0,0,0,0,152,1579,1905,1622,0,0,0,0,4068,4078,4075,4067
1494527468082316852,154,1494527468563550855,,14672,0,0,0,53671,142,0,0,0,0,152,1579,1905,1622,0,0,0,0,4067,4072,4070,4068
1494527468098201468,155,1494527468582599265,,14692,0,0,0,53671,142,0,0,0,0,152,1557,1903,1621,0,0,0,0,4067,4075,4075,4062
1494527468118975784,156,1494527468603674111,,14712,0,0,0,53671,142,0,0,0,0,152,1557,1903,1621,0,0,0,0,4071,4081,4069,4060
1494527468147094364,157,1494527468623425930,,14732,0,0,0,53671,142,0,0,0,0,152,1551,1901,1599,0,0,0,0,4071,4075,4064,4068
1494527468157543327,158,1494527468643619952,,14752,0,0,0,53671,142,0,0,0,0,152,1551,1901,1618,0,0,0,0,4074,4080,4058,4066
1494527468181813896,159,1494527468664338010,,14772,0,0,0,53671,142,0,0,0,0,152,1555,1901,1622,0,0,0,0,4071,4079,4060,4067
1494527468200733210,160,1494527468684723114,,14792,0,0,0,53671,142,0,0,0,0,152,1573,1903,1622,0,0,0,0,4067,4068,4059,4073
1494527468217503226,161,1494527468703775566,,14812,0,0,0,53671,142,0,0,0,0,152,1573,1903,1623,0,0,0,0,4069,4069,4061,4067
1494527468236538539,162,1494527468723568218,,14832,0,0,0,53671,142,0,0,0,0,152,1574,1897,1626,0,0,0,0,4070,4068,4063,4071
1494527468256414069,163,1494527468743398786,,14852,0,0,0,53671,142,0,0,0,0,152,1574,1883,1626,0,0,0,0,4070,4069,4063,4074
1494527468277938253,164,1494527468763431602,,14872,0,0,0,53671,142,0,0,0,0,152,1570,1883,1626,0,0,0,0,4069,4064,4066,4073
1494527468297646092,165,1494527468783418251,,14892,0,0,0,53671,142,0,0,0,0,152,1560,1881,1623,0,0,0,0,4066,4072,4068,4071
1494527468321458668,166,1494527468804669053,,14912,0,0,0,53671,142,0,0,0,0,152,1560,1903,1623,0,0,0,0,4061,4071,4073,4076
1494527468340023176,167,1494527468825809773,,14932,0,0,0,53671,142,0,0,0,0,152,1554,1903,1622,0,0,0,0,4063,4072,4073,4076
1494527468356011720,168,1494527468843365367,,14952,0,0,0,53671,142,0,0,0,0,152,1554,1903,1622,0,0,0,0,4063,4071,4069,4080
1494527468376742848,169,1494527468863489765,,14972,0,0,0,53671,142,0,0,0,0,152,1554,1903,1622,0,0,0,0,4069,4069,4071,4079
1494527468397079047,170,1494527468883833786,,14992,0,0,0,53671,142,0,0,0,0,152,1554,1905,1623,0,0,0,0,4065,4072,4075,4082
1494527468417015317,171,1494527468903669187,,15012,0,0,0,53671,142,0,0,0,0,152,1572,1905,1623,0,0,0,0,4071,4077,4077,4087
1494527468437150600,172,1494527468923722295,,15032,0,0,0,53671,142,0,0,0,0,152,1572,1905,1623,0,0,0,0,4065,4074,4072,4072
1494527468460018319,173,1494527468943618029,,15052,0,0,0,53671,142,0,0,0,0,152,1574,1903,1623,0,0,0,0,4074,4072,4072,4065
1494527468477664038,174,1494527468963456638,,15072,0,0,0,53671,142,0,0,0,0,152,1576,1903,1619,0,0,0,0,4071,4080,4072,4060
1494527468496967009,175,1494527468983337164,,15092,0,0,0,53671,142,0,0,0,0,152,1576,1903,1625,0,0,0,0,4069,4074,4069,4066
1494527468519453183,176,1494527469004332511,,15112,0,0,0,53671,142,0,0,0,0,152,1576,1881,1625,0,0,0,0,4069,4075,4063,4066
1494527468538156336,177,1494527469024668032,,15132,0,0,0,53671,142,0,0,0,0,152,1573,1881,1626,0,0,0,0,4070,4076,4061,4065
1494527468557655208,178,1494527469044358602,,15152,0,0,0,53671,142,0,0,0,0,152,1554,1878,1626,0,0,0,0,4069,4070,4061,4073
1494527468578707171,179,1494527469064455917,,15172,0,0,0,53671,142,0,0,0,0,152,1554,1881,1619,0,0,0,0,4067,4063,4060,4072
1494527468599432965,180,1494527469085619304,,15192,0,0,0,53671,142,0,0,0,0,152,1578,1885,1622,0,0,0,0,4066,4064,4065,4077
1494527468617322352,181,1494527469103377021,,15212,0,0,0,53671,142,0,0,0,0,152,1578,1885,1622,0,0,0,0,4066,4072,4065,4072
1494527468637423852,182,1494527469123422878,,15232,0,0,0,53671,142,0,0,0,0,152,1578,1881,1620,0,0,0,0,4059,4068,4067,4078
1494527468656903675,183,1494527469143457195,,15252,0,0,0,53671,142,0,0,0,0,152,1576,1881,1621,0,0,0,0,4065,4075,4069,4076
1494527468680913092,184,1494527469163604176,,15272,0,0,0,53671,142,0,0,0,0,152,1576,1905,1621,0,0,0,0,4065,4071,4071,4077
1494527468697610693,185,1494527469183289163,,15292,0,0,0,53671,142,0,0,0,0,152,1576,1905,1623,0,0,0,0,4065,4072,4076,4082
1494527468719971625,186,1494527469204616006,,15312,0,0,0,53671,142,0,0,0,0,152,1576,1905,1623,0,0,0,0,4064,4074,4077,4083
1494527468737666842,187,1494527469224293160,,15332,0,0,0,53671,142,0,0,0,0,152,1572,1905,1620,0,0,0,0,4067,4075,4079,4082
1494527468759895680,188,1494527469244213644,,15352,0,0,0,53671,142,0,0,0,0,152,1572,1903,1621,0,0,0,0,4067,4072,4075,4084
1494527468779985377,189,1494527469264725371,,15372,0,0,0,53671,142,0,0,0,0,152,1553,1903,1621,0,0,0,0,4067,4071,4073,4086
1494527468798940118,190,1494527469285437430,,15392,0,0,0,53671,142,0,0,0,0,152,1554,1904,1629,0,0,0,0,4062,4069,4070,4083
1494527468818227717,191,1494527469304653880,,15412,0,0,0,53671,142,0,0,0,0,152,1554,1904,1629,0,0,0,0,4074,4076,4070,4078
1494527468837268921,192,1494527469324251451,,15432,0,0,0,53671,142,0,0,0,0,152,1573,1902,1626,0,0,0,0,4065,4073,4074,4074
1494527468861784839,193,1494527469344560639,,15452,0,0,0,53671,142,0,0,0,0,152,1573,1892,1623,0,0,0,0,4069,4074,4075,4075
1494527468877575562,194,1494527469364192251,,15472,0,0,0,53671,142,0,0,0,0,152,1573,1882,1630,0,0,0,0,4065,4077,4080,4070
1494527468899855390,195,1494527469385916590,,15492,0,0,0,53671,142,0,0,0,0,152,1556,1882,1630,0,0,0,0,4067,4074,4073,4064
1494527468919864826,196,1494527469404355216,,15512,0,0,0,53671,142,0,0,0,0,152,1574,1881,1621,0,0,0,0,4069,4075,4068,4065
1494527468937178119,197,1494527469424195326,,15532,0,0,0,53671,142,0,0,0,0,152,1574,1879,1621,0,0,0,0,4068,4076,4070,4060
1494527468957987640,198,1494527469444343432,,15552,0,0,0,53671,142,0,0,0,0,152,1574,1905,1621,0,0,0,0,4071,4080,4065,4063
1494527468978887642,199,1494527469464299999,,15572,0,0,0,53671,142,0,0,0,0,152,1562,1905,1621,0,0,0,0,4071,4072,4058,4068
1494527468998132012,200,1494527469484167192,,15592,0,0,0,53671,142,0,0,0,0,152,1555,1905,1622,0,0,0,0,4071,4071,4066,4070
1494527469019771830,201,1494527469505439078,,15612,0,0,0,53671,142,0,0,0,0,152,1555,1904,1622,0,0,0,0,4074,4068,4062,4073
1494527469037440343,202,1494527469524190533,,15632,0,0,0,53671,142,0,0,0,0,152,1554,1904,1622,0,0,0,0,4063,4072,4070,4071
1494527469057091928,203,1494527469544204350,,15652,0,0,0,53671,142,0,0,0,0,152,1574,1903,1622,0,0,0,0,4067,4067,4068,4075
1494527469080579611,204,1494527469565288154,,15672,0,0,0,53671,142,0,0,0,0,152,1574,1904,1623,0,0,0,0,4063,4068,4067,4075
1494527469098218198,205,1494527469584150858,,15692,0,0,0,53671,142,0,0,0,0,152,1574,1904,1623,0,0,0,0,4068,4075,4074,4083
1494527469117759170,206,1494527469604253257,,15712,0,0,0,53671,142,0,0,0,0,152,1582,1906,1623,0,0,0,0,4069,4076,4075,4081
1494527469141241582,207,1494527469625650141,,15732,0,0,0,53671,142,0,0,0,0,152,1582,1906,1623,0,0,0,0,4064,4075,4074,4077
1494527469159535982,208,1494527469645392086,,15752,0,0,0,53671,142,0,0,0,0,152,1572,1906,1621,0,0,0,0,4068,4077,4072,4076
1494527469181749822,209,1494527469664350372,,15772,0,0,0,53671,142,0,0,0,0,152,1556,1904,1621,0,0,0,0,4065,4071,4072,4079
1494527469198786854,210,1494527469684359064,,15792,0,0,0,53671,142,0,0,0,0,152,1572,1904,1624,0,0,0,0,4064,4073,4071,4082
1494527469218288878,211,1494527469704160007,,15812,0,0,0,53671,142,0,0,0,0,152,1573,1904,1624,0,0,0,0,4070,4071,4072,4080
1494527469243900021,212,1494527469725396018,,15832,0,0,0,53671,142,0,0,0,0,152,1573,1904,1623,0,0,0,0,4065,4071,4072,4084
1494527469260573712,213,1494527469745359502,,15852,0,0,0,53671,142,0,0,0,0,152,1557,1904,1624,0,0,0,0,4068,4078,4073,4077
1494527469279253562,214,1494527469765206612,,15872,0,0,0,53671,142,0,0,0,0,152,1557,1901,1624,0,0,0,0,4065,4070,4070,4076
1494527469298580502,215,1494527469785414301,,15892,0,0,0,53671,142,0,0,0,0,152,1556,1880,1624,0,0,0,0,4070,4075,4069,4079
1494527469318143977,216,1494527469805112163,,15912,0,0,0,53671,142,0,0,0,0,152,1556,1883,1619,0,0,0,0,4065,4071,4072,4084
1494527469339392930,217,1494527469825154479,,15932,0,0,0,53671,142,0,0,0,0,152,1553,1903,1622,0,0,0,0,4062,4070,4070,4082
1494527469360983655,218,1494527469845293669,,15952,0,0,0,53671,142,0,0,0,0,152,1550,1903,1624,0,0,0,0,4065,4071,4073,4082
1494527469384926472,219,1494527469866094226,,15972,0,0,0,53671,142,0,0,0,0,152,1576,1904,1624,0,0,0,0,4065,4069,4069,4078
1494527469400428095,220,1494527469886013377,,15992,0,0,0,53671,142,0,0,0,0,152,1576,1904,1624,0,0,0,0,4064,4071,4070,4080
1494527469420070933,221,1494527469905975110,,16012,0,0,0,53671,142,0,0,0,0,152,1574,1904,1622,0,0,0,0,4064,4073,4076,4083
1494527469439432903,222,1494527469925133770,,16032,0,0,0,53671,142,0,0,0,0,152,1574,1903,1622,0,0,0,0,4066,4070,4071,4082
1494527469461124936,223,1494527469947531018,,16052,0,0,0,53671,142,0,0,0,0,152,1572,1903,1623,0,0,0,0,4065,4075,4069,4077
1494527469479155464,224,1494527469965146444,,16072,0,0,0,53671,142,0,0,0,0,152,1552,1906,1626,0,0,0,0,4064,4072,4071,4079
1494527469500019052,225,1494527469985317426,,16092,0,0,0,53671,142,0,0,0,0,152,1553,1906,1626,0,0,0,0,4069,4070,4071,4079
1494527469518215381,226,1494527470005104828,,16112,0,0,0,53671,142,0,0,0,0,152,1553,1906,1625,0,0,0,0,4070,4070,4072,4081
1494527469542761090,227,1494527470025496265,,16132,0,0,0,53671,142,0,0,0,0,152,1551,1904,1625,0,0,0,0,4071,4073,4069,4080
1494527469560052494,228,1494527470045541748,,16152,0,0,0,53671,142,0,0,0,0,152,1588,1904,1619,0,0,0,0,4065,4075,4077,4082
1494527469579982254,229,1494527470065383567,,16172,0,0,0,53671,142,0,0,0,0,152,1588,1904,1624,0,0,0,0,4066,4072,4070,4080
1494527469598537152,230,1494527470085307135,,16192,0,0,0,53671,142,0,0,0,0,152,1575,1882,1624,0,0,0,0,4072,4075,4070,4081
1494527469632857056,231,1494527470105373951,,16212,0,0,0,53671,142,0,0,0,0,152,1555,1903,1622,0,0,0,0,4064,4074,4076,4080
1494527469639191702,232,1494527470125540349,,16232,0,0,0,53671,142,0,0,0,0,152,1581,1903,1624,0,0,0,0,4065,4074,4076,4087
1494527469661750026,233,1494527470147044691,,16252,0,0,0,53671,142,0,0,0,0,152,1581,1881,1624,0,0,0,0,4066,4074,4075,4071
1494527469682030639,234,1494527470165467858,,16272,0,0,0,53671,142,0,0,0,0,152,1581,1884,1633,0,0,0,0,4067,4073,4073,4066
1494527469698869024,235,1494527470185210470,,16292,0,0,0,53671,142,0,0,0,0,152,1554,1905,1633,0,0,0,0,4068,4074,4070,4063
1494527469718012793,236,1494527470205076622,,16312,0,0,0,53671,142,0,0,0,0,152,1554,1905,1619,0,0,0,0,4071,4075,4067,4067
1494527469739696194,237,1494527470225025272,,16332,0,0,0,53671,142,0,0,0,0,152,1553,1903,1621,0,0,0,0,4069,4079,4066,4066
1494527469759296298,238,1494527470245157879,,16352,0,0,0,53671,142,0,0,0,0,152,1553,1903,1621,0,0,0,0,4071,4068,4062,4074
1494527469777901779,239,1494527470264996406,,16372,0,0,0,53671,142,0,0,0,0,152,1555,1883,1621,0,0,0,0,4077,4075,4068,4075
1494527469799319178,240,1494527470285157346,,16392,0,0,0,53671,142,0,0,0,0,152,1555,1902,1622,0,0,0,0,4078,4063,4066,4074
1494527469818175142,241,1494527470305072122,,16412,0,0,0,53671,142,0,0,0,0,152,1553,1902,1622,0,0,0,0,4063,4069,4073,4075
1494527469840329372,242,1494527470326201968,,16432,0,0,0,53671,142,0,0,0,0,152,1562,1904,1622,0,0,0,0,4068,4068,4065,4075
1494527469861782425,243,1494527470346684655,,16452,0,0,0,53671,142,0,0,0,0,152,1562,1904,1621,0,0,0,0,4063,4069,4071,4081
1494527469886474699,244,1494527470367104133,,16472,0,0,0,53671,142,0,0,0,0,152,1566,1904,1621,0,0,0,0,4064,4074,4068,4075
1494527469900337200,245,1494527470386022129,,16492,0,0,0,53671,142,0,0,0,0,152,1566,1882,1620,0,0,0,0,4063,4071,4069,4080
1494527469920331878,246,1494527470406099362,,16512,0,0,0,53671,142,0,0,0,0,152,1554,1879,1622,0,0,0,0,4067,4076,4073,4076
1494527469939367580,247,1494527470425141231,,16532,0,0,0,53671,142,0,0,0,0,152,1554,1903,1627,0,0,0,0,4066,4071,4071,4079
1494527469959681459,248,1494527470445389378,,16552,0,0,0,53671,142,0,0,0,0,152,1574,1903,1627,0,0,0,0,4065,4074,4071,4080
1494527469988274992,249,1494527470468004457,,16572,0,0,0,53671,142,0,0,0,0,152,1579,1903,1625,0,0,0,0,4067,4073,4075,4072
1494527470000607007,250,1494527470486749580,,16592,0,0,0,53671,142,0,0,0,0,152,1579,1882,1622,0,0,0,0,4067,4076,4078,4063
1494527470019617444,251,1494527470506045280,,16612,0,0,0,53671,142,0,0,0,0,152,1579,1904,1653,0,0,0,0,4072,4073,4065,4058
1494527470040111675,252,1494527470526028097,,16632,0,0,0,53671,142,0,0,0,0,152,1554,1904,1653,0,0,0,0,4073,4074,4064,4063
1494527470058945165,253,1494527470545948998,,16652,0,0,0,53671,142,0,0,0,0,152,1552,1885,1623,0,0,0,0,4072,4079,4062,4065
1494527470079934364,254,1494527470566065772,,16672,0,0,0,53671,142,0,0,0,0,152,1553,1906,1623,0,0,0,0,4072,4082,4065,4063
1494527470099102844,255,1494527470585950590,,16692,0,0,0,53671,142,0,0,0,0,152,1555,1906,1622,0,0,0,0,4071,4083,4059,4066
1494527470124533963,256,1494527470606699565,,16712,0,0,0,53671,142,0,0,0,0,152,1555,1902,1622,0,0,0,0,4075,4073,4057,4069
1494527470140184642,257,1494527470626451843,,16732,0,0,0,53671,142,0,0,0,0,152,1554,1904,1622,0,0,0,0,4073,4074,4060,4069
1494527470159990148,258,1494527470646321620,,16752,0,0,0,53671,142,0,0,0,0,152,1571,1906,1622,0,0,0,0,4074,4066,4061,4069
1494527470180841374,259,1494527470666368228,,16772,0,0,0,53671,142,0,0,0,0,152,1575,1906,1621,0,0,0,0,4072,4070,4064,4073
1494527470205706648,260,1494527470690195293,,16792,0,0,0,53671,142,0,0,0,0,152,1575,1906,1621,0,0,0,0,4071,4066,4062,4070
1494527470222947886,261,1494527470707668263,,16812,0,0,0,53671,142,0,0,0,0,152,1575,1907,1625,0,0,0,0,4081,4064,4065,4077
1494527470239771893,262,1494527470725954558,,16832,0,0,0,53671,142,0,0,0,0,152,1555,1907,1626,0,0,0,0,4070,4063,4064,4073
1494527470261186665,263,1494527470745926583,,16852,0,0,0,53671,142,0,0,0,0,152,1553,1903,1626,0,0,0,0,4068,4068,4061,4072
1494527470279451923,264,1494527470765901775,,16872,0,0,0,53671,142,0,0,0,0,152,1553,1903,1626,0,0,0,0,4065,4065,4064,4073
1494527470299714729,265,1494527470786140131,,16892,0,0,0,53671,142,0,0,0,0,152,1553,1900,1624,0,0,0,0,4070,4068,4063,4074
1494527470325686955,266,1494527470809231580,,16912,0,0,0,53671,142,0,0,0,0,152,1553,1900,1622,0,0,0,0,4068,4065,4066,4074
1494527470343751150,267,1494527470827627998,,16932,0,0,0,53671,142,0,0,0,0,152,1552,1903,1624,0,0,0,0,4062,4070,4072,4074
1494527470365758808,268,1494527470847487025,,16952,0,0,0,53671,142,0,0,0,0,152,1552,1903,1624,0,0,0,0,4065,4068,4068,4073
1494527470386934602,269,1494527470868274291,,16972,0,0,0,53671,142,0,0,0,0,152,1556,1903,1621,0,0,0,0,4061,4069,4065,4073
1494527470405937017,270,1494527470891271783,,16992,0,0,0,53671,142,0,0,0,0,152,1556,1910,1624,0,0,0,0,4063,4070,4070,4082
1494527470422183695,271,1494527470907131521,,17012,0,0,0,53671,142,0,0,0,0,152,1553,1910,1624,0,0,0,0,4065,4071,4074,4082
1494527470439947949,272,1494527470926863924,,17032,0,0,0,53671,142,0,0,0,0,152,1553,1880,1621,0,0,0,0,4066,4071,4074,4084
1494527470460061771,273,1494527470946823283,,17052,0,0,0,53671,142,0,0,0,0,152,1552,1880,1623,0,0,0,0,4073,4077,4070,4073
1494527470480710012,274,1494527470966767517,,17072,0,0,0,53671,142,0,0,0,0,152,1554,1880,1625,0,0,0,0,4073,4075,4071,4070
1494527470505850650,275,1494527470989076266,,17092,0,0,0,53671,142,0,0,0,0,152,1554,1880,1630,0,0,0,0,4074,4076,4078,4063
1494527470520412702,276,1494527471006058826,,17112,0,0,0,53671,142,0,0,0,0,152,1553,1906,1630,0,0,0,0,4072,4078,4075,4061
1494527470539104830,277,1494527471025802437,,17132,0,0,0,53671,142,0,0,0,0,152,1553,1906,1630,0,0,0,0,4073,4073,4065,4061
1494527470559278272,278,1494527471045901920,,17152,0,0,0,53671,142,0,0,0,0,152,1578,1898,1624,0,0,0,0,4070,4075,4065,4068
1494527470578891809,279,1494527471065854404,,17172,0,0,0,53671,142,0,0,0,0,152,1578,1885,1623,0,0,0,0,4069,4084,4065,4066
1494527470602870850,280,1494527471086850585,,17192,0,0,0,53671,142,0,0,0,0,152,1573,1885,1627,0,0,0,0,4070,4069,4065,4068
1494527470623179167,281,1494527471107318272,,17212,0,0,0,53671,142,0,0,0,0,152,1573,1884,1627,0,0,0,0,4064,4065,4064,4075
1494527470641131892,282,1494527471127666877,,17232,0,0,0,53671,142,0,0,0,0,152,1576,1903,1622,0,0,0,0,4069,4064,4065,4073
1494527470660259815,283,1494527471146919328,,17252,0,0,0,53671,142,0,0,0,0,152,1576,1903,1622,0,0,0,0,4063,4069,4069,4080
1494527470679985089,284,1494527471166821938,,17272,0,0,0,53671,142,0,0,0,0,152,1572,1903,1623,0,0,0,0,4070,4071,4069,4076
1494527470706441074,285,1494527471186855254,,17292,0,0,0,53671,142,0,0,0,0,152,1554,1902,1623,0,0,0,0,4064,4069,4071,4082
1494527470722948448,286,1494527471207009111,,17312,0,0,0,53671,142,0,0,0,0,152,1553,1902,1622,0,0,0,0,4063,4071,4069,4080
1494527470741681413,287,1494527471228195207,,17332,0,0,0,53671,142,0,0,0,0,152,1553,1901,1622,0,0,0,0,4073,4078,4078,4082
1494527470760609181,288,1494527471246956788,,17352,0,0,0,53671,142,0,0,0,0,152,1552,1904,1622,0,0,0,0,4072,4073,4073,4068
1494527470781793972,289,1494527471268067218,,17372,0,0,0,53671,142,0,0,0,0,152,1554,1904,1623,0,0,0,0,4068,4073,4073,4064
1494527470801866096,290,1494527471287360418,,17392,0,0,0,53671,142,0,0,0,0,152,1570,1898,1626,0,0,0,0,4074,4079,4065,4062
1494527470820833189,291,1494527471306809783,,17412,0,0,0,53671,142,0,0,0,0,152,1570,1881,1626,0,0,0,0,4070,4076,4063,4065
1494527471046795122,292,1494527471326838558,,17432,0,0,0,53671,142,0,0,0,0,152,1570,1879,1623,0,0,0,0,4075,4080,4057,4068
1494527471046849888,293,1494527471346960540,,17452,0,0,0,53671,142,0,0,0,0,152,1552,1904,1624,0,0,0,0,4073,4068,4062,4072
1494527471046861708,294,1494527471366709152,,17472,0,0,0,53671,142,0,0,0,0,152,1553,1904,1624,0,0,0,0,4070,4068,4065,4074
1494527471046868333,295,1494527471386763969,,17492,0,0,0,53671,142,0,0,0,0,152,1622,1903,1623,0,0,0,0,4067,4066,4066,4074
1494527471046921053,296,1494527471406798202,,17512,0,0,0,53671,142,0,0,0,0,152,1622,1906,1620,0,0,0,0,4070,4069,4063,4074
1494527471046928865,297,1494527471427304722,,17532,0,0,0,53671,142,0,0,0,0,152,1554,1906,1622,0,0,0,0,4062,4069,4073,4075
1494527471046950933,298,1494527471447703743,,17552,0,0,0,53671,142,0,0,0,0,152,1576,1906,1623,0,0,0,0,4067,4067,4069,4075
1494527471046963467,299,1494527471466652655,,17572,0,0,0,53671,142,0,0,0,0,152,1576,1905,1623,0,0,0,0,4062,4070,4074,4075
1494527471046971819,300,1494527471490998549,,17592,0,0,0,53671,142,0,0,0,0,152,1580,1905,1623,0,0,0,0,4063,4071,4069,4080
1494527471046977898,301,1494527471506740913,,17612,0,0,0,53671,142,0,0,0,0,152,1580,1903,1615,0,0,0,0,4068,4071,4072,4079
1494527471047016357,302,1494527471526871479,,17632,0,0,0,53671,142,0,0,0,0,152,1580,1903,1598,0,0,0,0,4065,4075,4075,4079
1494527471061998345,303,1494527471548421779,,17652,0,0,0,53671,142,0,0,0,0,152,1577,1903,1627,0,0,0,0,4066,4075,4076,4080
1494527471079782487,304,1494527471566765740,,17672,0,0,0,53671,142,0,0,0,0,152,1577,1904,1627,0,0,0,0,4063,4072,4073,4074
1494527471099536976,305,1494527471586642100,,17692,0,0,0,53671,142,0,0,0,0,152,1577,1904,1623,0,0,0,0,4067,4076,4078,4066
1494527471120586326,306,1494527471606695000,,17712,0,0,0,53671,142,0,0,0,0,152,1577,1903,1623,0,0,0,0,4069,4073,4068,4066
1494527471140121735,307,1494527471626676442,,17732,0,0,0,53671,142,0,0,0,0,152,1573,1903,1622,0,0,0,0,4069,4075,4063,4063
1494527471162274205,308,1494527471648869651,,17752,0,0,0,53671,142,0,0,0,0,152,1577,1902,1599,0,0,0,0,4074,4075,4064,4063
1494527471184595521,309,1494527471667650482,,17772,0,0,0,53671,142,0,0,0,0,152,1577,1902,1599,0,0,0,0,4071,4076,4062,4066
1494527471200704511,310,1494527471687737423,,17792,0,0,0,53671,142,0,0,0,0,152,1574,1896,1621,0,0,0,0,4069,4075,4060,4069
1494527471224855654,311,1494527471707612909,,17812,0,0,0,53671,142,0,0,0,0,152,1574,1900,1628,0,0,0,0,4070,4078,4061,4069
1494527471241935650,312,1494527471727588684,,17832,0,0,0,53671,142,0,0,0,0,152,1575,1905,1628,0,0,0,0,4071,4071,4063,4071
1494527471263753640,313,1494527471748269285,,17852,0,0,0,53671,142,0,0,0,0,152,1575,1905,1623,0,0,0,0,4076,4071,4063,4072
1494527471282814315,314,1494527471768286144,,17872,0,0,0,53671,142,0,0,0,0,152,1573,1899,1618,0,0,0,0,4062,4063,4062,4073
1494527471303108759,315,1494527471788456876,,17892,0,0,0,53671,142,0,0,0,0,152,1573,1886,1620,0,0,0,0,4062,4066,4068,4079
1494527471324443495,316,1494527471808409194,,17912,0,0,0,53671,142,0,0,0,0,152,1554,1881,1620,0,0,0,0,4066,4067,4069,4076
1494527471346886092,317,1494527471830884358,,17932,0,0,0,53671,142,0,0,0,0,152,1553,1903,1620,0,0,0,0,4063,4066,4068,4074
1494527471371001245,318,1494527471855837953,,17952,0,0,0,53671,142,0,0,0,0,152,1554,1903,1620,0,0,0,0,4066,4067,4068,4074
1494527471381909908,319,1494527471867882109,,17972,0,0,0,53671,142,0,0,0,0,152,1554,1903,1624,0,0,0,0,4068,4075,4075,4082
1494527471400839142,320,1494527471887645429,,17992,0,0,0,53671,142,0,0,0,0,152,1553,1880,1624,0,0,0,0,4070,4077,4077,4084
1494527471422043713,321,1494527471907555747,,18012,0,0,0,53671,142,0,0,0,0,152,1555,1904,1624,0,0,0,0,4068,4076,4075,4076
1494527471442721992,322,1494527471927762354,,18032,0,0,0,53671,142,0,0,0,0,152,1555,1904,1623,0,0,0,0,4066,4073,4073,4081
1494527471465095121,323,1494527471947634631,,18052,0,0,0,53671,142,0,0,0,0,152,1555,1904,1620,0,0,0,0,4065,4075,4078,4074
1494527471482440419,324,1494527471967655364,,18072,0,0,0,53671,142,0,0,0,0,152,1563,1886,1621,0,0,0,0,4068,4074,4075,4073
1494527471510772708,325,1494527471997503529,,18092,0,0,0,53671,142,0,0,0,0,152,1563,1902,1621,0,0,0,0,4072,4072,4073,4063
1494527471526351889,326,1494527472008643404,,18112,0,0,0,53671,142,0,0,0,0,152,1553,1905,1622,0,0,0,0,4069,4076,4071,4062
1494527471541710287,327,1494527472027622817,,18132,0,0,0,53671,142,0,0,0,0,152,1560,1905,1622,0,0,0,0,4066,4075,4078,4066
1494527471561386455,328,1494527472047606884,,18152,0,0,0,53671,142,0,0,0,0,152,1560,1905,1621,0,0,0,0,4067,4074,4080,4063
1494527471581052380,329,1494527472067629702,,18172,0,0,0,53671,142,0,0,0,0,152,1560,1905,1622,0,0,0,0,4071,4079,4074,4061
1494527471601032869,330,1494527472087486979,,18192,0,0,0,53671,142,0,0,0,0,152,1553,1906,1624,0,0,0,0,4069,4077,4088,4063
1494527471620405961,331,1494527472107480963,,18212,0,0,0,53671,142,0,0,0,0,152,1553,1906,1624,0,0,0,0,4068,4074,4072,4059
1494527471640478066,332,1494527472127561905,,18232,0,0,0,53671,142,0,0,0,0,152,1551,1909,1623,0,0,0,0,4070,4079,4064,4058
1494527471660442566,333,1494527472147411599,,18252,0,0,0,53671,142,0,0,0,0,152,1552,1909,1623,0,0,0,0,4069,4075,4067,4064
1494527471683830522,334,1494527472169348895,,18272,0,0,0,53671,142,0,0,0,0,152,1552,1902,1629,0,0,0,0,4069,4078,4071,4067
1494527471705763966,335,1494527472187971436,,18292,0,0,0,53671,142,0,0,0,0,152,1552,1903,1629,0,0,0,0,4069,4075,4066,4069
1494527471722902140,336,1494527472208648412,,18312,0,0,0,53671,142,0,0,0,0,152,1576,1903,1600,0,0,0,0,4073,4074,4063,4066
1494527471742806671,337,1494527472228652688,,18332,0,0,0,53671,142,0,0,0,0,152,1576,1896,1600,0,0,0,0,4070,4078,4062,4072
1494527471764032470,338,1494527472248693380,,18352,0,0,0,53671,142,0,0,0,0,152,1567,1879,1621,0,0,0,0,4071,4075,4059,4071
1494527471784958757,339,1494527472268664615,,18372,0,0,0,53671,142,0,0,0,0,152,1552,1881,1621,0,0,0,0,4076,4076,4066,4074
1494527471802464680,340,1494527472288488559,,18392,0,0,0,53671,142,0,0,0,0,152,1552,1905,1619,0,0,0,0,4070,4070,4066,4069
1494527471823473222,341,1494527472308195505,,18412,0,0,0,53671,142,0,0,0,0,152,1550,1905,1620,0,0,0,0,4075,4066,4060,4071
1494527471843497593,342,1494527472328181197,,18432,0,0,0,53671,142,0,0,0,0,152,1551,1904,1629,0,0,0,0,4074,4064,4062,4070
1494527471861242781,343,1494527472347808686,,18452,0,0,0,53671,142,0,0,0,0,152,1553,1904,1633,0,0,0,0,4075,4064,4064,4072
1494527471883560089,344,1494527472370013104,,18472,0,0,0,53671,142,0,0,0,0,152,1573,1903,1633,0,0,0,0,4068,4060,4062,4071
1494527471902588324,345,1494527472388685269,,18492,0,0,0,53671,142,0,0,0,0,152,1577,1903,1622,0,0,0,0,4064,4065,4063,4073
1494527471923180083,346,1494527472408448964,,18512,0,0,0,53671,142,0,0,0,0,152,1577,1903,1622,0,0,0,0,4069,4063,4063,4073
1494527471945070254,347,1494527472429103774,,18532,0,0,0,53671,142,0,0,0,0,152,1550,1903,1622,0,0,0,0,4062,4067,4065,4077
1494527471967542218,348,1494527472449740085,,18552,0,0,0,53671,142,0,0,0,0,152,1552,1903,1604,0,0,0,0,4063,4068,4066,4071
1494527471983744127,349,1494527472468624915,,18572,0,0,0,53671,142,0,0,0,0,152,1555,1898,1622,0,0,0,0,4062,4069,4068,4075
1494527472003418064,350,1494527472488626816,,18592,0,0,0,53671,142,0,0,0,0,152,1555,1888,1622,0,0,0,0,4063,4070,4073,4075
1494527472022479976,351,1494527472508451802,,18612,0,0,0,53671,142,0,0,0,0,152,1553,1888,1624,0,0,0,0,4063,4071,4074,4077
1494527472043877984,352,1494527472528759616,,18632,0,0,0,53671,142,0,0,0,0,152,1555,1882,1624,0,0,0,0,4063,4069,4070,4079
1494527472061533316,353,1494527472548464103,,18652,0,0,0,53671,142,0,0,0,0,152,1555,1882,1624,0,0,0,0,4064,4074,4075,4077
1494527472083708418,354,1494527472569163079,,18672,0,0,0,53671,142,0,0,0,0,152,1570,1882,1621,0,0,0,0,4065,4070,4071,4082
1494527472103480191,355,1494527472589712766,,18692,0,0,0,53671,142,0,0,0,0,152,1576,1881,1622,0,0,0,0,4069,4069,4070,4079
1494527472122135217,356,1494527472608510930,,18712,0,0,0,53671,142,0,0,0,0,152,1576,1881,1622,0,0,0,0,4067,4071,4073,4082
1494527472142350166,357,1494527472628706287,,18732,0,0,0,53671,142,0,0,0,0,152,1554,1881,1622,0,0,0,0,4069,4070,4072,4079
1494527472164255540,358,1494527472648449649,,18752,0,0,0,53671,142,0,0,0,0,152,1577,1885,1622,0,0,0,0,4063,4069,4071,4082
1494527472182533275,359,1494527472668364134,,18772,0,0,0,53671,142,0,0,0,0,152,1577,1885,1611,0,0,0,0,4066,4075,4078,4085
1494527472209040002,360,1494527472688411243,,18792,0,0,0,53671,142,0,0,0,0,152,1577,1900,1625,0,0,0,0,4068,4078,4077,4075
1494527472222234315,361,1494527472708350644,,18812,0,0,0,53671,142,0,0,0,0,152,1574,1903,1625,0,0,0,0,4072,4078,4073,4069
1494527472245237441,362,1494527472728350670,,18832,0,0,0,53671,142,0,0,0,0,152,1574,1903,1622,0,0,0,0,4067,4074,4073,4073
1494527472261976794,363,1494527472748411278,,18852,0,0,0,53671,142,0,0,0,0,152,1572,1895,1622,0,0,0,0,4067,4073,4076,4074
1494527472290184604,364,1494527472769719165,,18872,0,0,0,53671,142,0,0,0,0,152,1552,1881,1604,0,0,0,0,4068,4074,4072,4063
1494527472313299519,365,1494527472789244779,,18892,0,0,0,53671,142,0,0,0,0,152,1553,1880,1623,0,0,0,0,4068,4075,4080,4060
1494527472357896117,366,1494527472810096545,,18912,0,0,0,53671,142,0,0,0,0,152,1576,1881,1623,0,0,0,0,4068,4075,4068,4063
1494527472357910886,367,1494527472830649773,,18932,0,0,0,53671,142,0,0,0,0,152,1576,1884,1623,0,0,0,0,4069,4075,4070,4066
1494527472373618523,368,1494527472851038628,,18952,0,0,0,53671,142,0,0,0,0,152,1576,1884,1623,0,0,0,0,4067,4075,4062,4065
1494527472406578441,369,1494527472868291476,,18972,0,0,0,53671,142,0,0,0,0,152,1570,1884,1621,0,0,0,0,4069,4076,4058,4068
1494527472465189202,370,1494527472888346210,,18992,0,0,0,53671,142,0,0,0,0,152,1552,1905,1625,0,0,0,0,4071,4069,4061,4070
1494527472465262835,371,1494527472908372777,,19012,0,0,0,53671,142,0,0,0,0,152,1552,1905,1625,0,0,0,0,4071,4072,4065,4068
1494527472465282881,372,1494527472930948274,,19032,0,0,0,53671,142,0,0,0,0,152,1553,1896,1623,0,0,0,0,4075,4066,4062,4070
1494527472485874419,373,1494527472952655656,,19052,0,0,0,53671,142,0,0,0,0,152,1553,1881,1621,0,0,0,0,4070,4067,4068,4072
1494527472500460358,374,1494527472980831923,,19072,0,0,0,53671,142,0,0,0,0,152,1549,1902,1621,0,0,0,0,4075,4065,4062,4073
1494527472524692664,375,1494527472989438993,,19092,0,0,0,53671,142,0,0,0,0,152,1553,1905,1622,0,0,0,0,4065,4068,4062,4068
1494527472524702484,376,1494527473009422019,,19112,0,0,0,53671,142,0,0,0,0,152,1575,1905,1628,0,0,0,0,4061,4063,4065,4076
1494527472543410696,377,1494527473029333297,,19132,0,0,0,53671,142,0,0,0,0,152,1575,1904,1628,0,0,0,0,4066,4071,4070,4078
1494527472563452711,378,1494527473049279740,,19152,0,0,0,53671,142,0,0,0,0,152,1575,1902,1628,0,0,0,0,4064,4067,4067,4077
1494527472582628692,379,1494527473069370765,,19172,0,0,0,53671,142,0,0,0,0,152,1560,1904,1621,0,0,0,0,4062,4068,4071,4082
1494527472602243759,380,1494527473089306375,,19192,0,0,0,53671,142,0,0,0,0,152,1560,1905,1622,0,0,0,0,4063,4070,4069,4078
1494527472622794223,381,1494527473109367026,,19212,0,0,0,53671,142,0,0,0,0,152,1573,1905,1622,0,0,0,0,4067,4077,4075,4079
1494527472643213896,382,1494527473129476551,,19232,0,0,0,53671,142,0,0,0,0,152,1573,1904,1623,0,0,0,0,4065,4074,4071,4083
1494527472664858883,383,1494527473150377942,,19252,0,0,0,53671,142,0,0,0,0,152,1571,1902,1623,0,0,0,0,4071,4079,4075,4072
1494527472684707852,384,1494527473169355646,,19272,0,0,0,53671,142,0,0,0,0,152,1555,1902,1614,0,0,0,0,4073,4075,4075,4068
1494527472702750167,385,1494527473189289673,,19292,0,0,0,53671,142,0,0,0,0,152,1552,1902,1600,0,0,0,0,4074,4080,4087,4060
1494527472723227205,386,1494527473209317657,,19312,0,0,0,53671,142,0,0,0,0,152,1553,1902,1619,0,0,0,0,4072,4073,4066,4061
1494527472743724658,387,1494527473229281808,,19332,0,0,0,53671,142,0,0,0,0,152,1575,1902,1624,0,0,0,0,4070,4082,4066,4064
1494527472764023006,388,1494527473249635955,,19352,0,0,0,53671,142,0,0,0,0,152,1575,1902,1624,0,0,0,0,4076,4074,4056,4067
1494527472783736829,389,1494527473269282611,,19372,0,0,0,53671,142,0,0,0,0,152,1566,1878,1622,0,0,0,0,4076,4072,4064,4073
1494527472804689743,390,1494527473290820661,,19392,0,0,0,53671,142,0,0,0,0,152,1557,1905,1622,0,0,0,0,4073,4072,4066,4074
1494527472822492167,391,1494527473309352912,,19412,0,0,0,53671,142,0,0,0,0,152,1552,1905,1625,0,0,0,0,4072,4068,4067,4069
1494527472844130477,392,1494527473330977045,,19432,0,0,0,53671,142,0,0,0,0,152,1574,1904,1625,0,0,0,0,4069,4063,4065,4073
1494527472867473218,393,1494527473352592720,,19452,0,0,0,53671,142,0,0,0,0,152,1574,1904,1622,0,0,0,0,4068,4070,4070,4077
1494527472882980098,394,1494527473369471864,,19472,0,0,0,53671,142,0,0,0,0,152,1574,1905,1621,0,0,0,0,4063,4068,4065,4074
1494527472905041642,395,1494527473389372808,,19492,0,0,0,53671,142,0,0,0,0,152,1574,1905,1621,0,0,0,0,4062,4067,4065,4076
1494527472923437101,396,1494527473409230877,,19512,0,0,0,53671,142,0,0,0,0,152,1574,1902,1621,0,0,0,0,4061,4067,4068,4078
1494527472943110412,397,1494527473429529692,,19532,0,0,0,53671,142,0,0,0,0,152,1552,1901,1621,0,0,0,0,4063,4070,4073,4075
1494527472964130573,398,1494527473449625383,,19552,0,0,0,53671,142,0,0,0,0,152,1552,1903,1621,0,0,0,0,4064,4067,4070,4080
1494527472982458772,399,1494527473469228664,,19572,0,0,0,53671,142,0,0,0,0,152,1576,1903,1621,0,0,0,0,4065,4074,4073,4080
1494527473003579280,400,1494527473489370314,,19592,0,0,0,53671,142,0,0,0,0,152,1576,1903,1619,0,0,0,0,4067,4072,4066,4077
1494527473023232794,401,1494527473509157592,,19612,0,0,0,53671,142,0,0,0,0,152,1569,1903,1621,0,0,0,0,4065,4067,4067,4075
1494527473044399440,402,1494527473530227606,,19632,0,0,0,53671,142,0,0,0,0,152,1552,1880,1621,0,0,0,0,4061,4070,4074,4076
1494527473066985182,403,1494527473550732960,,19652,0,0,0,53671,142,0,0,0,0,152,1552,1884,1621,0,0,0,0,4062,4073,4074,4075
1494527473084154166,404,1494527473570462489,,19672,0,0,0,53671,142,0,0,0,0,152,1553,1884,1621,0,0,0,0,4061,4068,4067,4077
1494527473104817228,405,1494527473590170394,,19692,0,0,0,53671,142,0,0,0,0,152,1565,1901,1624,0,0,0,0,4065,4073,4072,4080
1494527473126571751,406,1494527473610360751,,19712,0,0,0,53671,142,0,0,0,0,152,1565,1904,1626,0,0,0,0,4066,4074,4068,4078
1494527473143340526,407,1494527473629337913,,19732,0,0,0,53671,142,0,0,0,0,152,1552,1904,1626,0,0,0,0,4060,4068,4072,4075
1494527473166240151,408,1494527473650188555,,19752,0,0,0,53671,142,0,0,0,0,152,1557,1904,1622,0,0,0,0,4061,4071,4073,4077
1494527473187025987,409,1494527473670719700,,19772,0,0,0,53671,142,0,0,0,0,152,1557,1901,1622,0,0,0,0,4063,4072,4067,4075
1494527473204652123,410,1494527473691225596,,19792,0,0,0,53671,142,0,0,0,0,152,1564,1902,1618,0,0,0,0,4065,4074,4067,4074
1494527473224069935,411,1494527473710358298,,19812,0,0,0,53671,142,0,0,0,0,152,1564,1905,1623,0,0,0,0,4067,4072,4065,4076
1494527473244074377,412,1494527473730307867,,19832,0,0,0,53671,142,0,0,0,0,151,1575,1905,1623,0,0,0,0,4063,4070,4069,4082
1494527473267261005,413,1494527473750189811,,19852,0,0,0,53671,142,0,0,0,0,151,1575,1905,1623,0,0,0,0,4059,4068,4067,4079
1494527473284525378,414,1494527473770356418,,19872,0,0,0,53671,142,0,0,0,0,151,1573,1904,1622,0,0,0,0,4061,4067,4071,4081
1494527473304479884,415,1494527473790180655,,19892,0,0,0,53671,142,0,0,0,0,151,1573,1904,1623,0,0,0,0,4062,4071,4074,4076
1494527473324121510,416,1494527473810112682,,19912,0,0,0,53671,142,0,0,0,0,151,1554,1881,1623,0,0,0,0,4063,4071,4074,4077
1494527473350398773,417,1494527473830202832,,19932,0,0,0,53671,142,0,0,0,0,152,1574,1901,1614,0,0,0,0,4062,4072,4075,4079
1494527473367523428,418,1494527473850209691,,19952,0,0,0,53671,142,0,0,0,0,152,1574,1901,1603,0,0,0,0,4066,4069,4069,4077
1494527473383608474,419,1494527473870171134,,19972,0,0,0,53671,142,0,0,0,0,152,1559,1903,1623,0,0,0,0,4069,4070,4072,4080
1494527473403972233,420,1494527473890136244,,19992,0,0,0,53671,142,0,0,0,0,152,1559,1903,1623,0,0,0,0,4068,4072,4073,4082
1494527473425305709,421,1494527473911482547,,20012,0,0,0,53671,142,19,19,0,0,152,1553,1903,1620,0,0,0,0,4069,4076,4072,4072
1494527473444856033,422,1494527473930636541,,20032,0,0,0,53671,142,19,19,0,0,152,1556,1902,1622,0,0,0,0,4072,4072,4074,4065
1494527473471494935,423,1494527473950915022,,20052,0,0,0,53671,142,19,19,0,0,152,1556,1902,1622,0,0,0,0,4066,4074,4074,4063
1494527473484981067,424,1494527473970768842,,20072,0,0,0,53671,142,19,19,0,0,152,1556,1908,1622,0,0,0,0,4069,4078,4077,4064
1494527473506133007,425,1494527473990715118,,20092,0,0,0,53671,142,19,19,0,0,152,1554,1908,1622,0,0,0,0,4068,4076,4077,4062
1494527473528904818,426,1494527474011210931,,20112,0,0,0,53672,142,18,18,0,0,152,1553,1900,1620,0,0,0,0,4068,4072,4065,4065
1494527473548140113,427,1494527474031449413,,20132,0,0,0,53679,149,15,15,0,0,152,1572,1902,1625,1,1,0,0,4070,4079,4067,4059
1494527473573596272,428,1494527474053171670,,20152,0,0,0,53687,154,11,13,0,0,152,1626,1902,1625,1,1,0,0,4067,4074,4060,4063
1494527473610759103,429,1494527474071384841,,20172,0,0,0,53692,161,9,9,0,0,152,1626,1881,1619,0,1,0,0,4069,4082,4058,4063
1494527473627125168,430,1494527474092431398,,20192,0,0,0,53696,165,10,11,0,0,152,1578,1881,1617,0,0,0,0,4068,4071,4065,4070
1494527473627148142,431,1494527474110330156,,20212,0,0,0,53700,167,12,12,0,0,152,1576,1882,1598,0,0,0,0,4072,4074,4062,4066
1494527473653309188,432,1494527474130208142,,20232,0,0,0,53705,173,12,13,0,0,152,1577,1882,1600,1,0,0,0,4073,4072,4054,4067
1494527473663815613,433,1494527474150558665,,20252,0,0,0,53712,180,30,30,0,0,152,1577,1904,1602,3,2,0,0,4070,4075,4062,4065
1494527473685130669,434,1494527474171024519,,20272,0,0,0,53732,199,22,22,0,0,152,1555,1904,1602,4,4,0,0,4064,4073,4057,4055
1494527473703245634,435,1494527474190195513,,20292,0,0,0,53748,216,17,17,0,0,152,1555,1903,1602,3,3,0,0,4073,4077,4058,4065
1494527473724283324,436,1494527474210438787,,20312,0,0,0,53765,234,12,12,0,0,152,1553,1880,1599,1,1,0,0,4066,4069,4058,4066
1494527473743641003,437,1494527474230257732,,20332,0,0,0,53782,250,14,13,0,0,152,1550,1877,1597,1,1,0,0,4067,4069,4055,4069
1494527473764916699,438,1494527474250107760,,20352,0,0,0,53797,266,14,14,0,0,152,1534,1852,1576,1,0,0,0,4072,4066,4060,4067
1494527473784953321,439,1494527474271648228,,20372,0,0,0,53811,278,16,17,0,0,152,1536,1840,1576,1,1,0,0,4069,4065,4059,4070
1494527473804608214,440,1494527474290928637,,20392,0,0,0,53824,288,18,20,0,0,152,1536,1840,1602,1,2,0,0,4076,4061,4063,4069
1494527473823899178,441,1494527474310963955,,20412,0,0,0,53838,302,37,40,0,0,152,1549,1857,1602,2,2,0,0,4072,4062,4066,4070
1494527473845982512,442,1494527474330914982,,20432,0,0,0,53864,329,31,32,0,0,152,1663,1882,1602,6,8,0,0,4068,4064,4065,4077
1494527473863643608,443,1494527474350918050,,20452,0,0,0,53892,357,24,24,0,0,152,1663,1882,1622,5,6,0,0,4065,4066,4072,4070
1494527473886559268,444,1494527474371358030,,20472,0,0,0,53920,386,17,16,0,0,152,1663,1882,1622,3,3,0,0,4063,4065,4064,4073
1494527473903960203,445,1494527474391068893,,20492,0,0,0,53948,414,16,16,0,0,152,1553,1880,1621,1,1,0,0,4066,4063,4066,4072
1494527473924613722,446,1494527474410953587,,20512,0,0,0,53974,440,17,17,0,0,152,1555,1882,1624,1,1,0,0,4058,4066,4067,4079
1494527473944437969,447,1494527474430910989,,20532,0,0,0,53999,465,19,19,0,0,152,1555,1882,1626,1,1,0,0,4063,4067,4066,4074
1494527473964018354,448,1494527474451096764,,20552,0,0,0,54026,492,19,19,0,0,152,1576,1884,1626,1,1,0,0,4063,4066,4069,4076
1494527473985219996,449,1494527474472030446,,20572,0,0,0,54054,521,18,18,0,0,152,1577,1905,1624,1,1,0,0,4063,4067,4072,4080
1494527474007346583,450,1494527474493010212,,20592,0,0,0,54082,550,17,16,0,0,152,1577,1905,1621,1,1,0,0,4068,4073,4066,4079
1494527474025211926,451,1494527474511477380,,20612,0,0,0,54108,577,18,16,0,0,152,1575,1905,1621,1,0,0,0,4063,4071,4075,4075
1494527474046212762,452,1494527474532092608,,20632,0,0,0,54134,602,19,18,0,0,152,1570,1904,1622,1,0,0,0,4066,4070,4073,4080
1494527474064670306,453,1494527474551188853,,20652,0,0,0,54158,626,21,21,0,0,152,1579,1902,1622,1,1,0,0,4069,4071,4074,4067
1494527474085140397,454,1494527474572011120,,20672,0,0,0,54182,651,22,22,0,0,152,1579,1903,1622,2,1,0,0,4071,4074,4083,4064
1494527474105633083,455,1494527474591617984,,20692,0,0,0,54209,678,21,21,0,0,152,1579,1903,1621,2,1,0,0,4074,4071,4059,4051
1494527474125628991,456,1494527474611600219,,20712,0,0,0,54236,704,39,39,0,0,152,1573,1903,1621,1,1,0,0,4066,4072,4059,4058
1494527474145147675,457,1494527474631383707,,20732,0,0,0,54271,740,34,34,0,0,152,1555,1902,1621,6,6,0,0,4074,4072,4063,4084
1494527474166390974,458,1494527474652265807,,20752,0,0,0,54308,777,29,29,0,0,152,1560,1907,1621,5,5,0,0,4069,4065,4060,4062
1494527474187031660,459,1494527474671173304,,20772,0,0,0,54346,813,23,24,0,0,152,1560,1907,1600,4,3,0,0,4072,4063,4067,4072
1494527474205197931,460,1494527474690838875,,20792,0,0,0,54385,852,21,22,0,0,152,1560,1880,1601,2,2,0,0,4066,4068,4066,4066
1494527474226788927,461,1494527474712154012,,20812,0,0,0,54422,889,22,23,0,0,152,1538,1858,1601,1,1,0,0,4063,4066,4070,4079
1494527474245696645,462,1494527474732067373,,20832,0,0,0,54454,922,25,24,0,0,152,1548,1857,1601,1,2,0,0,4065,4073,4074,4081
1494527474264953059,463,1494527474751230575,,20852,0,0,0,54487,955,28,27,0,0,152,1554,1858,1606,2,2,0,0,4071,4071,4073,4081
1494527474284083059,464,1494527474770854564,,20872,0,0,0,54522,990,29,28,0,0,152,1576,1879,1624,3,2,0,0,4068,4071,4075,4074
1494527474306950496,465,1494527474790822216,,20892,0,0,0,54562,1029,25,25,0,0,152,1576,1880,1624,2,2,0,0,4072,4072,4074,4057
1494527474325782654,466,1494527474811323654,,20912,0,0,0,54600,1069,22,22,0,0,152,1575,1885,1619,2,1,0,0,4069,4070,4069,4063
1494527474386123234,467,1494527474872051600,,20972,0,0,0,54710,1178,24,25,0,0,151,1576,1912,1623,1,1,0,0,4069,4078,4071,4058
1494527474405846909,468,1494527474892036585,,20992,0,0,0,54747,1215,25,25,0,0,151,1576,1912,1623,1,1,0,0,4069,4074,4066,4069
1494527474426023213,469,1494527474912152818,,21012,0,0,0,54784,1253,24,24,0,0,151,1576,1879,1623,1,1,0,0,4070,4072,4062,4063
1494527474445160470,470,1494527474932337676,,21032,0,0,0,54820,1290,24,23,0,0,151,1573,1882,1628,2,1,0,0,4069,4067,4056,4066
1494527474466570151,471,1494527474952305119,,21052,0,0,0,54855,1326,25,24,0,0,151,1573,1882,1628,2,1,0,0,4069,4066,4064,4067
1494527474486475070,472,1494527474971850401,,21072,0,0,0,54891,1362,26,25,0,0,151,1573,1882,1624,2,1,0,0,4077,4069,4072,4077
1494527474504707417,473,1494527474991884469,,21092,0,0,0,54925,1397,27,26,0,0,151,1555,1884,1625,2,2,0,0,4068,4063,4065,4067
1494527474526725548,474,1494527475012008744,,21112,0,0,0,54961,1434,26,25,0,0,151,1575,1884,1625,3,2,0,0,4065,4067,4069,4075
1494527474545511426,475,1494527475032646680,,21132,0,0,0,54996,1470,27,26,0,0,151,1577,1903,1625,3,2,0,0,4070,4072,4069,4074
1494527474567133229,476,1494527475051860841,,21152,0,0,0,55031,1507,27,25,0,0,151,1580,1903,1621,3,2,0,0,4063,4065,4073,4079
1494527474586164337,477,1494527475072240113,,21172,0,0,0,55067,1543,27,25,0,0,152,1580,1903,1623,2,2,0,0,4069,4073,4072,4078
1494527474607222157,478,1494527475092565636,,21192,0,0,0,55105,1582,25,24,0,0,152,1580,1903,1625,2,2,0,0,4066,4074,4074,4076
1494527474626219263,479,1494527475111937087,,21212,0,0,0,55141,1620,44,43,0,0,152,1576,1903,1625,2,1,0,0,4071,4076,4071,4076
1494527474644729561,480,1494527475131855156,,21232,0,0,0,55186,1666,39,37,0,0,151,1577,1905,1618,7,6,0,0,4067,4078,4068,4088
1494527474664729100,481,1494527475151938599,,21252,0,0,0,55232,1715,36,33,0,0,151,1582,1905,1599,7,5,0,0,4071,4076,4073,4075
1494527474691714203,482,1494527475173274485,,21272,0,0,0,55283,1761,28,29,0,0,151,1582,1898,1599,4,4,0,0,4067,4072,4075,4057
1494527474706345216,483,1494527475192130650,,21292,0,0,0,55332,1809,26,28,0,0,151,1578,1882,1619,2,2,0,0,4072,4077,4066,4054
1494527474726501792,484,1494527475213105707,,21312,0,0,0,55376,1855,27,29,0,0,151,1574,1858,1619,2,2,0,0,4069,4081,4064,4064
1494527474747878980,485,1494527475233200108,,21332,0,0,0,55419,1900,32,30,0,0,151,1577,1881,1600,3,2,0,0,4071,4070,4065,4079
1494527474765430820,486,1494527475251847942,,21352,0,0,0,55464,1945,34,32,0,0,151,1579,1900,1600,3,3,0,0,4072,4072,4064,4072
