%time,field.linear.x,field.linear.y,field.linear.z,field.angular.x,field.angular.y,field.angular.z
1494450135471170057,0.15,0.0,0.0,0.0,0.0,0.0
1494450135568663620,0.2,0.0,0.0,0.0,0.0,0.0
1494450135668502672,0.2,0.0,0.0,0.0,0.0,0.0
1494450135769076458,0.2,0.0,0.0,0.0,0.0,0.0
1494450135868408795,0.2,0.0,0.0,0.0,0.0,0.0
1494450135969272832,0.2,0.0,0.0,0.0,0.0,0.0
1494450136069140746,0.25,0.0,0.0,0.0,0.0,0.0
1494450136168414098,0.25,0.0,0.0,0.0,0.0,0.0
1494450136268636815,0.25,0.0,0.0,0.0,0.0,0.0
1494450136368529566,0.25,0.0,0.0,0.0,0.0,0.0
1494450136468424319,0.25,0.0,0.0,0.0,0.0,0.0
1494450136568838885,0.25,0.0,0.0,0.0,0.0,0.0
1494450136668630364,0.3,0.0,0.0,0.0,0.0,0.0
1494450136768786567,0.3,0.0,0.0,0.0,0.0,0.0
1494450136868448916,0.3,0.0,0.0,0.0,0.0,0.0
1494450136968919923,0.3,0.0,0.0,0.0,0.0,0.0
1494450137069474342,0.3,0.0,0.0,0.0,0.0,0.0
1494450137168455675,0.3,0.0,0.0,0.0,0.0,0.0
1494450137268964408,0.3,0.0,0.0,0.0,0.0,0.0
1494450137368768291,0.3,0.0,0.0,0.0,0.0,0.0
1494450137468437102,0.3,0.0,0.0,0.0,0.0,0.0
1494450137568912229,0.3,0.0,0.0,0.0,0.0,0.0
1494450137669360004,0.3,0.0,0.0,0.0,0.0,0.0
1494450137768631213,0.3,0.0,0.0,0.0,0.0,0.0
1494450137873169329,0.3,0.0,0.0,0.0,0.0,0.0
1494450137969303212,0.3,0.0,0.0,0.0,0.0,0.0
1494450138068649541,0.3,0.0,0.0,0.0,0.0,0.0
1494450138169182788,0.3,0.0,0.0,0.0,0.0,0.0
1494450138269163143,0.3,0.0,0.0,0.0,0.0,0.0
1494450138368707943,0.3,0.0,0.0,0.0,0.0,0.0
1494450138468792499,0.3,0.0,0.0,0.0,0.0,0.0
1494450138569364871,0.3,0.0,0.0,0.0,0.0,0.0
1494450138668964813,0.3,0.0,0.0,0.0,0.0,0.0
1494450138769093051,0.3,0.0,0.0,0.0,0.0,0.0
1494450138869429913,0.3,0.0,0.0,0.0,0.0,0.0
1494450138968573824,0.3,0.0,0.0,0.0,0.0,0.0
1494450139069126889,0.3,0.0,0.0,0.0,0.0,0.0
1494450139168397878,0.3,0.0,0.0,0.0,0.0,0.0
1494450139269420409,0.3,0.0,0.0,0.0,0.0,0.0
1494450139393137805,0.3,0.0,0.0,0.0,0.0,0.0
1494450139483583248,0.3,0.0,0.0,0.0,0.0,0.0
1494450139568646514,0.3,0.0,0.0,0.0,0.0,0.0
1494450139669624408,0.3,0.0,0.0,0.0,0.0,0.0
1494450139772362389,0.3,0.0,0.0,0.0,0.0,0.0
1494450139870920365,0.3,0.0,0.0,0.0,0.0,0.0
1494450139969523292,0.3,0.0,0.0,0.0,0.0,0.0
1494450140068484913,0.3,0.0,0.0,0.0,0.0,0.0
1494450140168544455,0.3,0.0,0.0,0.0,0.0,0.0
1494450140268604164,0.3,0.0,0.0,0.0,0.0,0.0
1494450140371602653,0.3,0.0,0.0,0.0,0.0,0.0
1494450140469890794,0.3,0.0,0.0,0.0,0.0,0.0
1494450140569622473,0.3,0.0,0.0,0.0,0.0,0.0
1494450140669955124,0.3,0.0,0.0,0.0,0.0,0.0
1494450140768889378,0.3,0.0,0.0,0.0,0.0,0.0
1494450140868938165,0.3,0.0,0.0,0.0,0.0,0.0
1494450140986121084,0.3,0.0,0.0,0.0,0.0,0.0
1494450141069210726,0.3,0.0,0.0,0.0,0.0,0.0
1494450141169076689,0.3,0.0,0.0,0.0,0.0,0.0
1494450141269327518,0.3,0.0,0.0,0.0,0.0,0.0
1494450141369062767,0.3,0.0,0.0,0.0,0.0,0.0
1494450141468831969,0.25,0.0,0.0,0.0,0.0,0.0
1494450141568814174,0.25,0.0,0.0,0.0,0.0,0.0
1494450141669188391,0.2,0.0,0.0,0.0,0.0,0.0
1494450141768722024,0.2,0.0,0.0,0.0,0.0,0.0
1494450141869226353,0.15,0.0,0.0,0.0,0.0,0.0
1494450141969441382,0.15,0.0,0.0,0.0,0.0,0.0
1494450142071454195,0.15,0.0,0.0,0.0,0.0,0.0
1494450142168790549,0.15,0.0,0.0,0.0,0.0,0.0
1494450142269239689,0.2,0.0,0.0,0.0,0.0,0.0
1494450142368777969,0.2,0.0,0.0,0.0,0.0,0.0
1494450142468793269,0.25,0.0,0.0,0.0,0.0,0.0
1494450142569315728,0.25,0.0,0.0,0.0,0.0,0.0
1494450142668945930,0.3,0.0,0.0,0.0,0.0,0.0
1494450142769043436,0.3,0.0,0.0,0.0,0.0,0.0
1494450142868707076,0.3,0.0,0.0,0.0,0.0,0.0
1494450142968866936,0.3,0.0,0.0,0.0,0.0,0.0
1494450143068713922,0.3,0.0,0.0,0.0,0.0,0.0
1494450143168643552,0.3,0.0,0.0,0.0,0.0,0.0
1494450143268723462,0.3,0.0,0.0,0.0,0.0,0.0
1494450143368558041,0.25,0.0,0.0,0.0,0.0,0.0
1494450143468960599,0.25,0.0,0.0,0.0,0.0,0.0
1494450143571136417,0.2,0.0,0.0,0.0,0.0,0.0
1494450143670884300,0.2,0.0,0.0,0.0,0.0,0.0
1494450143772802449,0.15,0.0,0.0,0.0,0.0,0.0
1494450143868558969,0.15,0.0,0.0,0.0,0.0,0.0
1494450143970169039,0.1,0.0,0.0,0.0,0.0,0.0
1494450144069107995,0.1,0.0,0.0,0.0,0.0,0.0
1494450144169316465,0.05,0.0,0.0,0.0,0.0,0.0
1494450144268890254,0.05,0.0,0.0,0.0,0.0,0.0
1494450144368453313,0.05,0.0,0.0,0.0,0.0,0.0
1494450144469027210,0.05,0.0,0.0,0.0,0.0,0.0
1494450144568687924,0.05,0.0,0.0,0.0,0.0,0.0
1494450144668455303,0.05,0.0,0.0,0.0,0.0,0.0
1494450144768714986,0.05,0.0,0.0,0.0,0.0,0.0
1494450144868967507,0.05,0.0,0.0,0.0,0.0,0.0
1494450144968794043,0.05,0.0,0.0,0.0,0.0,0.0
1494450145068663986,0.05,0.0,0.0,0.0,0.0,0.0
1494450145169289565,0.05,0.0,0.0,0.0,0.0,0.0
1494450145268586784,1.38777878078e-17,0.0,0.0,0.0,0.0,0.0
1494450145368882356,1.38777878078e-17,0.0,0.0,0.0,0.0,0.0
1494450145469522162,1.38777878078e-17,0.0,0.0,0.0,0.0,0.0
1494450145568658537,1.38777878078e-17,0.0,0.0,0.0,0.0,0.0
1494450145668591439,1.38777878078e-17,0.0,0.0,0.0,0.0,0.0
1494450145768748490,1.38777878078e-17,0.0,0.0,0.0,0.0,-0.33
1494450145868582997,1.38777878078e-17,0.0,0.0,0.0,0.0,-0.33
1494450145968953545,1.38777878078e-17,0.0,0.0,0.0,0.0,-0.33
1494450146069202115,1.38777878078e-17,0.0,0.0,0.0,0.0,-0.33
1494450146168747413,1.38777878078e-17,0.0,0.0,0.0,0.0,-0.66
1494450146268712673,1.38777878078e-17,0.0,0.0,0.0,0.0,-0.66
1494450146369000089,1.38777878078e-17,0.0,0.0,0.0,0.0,-0.66
1494450146468660511,1.38777878078e-17,0.0,0.0,0.0,0.0,-0.66
1494450146569106755,1.38777878078e-17,0.0,0.0,0.0,0.0,-0.66
1494450146669053085,1.38777878078e-17,0.0,0.0,0.0,0.0,-0.66
1494450146769232217,1.38777878078e-17,0.0,0.0,0.0,0.0,-0.99
1494450146868676010,1.38777878078e-17,0.0,0.0,0.0,0.0,-0.99
1494450146968733589,1.38777878078e-17,0.0,0.0,0.0,0.0,-0.99
1494450147068777370,1.38777878078e-17,0.0,0.0,0.0,0.0,-0.99
1494450147168976149,1.38777878078e-17,0.0,0.0,0.0,0.0,-0.99
1494450147268607681,1.38777878078e-17,0.0,0.0,0.0,0.0,-0.99
1494450147368926091,1.38777878078e-17,0.0,0.0,0.0,0.0,-0.99
1494450147469134270,1.38777878078e-17,0.0,0.0,0.0,0.0,-0.99
1494450147568679279,1.38777878078e-17,0.0,0.0,0.0,0.0,-0.99
1494450147668677509,1.38777878078e-17,0.0,0.0,0.0,0.0,-0.99
1494450147769382899,1.38777878078e-17,0.0,0.0,0.0,0.0,-0.99
1494450147873003062,1.38777878078e-17,0.0,0.0,0.0,0.0,-0.99
1494450147972693920,1.38777878078e-17,0.0,0.0,0.0,0.0,-0.99
1494450148068800247,1.38777878078e-17,0.0,0.0,0.0,0.0,-0.99
1494450148169226330,1.38777878078e-17,0.0,0.0,0.0,0.0,-0.66
1494450148271129895,1.38777878078e-17,0.0,0.0,0.0,0.0,-0.66
1494450148368885841,1.38777878078e-17,0.0,0.0,0.0,0.0,-0.66
1494450148468777861,1.38777878078e-17,0.0,0.0,0.0,0.0,-0.66
1494450148568622236,1.38777878078e-17,0.0,0.0,0.0,0.0,-0.66
1494450148668919867,1.38777878078e-17,0.0,0.0,0.0,0.0,-0.66
1494450148768379516,1.38777878078e-17,0.0,0.0,0.0,0.0,-0.33
1494450148868497031,1.38777878078e-17,0.0,0.0,0.0,0.0,-0.33
1494450148968743096,1.38777878078e-17,0.0,0.0,0.0,0.0,-0.33
1494450149068941170,1.38777878078e-17,0.0,0.0,0.0,0.0,-0.33
1494450149169192123,1.38777878078e-17,0.0,0.0,0.0,0.0,-0.33
1494450149268894933,1.38777878078e-17,0.0,0.0,0.0,0.0,-0.33
1494450149368605538,1.38777878078e-17,0.0,0.0,0.0,0.0,1.11022302463e-16
1494450149469254266,1.38777878078e-17,0.0,0.0,0.0,0.0,1.11022302463e-16
1494450149568808079,1.38777878078e-17,0.0,0.0,0.0,0.0,0.33
1494450149668603330,1.38777878078e-17,0.0,0.0,0.0,0.0,0.33
1494450149768600832,1.38777878078e-17,0.0,0.0,0.0,0.0,0.33
1494450149868849237,1.38777878078e-17,0.0,0.0,0.0,0.0,0.33
1494450149968488333,1.38777878078e-17,0.0,0.0,0.0,0.0,0.33
1494450150068549914,1.38777878078e-17,0.0,0.0,0.0,0.0,1.11022302463e-16
1494450150168276793,1.38777878078e-17,0.0,0.0,0.0,0.0,1.11022302463e-16
1494450150268504083,1.38777878078e-17,0.0,0.0,0.0,0.0,1.11022302463e-16
1494450150368667344,1.38777878078e-17,0.0,0.0,0.0,0.0,1.11022302463e-16
1494450150468827478,1.38777878078e-17,0.0,0.0,0.0,0.0,1.11022302463e-16
1494450150568461896,0.05,0.0,0.0,0.0,0.0,1.11022302463e-16
1494450150669610627,0.1,0.0,0.0,0.0,0.0,1.11022302463e-16
1494450150769032184,0.1,0.0,0.0,0.0,0.0,1.11022302463e-16
1494450150877123090,0.15,0.0,0.0,0.0,0.0,1.11022302463e-16
1494450150968562035,0.15,0.0,0.0,0.0,0.0,1.11022302463e-16
1494450151074150059,0.2,0.0,0.0,0.0,0.0,1.11022302463e-16
1494450151170827841,0.25,0.0,0.0,0.0,0.0,1.11022302463e-16
1494450151268956697,0.25,0.0,0.0,0.0,0.0,1.11022302463e-16
1494450151368411078,0.3,0.0,0.0,0.0,0.0,1.11022302463e-16
1494450151468636107,0.3,0.0,0.0,0.0,0.0,1.11022302463e-16
1494450151568514430,0.3,0.0,0.0,0.0,0.0,1.11022302463e-16
1494450151668413061,0.35,0.0,0.0,0.0,0.0,1.11022302463e-16
1494450151768326208,0.35,0.0,0.0,0.0,0.0,1.11022302463e-16
1494450151868529485,0.4,0.0,0.0,0.0,0.0,1.11022302463e-16
1494450151968801301,0.4,0.0,0.0,0.0,0.0,1.11022302463e-16
1494450152071307196,0.4,0.0,0.0,0.0,0.0,1.11022302463e-16
1494450152170094286,0.4,0.0,0.0,0.0,0.0,1.11022302463e-16
1494450152272641919,0.4,0.0,0.0,0.0,0.0,1.11022302463e-16
1494450152368806360,0.4,0.0,0.0,0.0,0.0,1.11022302463e-16
1494450152470053563,0.4,0.0,0.0,0.0,0.0,1.11022302463e-16
1494450152572025654,0.4,0.0,0.0,0.0,0.0,1.11022302463e-16
1494450152669508349,0.4,0.0,0.0,0.0,0.0,1.11022302463e-16
1494450152768503462,0.4,0.0,0.0,0.0,0.0,1.11022302463e-16
1494450152868598656,0.4,0.0,0.0,0.0,0.0,1.11022302463e-16
1494450152968652758,0.4,0.0,0.0,0.0,0.0,1.11022302463e-16
1494450153070069070,0.4,0.0,0.0,0.0,0.0,1.11022302463e-16
1494450153174498998,0.4,0.0,0.0,0.0,0.0,1.11022302463e-16
1494450153269330039,0.4,0.0,0.0,0.0,0.0,1.11022302463e-16
1494450153368975789,0.4,0.0,0.0,0.0,0.0,1.11022302463e-16
1494450153468432521,0.4,0.0,0.0,0.0,0.0,1.11022302463e-16
1494450153568432441,0.4,0.0,0.0,0.0,0.0,1.11022302463e-16
1494450153668744868,0.4,0.0,0.0,0.0,0.0,1.11022302463e-16
1494450153769665488,0.4,0.0,0.0,0.0,0.0,1.11022302463e-16
1494450153868604850,0.4,0.0,0.0,0.0,0.0,0.33
1494450153968415387,0.4,0.0,0.0,0.0,0.0,0.33
1494450154069309281,0.4,0.0,0.0,0.0,0.0,0.33
1494450154168591849,0.4,0.0,0.0,0.0,0.0,0.66
1494450154268769495,0.4,0.0,0.0,0.0,0.0,0.66
1494450154369887246,0.4,0.0,0.0,0.0,0.0,0.66
1494450154468974494,0.4,0.0,0.0,0.0,0.0,0.66
1494450154569014628,0.4,0.0,0.0,0.0,0.0,0.66
1494450154668833858,0.4,0.0,0.0,0.0,0.0,0.66
1494450154768819861,0.4,0.0,0.0,0.0,0.0,0.66
1494450154868364217,0.4,0.0,0.0,0.0,0.0,0.33
1494450154969148063,0.4,0.0,0.0,0.0,0.0,0.33
1494450155068636256,0.4,0.0,0.0,0.0,0.0,0.33
1494450155168902446,0.4,0.0,0.0,0.0,0.0,0.33
1494450155268374821,0.4,0.0,0.0,0.0,0.0,1.11022302463e-16
1494450155368723100,0.4,0.0,0.0,0.0,0.0,1.11022302463e-16
1494450155469560225,0.4,0.0,0.0,0.0,0.0,-0.33
1494450155569189036,0.4,0.0,0.0,0.0,0.0,-0.66
1494450155668529082,0.4,0.0,0.0,0.0,0.0,-0.99
1494450155769728710,0.4,0.0,0.0,0.0,0.0,-0.99
1494450155870111796,0.4,0.0,0.0,0.0,0.0,-0.99
1494450155970525971,0.4,0.0,0.0,0.0,0.0,-0.66
1494450156068437094,0.4,0.0,0.0,0.0,0.0,-0.66
1494450156173479073,0.4,0.0,0.0,0.0,0.0,-0.33
1494450156268727306,0.4,0.0,0.0,0.0,0.0,-0.33
1494450156370567294,0.4,0.0,0.0,0.0,0.0,-0.33
1494450156474964862,0.4,0.0,0.0,0.0,0.0,1.11022302463e-16
1494450156575054071,0.4,0.0,0.0,0.0,0.0,1.11022302463e-16
1494450156669507936,0.4,0.0,0.0,0.0,0.0,1.11022302463e-16
1494450156770181164,0.4,0.0,0.0,0.0,0.0,0.33
1494450156868453685,0.4,0.0,0.0,0.0,0.0,0.33
1494450156969525604,0.35,0.0,0.0,0.0,0.0,0.33
1494450157068822314,0.25,0.0,0.0,0.0,0.0,0.33
1494450157169056217,0.25,0.0,0.0,0.0,0.0,0.33
1494450157269610681,0.2,0.0,0.0,0.0,0.0,0.33
1494450157369688087,0.15,0.0,0.0,0.0,0.0,0.33
1494450157469360237,0.15,0.0,0.0,0.0,0.0,0.33
1494450157568854904,0.15,0.0,0.0,0.0,0.0,0.33
1494450157668678964,0.15,0.0,0.0,0.0,0.0,0.33
1494450157768326121,0.1,0.0,0.0,0.0,0.0,0.33
1494450157871181260,0.1,0.0,0.0,0.0,0.0,0.33
1494450157968682651,0.1,0.0,0.0,0.0,0.0,0.33
1494450158069490706,0.1,0.0,0.0,0.0,0.0,0.33
1494450158168712498,0.1,0.0,0.0,0.0,0.0,0.33
1494450158270270926,0.05,0.0,0.0,0.0,0.0,0.33
1494450158368825175,0.05,0.0,0.0,0.0,0.0,0.33
1494450158468902272,0.05,0.0,0.0,0.0,0.0,0.33
1494450158569037537,0.05,0.0,0.0,0.0,0.0,0.33
1494450158669028237,0.05,0.0,0.0,0.0,0.0,0.33
1494450158769059607,1.38777878078e-17,0.0,0.0,0.0,0.0,0.33
1494450158869242811,1.38777878078e-17,0.0,0.0,0.0,0.0,0.33
1494450158968783951,1.38777878078e-17,0.0,0.0,0.0,0.0,1.11022302463e-16
1494450159068603737,1.38777878078e-17,0.0,0.0,0.0,0.0,1.11022302463e-16
1494450159168626962,1.38777878078e-17,0.0,0.0,0.0,0.0,-0.33
1494450159268779940,1.38777878078e-17,0.0,0.0,0.0,0.0,-0.33
1494450159368841843,1.38777878078e-17,0.0,0.0,0.0,0.0,-0.66
1494450159468953182,1.38777878078e-17,0.0,0.0,0.0,0.0,-0.66
1494450159569965278,1.38777878078e-17,0.0,0.0,0.0,0.0,-0.99
1494450159669182878,1.38777878078e-17,0.0,0.0,0.0,0.0,-0.99
1494450159768818752,1.38777878078e-17,0.0,0.0,0.0,0.0,-1.32
1494450159870494626,1.38777878078e-17,0.0,0.0,0.0,0.0,-1.32
1494450159968671229,1.38777878078e-17,0.0,0.0,0.0,0.0,-1.65
1494450160068972634,1.38777878078e-17,0.0,0.0,0.0,0.0,-1.65
1494450160378181665,1.38777878078e-17,0.0,0.0,0.0,0.0,-1.65
1494450160378197236,1.38777878078e-17,0.0,0.0,0.0,0.0,-1.65
1494450160378203424,1.38777878078e-17,0.0,0.0,0.0,0.0,-1.65
1494450160468340454,1.38777878078e-17,0.0,0.0,0.0,0.0,-1.32
1494450160568868385,1.38777878078e-17,0.0,0.0,0.0,0.0,-1.32
1494450160670036638,1.38777878078e-17,0.0,0.0,0.0,0.0,-1.32
1494450160771389364,1.38777878078e-17,0.0,0.0,0.0,0.0,-1.32
1494450160875357141,1.38777878078e-17,0.0,0.0,0.0,0.0,-1.32
1494450160968503380,1.38777878078e-17,0.0,0.0,0.0,0.0,-0.99
1494450161073854230,1.38777878078e-17,0.0,0.0,0.0,0.0,-0.99
1494450161168791697,1.38777878078e-17,0.0,0.0,0.0,0.0,-0.66
1494450161268419339,1.38777878078e-17,0.0,0.0,0.0,0.0,-0.66
1494450161369429017,1.38777878078e-17,0.0,0.0,0.0,0.0,-0.66
1494450161468847312,1.38777878078e-17,0.0,0.0,0.0,0.0,-0.66
1494450161568704409,1.38777878078e-17,0.0,0.0,0.0,0.0,-0.66
1494450161669098357,1.38777878078e-17,0.0,0.0,0.0,0.0,-0.33
1494450161768550892,1.38777878078e-17,0.0,0.0,0.0,0.0,-0.33
1494450161868596254,1.38777878078e-17,0.0,0.0,0.0,0.0,-0.33
1494450161968711845,1.38777878078e-17,0.0,0.0,0.0,0.0,-0.33
1494450162069056467,1.38777878078e-17,0.0,0.0,0.0,0.0,-0.33
1494450162168602387,1.38777878078e-17,0.0,0.0,0.0,0.0,-0.33
1494450162268379563,1.38777878078e-17,0.0,0.0,0.0,0.0,-0.33
1494450162368706099,1.38777878078e-17,0.0,0.0,0.0,0.0,1.11022302463e-16
1494450162473777652,1.38777878078e-17,0.0,0.0,0.0,0.0,1.11022302463e-16
1494450162569613218,1.38777878078e-17,0.0,0.0,0.0,0.0,1.11022302463e-16
1494450162668843862,1.38777878078e-17,0.0,0.0,0.0,0.0,1.11022302463e-16
1494450162769156521,1.38777878078e-17,0.0,0.0,0.0,0.0,1.11022302463e-16
1494450162868829945,0.05,0.0,0.0,0.0,0.0,1.11022302463e-16
1494450162968493257,0.05,0.0,0.0,0.0,0.0,1.11022302463e-16
1494450163068709790,0.1,0.0,0.0,0.0,0.0,1.11022302463e-16
1494450163168392412,0.15,0.0,0.0,0.0,0.0,1.11022302463e-16
1494450163268563437,0.15,0.0,0.0,0.0,0.0,1.11022302463e-16
1494450163368837131,0.2,0.0,0.0,0.0,0.0,1.11022302463e-16
1494450163469181702,0.2,0.0,0.0,0.0,0.0,1.11022302463e-16
1494450163569389019,0.2,0.0,0.0,0.0,0.0,1.11022302463e-16
1494450163668683072,0.25,0.0,0.0,0.0,0.0,1.11022302463e-16
1494450163768679155,0.25,0.0,0.0,0.0,0.0,1.11022302463e-16
1494450163868629695,0.25,0.0,0.0,0.0,0.0,1.11022302463e-16
1494450163969011077,0.3,0.0,0.0,0.0,0.0,1.11022302463e-16
1494450164069053557,0.3,0.0,0.0,0.0,0.0,1.11022302463e-16
1494450164168958208,0.3,0.0,0.0,0.0,0.0,1.11022302463e-16
1494450164268598590,0.3,0.0,0.0,0.0,0.0,1.11022302463e-16
1494450164369098355,0.3,0.0,0.0,0.0,0.0,1.11022302463e-16
1494450164468423086,0.3,0.0,0.0,0.0,0.0,1.11022302463e-16
1494450164569238202,0.3,0.0,0.0,0.0,0.0,1.11022302463e-16
1494450164668638612,0.3,0.0,0.0,0.0,0.0,1.11022302463e-16
1494450164772193735,0.3,0.0,0.0,0.0,0.0,1.11022302463e-16
1494450164870762611,0.3,0.0,0.0,0.0,0.0,1.11022302463e-16
1494450164969861186,0.3,0.0,0.0,0.0,0.0,1.11022302463e-16
1494450165073296530,0.3,0.0,0.0,0.0,0.0,1.11022302463e-16
1494450165168406710,0.3,0.0,0.0,0.0,0.0,1.11022302463e-16
1494450165269468307,0.3,0.0,0.0,0.0,0.0,1.11022302463e-16
1494450165371835434,0.3,0.0,0.0,0.0,0.0,1.11022302463e-16
1494450165469196261,0.3,0.0,0.0,0.0,0.0,1.11022302463e-16
1494450165568422055,0.3,0.0,0.0,0.0,0.0,1.11022302463e-16
1494450165668775047,0.3,0.0,0.0,0.0,0.0,1.11022302463e-16
1494450165769853267,0.3,0.0,0.0,0.0,0.0,0.33
1494450165869843908,0.3,0.0,0.0,0.0,0.0,0.33
1494450165973775264,0.3,0.0,0.0,0.0,0.0,0.66
1494450166068528966,0.3,0.0,0.0,0.0,0.0,0.99
1494450166168391353,0.3,0.0,0.0,0.0,0.0,0.99
1494450166275765661,0.3,0.0,0.0,0.0,0.0,0.99
1494450166370765119,0.3,0.0,0.0,0.0,0.0,0.99
1494450166471378504,0.3,0.0,0.0,0.0,0.0,0.99
1494450166571086869,0.3,0.0,0.0,0.0,0.0,0.66
1494450166668345887,0.3,0.0,0.0,0.0,0.0,0.66
1494450166768604935,0.3,0.0,0.0,0.0,0.0,0.33
1494450166869023446,0.3,0.0,0.0,0.0,0.0,0.33
1494450166968924797,0.3,0.0,0.0,0.0,0.0,1.11022302463e-16
1494450167068551511,0.3,0.0,0.0,0.0,0.0,1.11022302463e-16
1494450167168479963,0.3,0.0,0.0,0.0,0.0,1.11022302463e-16
1494450167268457884,0.3,0.0,0.0,0.0,0.0,1.11022302463e-16
1494450167368930321,0.3,0.0,0.0,0.0,0.0,-0.33
1494450167472746623,0.3,0.0,0.0,0.0,0.0,-0.33
1494450167568344935,0.3,0.0,0.0,0.0,0.0,-0.33
1494450167668590999,0.3,0.0,0.0,0.0,0.0,-0.33
1494450167768450451,0.3,0.0,0.0,0.0,0.0,-0.33
1494450167868392610,0.3,0.0,0.0,0.0,0.0,-0.33
1494450167968892116,0.3,0.0,0.0,0.0,0.0,1.11022302463e-16
1494450168068605059,0.3,0.0,0.0,0.0,0.0,1.11022302463e-16
1494450168168368375,0.3,0.0,0.0,0.0,0.0,1.11022302463e-16
1494450168268374091,0.3,0.0,0.0,0.0,0.0,1.11022302463e-16
1494450168368440729,0.3,0.0,0.0,0.0,0.0,1.11022302463e-16
1494450168470911763,0.3,0.0,0.0,0.0,0.0,1.11022302463e-16
1494450168568580538,0.3,0.0,0.0,0.0,0.0,1.11022302463e-16
1494450168668667152,0.3,0.0,0.0,0.0,0.0,1.11022302463e-16
1494450168768391586,0.3,0.0,0.0,0.0,0.0,1.11022302463e-16
1494450168868382072,0.3,0.0,0.0,0.0,0.0,1.11022302463e-16
1494450168968692815,0.3,0.0,0.0,0.0,0.0,1.11022302463e-16
1494450169070048686,0.3,0.0,0.0,0.0,0.0,1.11022302463e-16
1494450169168619658,0.3,0.0,0.0,0.0,0.0,1.11022302463e-16
1494450169274099123,0.3,0.0,0.0,0.0,0.0,1.11022302463e-16
1494450169374663567,0.3,0.0,0.0,0.0,0.0,1.11022302463e-16
1494450169468672991,0.3,0.0,0.0,0.0,0.0,1.11022302463e-16
1494450169568505001,0.3,0.0,0.0,0.0,0.0,1.11022302463e-16
1494450169672647211,0.3,0.0,0.0,0.0,0.0,1.11022302463e-16
1494450169769492781,0.3,0.0,0.0,0.0,0.0,1.11022302463e-16
1494450169868344603,0.3,0.0,0.0,0.0,0.0,1.11022302463e-16
1494450169968783298,0.3,0.0,0.0,0.0,0.0,1.11022302463e-16
1494450170069068211,0.3,0.0,0.0,0.0,0.0,1.11022302463e-16
1494450170168393519,0.3,0.0,0.0,0.0,0.0,1.11022302463e-16
1494450170268424761,0.3,0.0,0.0,0.0,0.0,1.11022302463e-16
1494450170372030555,0.3,0.0,0.0,0.0,0.0,-0.33
1494450170468828011,0.3,0.0,0.0,0.0,0.0,-0.33
1494450170568187432,0.3,0.0,0.0,0.0,0.0,-0.66
1494450170668318464,0.3,0.0,0.0,0.0,0.0,-0.66
1494450170768209332,0.3,0.0,0.0,0.0,0.0,-0.99
1494450170868949495,0.3,0.0,0.0,0.0,0.0,-0.99
1494450170968889021,0.3,0.0,0.0,0.0,0.0,-1.32
1494450171074698776,0.3,0.0,0.0,0.0,0.0,-1.32
1494450171168875088,0.3,0.0,0.0,0.0,0.0,-1.32
1494450171268979056,0.3,0.0,0.0,0.0,0.0,-1.65
1494450171368196817,0.3,0.0,0.0,0.0,0.0,-1.65
1494450171468891442,0.3,0.0,0.0,0.0,0.0,-1.32
1494450171569138739,0.3,0.0,0.0,0.0,0.0,-1.32
1494450171668698535,0.3,0.0,0.0,0.0,0.0,-0.99
1494450171768403668,0.3,0.0,0.0,0.0,0.0,-0.99
1494450171868256925,0.3,0.0,0.0,0.0,0.0,-0.66
1494450171968073187,0.3,0.0,0.0,0.0,0.0,-0.66
1494450172068747688,0.3,0.0,0.0,0.0,0.0,-0.66
1494450172168889105,0.3,0.0,0.0,0.0,0.0,-0.33
1494450172269055710,0.3,0.0,0.0,0.0,0.0,-0.33
1494450172369272809,0.3,0.0,0.0,0.0,0.0,1.11022302463e-16
1494450172469507363,0.3,0.0,0.0,0.0,0.0,1.11022302463e-16
1494450172568736428,0.3,0.0,0.0,0.0,0.0,1.11022302463e-16
1494450172668744359,0.3,0.0,0.0,0.0,0.0,0.33
1494450172768460511,0.3,0.0,0.0,0.0,0.0,0.33
1494450172868969357,0.3,0.0,0.0,0.0,0.0,0.33
1494450172969270476,0.3,0.0,0.0,0.0,0.0,0.33
1494450173068650551,0.3,0.0,0.0,0.0,0.0,0.33
1494450173168876635,0.3,0.0,0.0,0.0,0.0,0.33
1494450173268687965,0.3,0.0,0.0,0.0,0.0,1.11022302463e-16
1494450173368318105,0.3,0.0,0.0,0.0,0.0,1.11022302463e-16
1494450173469101688,0.3,0.0,0.0,0.0,0.0,1.11022302463e-16
1494450173576967104,0.3,0.0,0.0,0.0,0.0,1.11022302463e-16
1494450173669146319,0.3,0.0,0.0,0.0,0.0,1.11022302463e-16
1494450173768800996,0.3,0.0,0.0,0.0,0.0,1.11022302463e-16
1494450173879663595,0.3,0.0,0.0,0.0,0.0,1.11022302463e-16
1494450173969773195,0.3,0.0,0.0,0.0,0.0,1.11022302463e-16
1494450174070489818,0.3,0.0,0.0,0.0,0.0,1.11022302463e-16
1494450174168447745,0.3,0.0,0.0,0.0,0.0,1.11022302463e-16
1494450174269070886,0.3,0.0,0.0,0.0,0.0,1.11022302463e-16
1494450174368906429,0.3,0.0,0.0,0.0,0.0,1.11022302463e-16
1494450174468552836,0.3,0.0,0.0,0.0,0.0,1.11022302463e-16
1494450174568501525,0.3,0.0,0.0,0.0,0.0,1.11022302463e-16
1494450174668796196,0.3,0.0,0.0,0.0,0.0,1.11022302463e-16
1494450174768906282,0.3,0.0,0.0,0.0,0.0,1.11022302463e-16
1494450174869260030,0.3,0.0,0.0,0.0,0.0,1.11022302463e-16
1494450174968470936,0.3,0.0,0.0,0.0,0.0,1.11022302463e-16
1494450175069076626,0.25,0.0,0.0,0.0,0.0,1.11022302463e-16
1494450175168308519,0.2,0.0,0.0,0.0,0.0,1.11022302463e-16
1494450175268456760,0.2,0.0,0.0,0.0,0.0,1.11022302463e-16
1494450175368460071,0.15,0.0,0.0,0.0,0.0,1.11022302463e-16
1494450175468524092,0.15,0.0,0.0,0.0,0.0,1.11022302463e-16
1494450175568964420,0.15,0.0,0.0,0.0,0.0,1.11022302463e-16
1494450175669343589,0.15,0.0,0.0,0.0,0.0,0.33
1494450175768510196,0.15,0.0,0.0,0.0,0.0,0.33
1494450175868570283,0.15,0.0,0.0,0.0,0.0,0.33
1494450176032578625,0.15,0.0,0.0,0.0,0.0,0.33
1494450176099494540,0.15,0.0,0.0,0.0,0.0,0.33
1494450176249647692,0.15,0.0,0.0,0.0,0.0,0.33
1494450176268820955,0.15,0.0,0.0,0.0,0.0,0.33
1494450176578244234,0.15,0.0,0.0,0.0,0.0,0.33
1494450176632129791,0.15,0.0,0.0,0.0,0.0,0.33
1494450176632142781,0.15,0.0,0.0,0.0,0.0,0.33
1494450176668566647,0.15,0.0,0.0,0.0,0.0,0.33
1494450176768673748,0.15,0.0,0.0,0.0,0.0,0.33
1494450176868827753,0.15,0.0,0.0,0.0,0.0,0.33
1494450176968432676,0.15,0.0,0.0,0.0,0.0,0.33
1494450177069519809,0.15,0.0,0.0,0.0,0.0,0.33
1494450177168659841,0.15,0.0,0.0,0.0,0.0,0.33
1494450177268631032,0.15,0.0,0.0,0.0,0.0,1.11022302463e-16
1494450177368525014,0.15,0.0,0.0,0.0,0.0,1.11022302463e-16
1494450177468727931,0.15,0.0,0.0,0.0,0.0,1.11022302463e-16
1494450177568485744,0.15,0.0,0.0,0.0,0.0,1.11022302463e-16
1494450177668848108,0.15,0.0,0.0,0.0,0.0,1.11022302463e-16
1494450177771412504,0.15,0.0,0.0,0.0,0.0,-0.33
1494450177874204682,0.15,0.0,0.0,0.0,0.0,-0.33
1494450177969220268,0.15,0.0,0.0,0.0,0.0,-0.33
1494450178069354678,0.15,0.0,0.0,0.0,0.0,-0.33
1494450178171903006,0.15,0.0,0.0,0.0,0.0,-0.33
1494450178269713412,0.15,0.0,0.0,0.0,0.0,-0.33
1494450178368600233,0.15,0.0,0.0,0.0,0.0,-0.33
1494450178468591774,0.15,0.0,0.0,0.0,0.0,-0.33
1494450178569914360,0.15,0.0,0.0,0.0,0.0,-0.33
1494450178668551687,0.15,0.0,0.0,0.0,0.0,-0.33
1494450178769020857,0.15,0.0,0.0,0.0,0.0,-0.33
1494450178868414094,0.15,0.0,0.0,0.0,0.0,-0.33
1494450178968680794,0.15,0.0,0.0,0.0,0.0,1.11022302463e-16
1494450179068610244,0.15,0.0,0.0,0.0,0.0,1.11022302463e-16
1494450179169619799,0.15,0.0,0.0,0.0,0.0,1.11022302463e-16
1494450179268690837,0.15,0.0,0.0,0.0,0.0,0.33
1494450179368573214,0.15,0.0,0.0,0.0,0.0,0.33
1494450179473075592,0.15,0.0,0.0,0.0,0.0,0.33
1494450179568969045,0.15,0.0,0.0,0.0,0.0,0.66
1494450179672623406,0.15,0.0,0.0,0.0,0.0,0.66
1494450179768506875,0.15,0.0,0.0,0.0,0.0,0.99
1494450179868457598,0.15,0.0,0.0,0.0,0.0,0.99
1494450179968482008,0.15,0.0,0.0,0.0,0.0,1.32
1494450180068521680,0.15,0.0,0.0,0.0,0.0,1.32
1494450180171802766,0.15,0.0,0.0,0.0,0.0,1.32
1494450180268938278,0.15,0.0,0.0,0.0,0.0,1.65
1494450180368911762,0.15,0.0,0.0,0.0,0.0,1.65
1494450180468394411,0.15,0.0,0.0,0.0,0.0,1.65
1494450180568602538,0.15,0.0,0.0,0.0,0.0,1.65
1494450180668522820,0.15,0.0,0.0,0.0,0.0,1.65
1494450180768453155,0.15,0.0,0.0,0.0,0.0,1.65
1494450180868246768,0.15,0.0,0.0,0.0,0.0,1.65
1494450180968828611,0.15,0.0,0.0,0.0,0.0,1.65
1494450181068834082,0.15,0.0,0.0,0.0,0.0,1.65
1494450181168707537,0.15,0.0,0.0,0.0,0.0,1.65
1494450181268571005,0.15,0.0,0.0,0.0,0.0,1.65
1494450181368848270,0.15,0.0,0.0,0.0,0.0,1.65
1494450181468436465,0.15,0.0,0.0,0.0,0.0,1.65
1494450181568637667,0.15,0.0,0.0,0.0,0.0,1.65
1494450181668844930,0.15,0.0,0.0,0.0,0.0,1.65
1494450181773708085,0.15,0.0,0.0,0.0,0.0,1.65
1494450181901714513,0.15,0.0,0.0,0.0,0.0,1.65
1494450181970800287,0.15,0.0,0.0,0.0,0.0,1.65
1494450182071971630,0.15,0.0,0.0,0.0,0.0,1.65
1494450182175384270,0.15,0.0,0.0,0.0,0.0,1.65
1494450182268654480,0.15,0.0,0.0,0.0,0.0,1.65
1494450182370390786,0.15,0.0,0.0,0.0,0.0,1.65
1494450182469116568,0.15,0.0,0.0,0.0,0.0,1.65
1494450182569940974,0.15,0.0,0.0,0.0,0.0,1.65
1494450182669377069,0.15,0.0,0.0,0.0,0.0,1.65
1494450182790372666,0.15,0.0,0.0,0.0,0.0,1.65
1494450182868793147,0.15,0.0,0.0,0.0,0.0,1.65
1494450182968401802,0.15,0.0,0.0,0.0,0.0,1.65
1494450183068257924,0.15,0.0,0.0,0.0,0.0,1.65
1494450183168622895,0.15,0.0,0.0,0.0,0.0,1.65
1494450183268615065,0.15,0.0,0.0,0.0,0.0,1.65
1494450183369557218,0.15,0.0,0.0,0.0,0.0,1.65
1494450183468697722,0.15,0.0,0.0,0.0,0.0,1.65
1494450183568384146,0.15,0.0,0.0,0.0,0.0,1.65
1494450183668743119,0.15,0.0,0.0,0.0,0.0,1.65
1494450183768921054,0.15,0.0,0.0,0.0,0.0,1.65
1494450183868607233,0.15,0.0,0.0,0.0,0.0,1.65
1494450183968475363,0.15,0.0,0.0,0.0,0.0,1.65
1494450184068529237,0.15,0.0,0.0,0.0,0.0,1.65
1494450184181760085,0.15,0.0,0.0,0.0,0.0,1.65
1494450184268865062,0.15,0.0,0.0,0.0,0.0,1.65
1494450184368468477,0.15,0.0,0.0,0.0,0.0,1.65
1494450184469107700,0.15,0.0,0.0,0.0,0.0,1.65
1494450184568641799,0.15,0.0,0.0,0.0,0.0,1.65
1494450184668854823,0.15,0.0,0.0,0.0,0.0,1.65
1494450184781640740,0.15,0.0,0.0,0.0,0.0,1.65
1494450184871618836,0.15,0.0,0.0,0.0,0.0,1.65
1494450184969094642,0.15,0.0,0.0,0.0,0.0,1.65
1494450185068481660,0.15,0.0,0.0,0.0,0.0,1.65
1494450185168398400,0.15,0.0,0.0,0.0,0.0,1.65
1494450185268180797,0.15,0.0,0.0,0.0,0.0,1.65
1494450185368554444,0.15,0.0,0.0,0.0,0.0,1.65
1494450185468159549,0.15,0.0,0.0,0.0,0.0,1.65
1494450185568447292,0.15,0.0,0.0,0.0,0.0,1.65
1494450185668262158,0.15,0.0,0.0,0.0,0.0,1.65
1494450185769109714,0.15,0.0,0.0,0.0,0.0,1.65
1494450185869065600,0.15,0.0,0.0,0.0,0.0,1.65
1494450185968325804,0.15,0.0,0.0,0.0,0.0,1.65
1494450186068727478,0.15,0.0,0.0,0.0,0.0,1.65
