%time,field.header.seq,field.header.stamp,field.header.frame_id,field.time_stamp,field.bumper,field.wheel_drop,field.cliff,field.left_encoder,field.right_encoder,field.left_pwm,field.right_pwm,field.buttons,field.charger,field.battery,field.bottom0,field.bottom1,field.bottom2,field.current0,field.current1,field.over_current,field.digital_input,field.analog_input0,field.analog_input1,field.analog_input2,field.analog_input3
1494450135450770275,120,1494450133515674721,,52452,0,0,0,43654,8456,0,0,0,0,156,1552,1909,1647,0,0,0,0,4077,4067,4067,4078
1494450135450777644,121,1494450133535769707,,52472,0,0,0,43654,8456,0,0,0,0,156,1555,1905,1649,0,0,0,0,4080,4075,4061,4071
1494450135450793007,122,1494450133557082766,,52492,0,0,0,43654,8456,0,0,0,0,156,1555,1905,1649,0,0,0,0,4071,4079,4066,4072
1494450135450827676,123,1494450133575701266,,52512,0,0,0,43654,8456,0,0,0,0,156,1558,1904,1648,0,0,0,0,4078,4076,4067,4065
1494450135450836779,124,1494450133595678628,,52532,0,0,0,43654,8456,0,0,0,0,156,1558,1904,1648,0,0,0,0,4071,4079,4072,4062
1494450135450843076,125,1494450133615784531,,52552,0,0,0,43654,8456,0,0,0,0,156,1556,1904,1647,0,0,0,0,4076,4077,4082,4064
1494450135450852093,126,1494450133636737009,,52572,0,0,0,43654,8456,0,0,0,0,156,1556,1904,1651,0,0,0,0,4070,4080,4083,4067
1494450135450856944,127,1494450133657669946,,52592,0,0,0,43654,8456,0,0,0,0,156,1558,1905,1651,0,0,0,0,4071,4076,4077,4070
1494450135450866772,128,1494450133676252863,,52612,0,0,0,43654,8456,0,0,0,0,156,1558,1905,1649,0,0,0,0,4068,4076,4080,4080
1494450135450872448,129,1494450133695839354,,52632,0,0,0,43654,8456,0,0,0,0,156,1557,1905,1650,0,0,0,0,4072,4077,4081,4087
1494450135450992138,130,1494450133716830499,,52652,0,0,0,43654,8456,0,0,0,0,156,1557,1904,1650,0,0,0,0,4070,4082,4077,4082
1494450135450999813,131,1494450133735641080,,52672,0,0,0,43654,8456,0,0,0,0,156,1561,1904,1646,0,0,0,0,4074,4080,4082,4090
1494450135451008515,132,1494450133755838440,,52692,0,0,0,43654,8456,0,0,0,0,156,1561,1904,1646,0,0,0,0,4068,4075,4076,4088
1494450135451014809,133,1494450133775890760,,52712,0,0,0,43654,8456,0,0,0,0,156,1555,1903,1645,0,0,0,0,4067,4073,4077,4083
1494450135451173851,134,1494450133795940872,,52732,0,0,0,43654,8456,0,0,0,0,156,1552,1906,1645,0,0,0,0,4069,4071,4073,4081
1494450135451230086,135,1494450133816945100,,52752,0,0,0,43654,8456,0,0,0,0,156,1552,1906,1646,0,0,0,0,4066,4075,4071,4081
1494450135451236144,136,1494450133836570757,,52772,0,0,0,43654,8456,0,0,0,0,156,1562,1906,1646,0,0,0,0,4071,4069,4074,4081
1494450135451243545,137,1494450133856571577,,52792,0,0,0,43654,8456,0,0,0,0,156,1562,1906,1646,0,0,0,0,4068,4074,4073,4075
1494450135451250329,138,1494450133876508357,,52812,0,0,0,43654,8456,0,0,0,0,156,1554,1906,1646,0,0,0,0,4075,4066,4067,4075
1494450135451259263,139,1494450133896495802,,52832,0,0,0,43654,8456,0,0,0,0,156,1551,1905,1648,0,0,0,0,4073,4070,4071,4074
1494450135451265944,140,1494450133915579798,,52852,0,0,0,43654,8456,0,0,0,0,156,1554,1905,1648,0,0,0,0,4075,4079,4065,4071
1494450135451278167,141,1494450133937069438,,52872,0,0,0,43654,8456,0,0,0,0,156,1554,1905,1648,0,0,0,0,4073,4087,4067,4066
1494450135451285673,142,1494450133956635346,,52892,0,0,0,43654,8456,0,0,0,0,156,1554,1905,1648,0,0,0,0,4076,4078,4068,4064
1494450135451292891,143,1494450133976599208,,52912,0,0,0,43654,8456,0,0,0,0,156,1554,1904,1646,0,0,0,0,4072,4082,4077,4064
1494450135451298333,144,1494450133996522946,,52932,0,0,0,43654,8456,0,0,0,0,156,1553,1904,1645,0,0,0,0,4070,4080,4084,4069
1494450135451304536,145,1494450134016529433,,52952,0,0,0,43654,8456,0,0,0,0,156,1553,1904,1646,0,0,0,0,4069,4076,4077,4090
1494450135451312906,146,1494450134038800233,,52972,0,0,0,43654,8456,0,0,0,0,156,1550,1906,1646,0,0,0,0,4072,4073,4075,4084
1494450135451320319,147,1494450134056654615,,52992,0,0,0,43654,8456,0,0,0,0,156,1554,1906,1646,0,0,0,0,4067,4076,4080,4083
1494450135451330462,148,1494450134076567144,,53012,0,0,0,43654,8456,18,18,0,0,156,1554,1906,1645,0,0,0,0,4072,4071,4074,4083
1494450135451340699,149,1494450134096751838,,53032,0,0,0,43654,8456,18,18,0,0,156,1554,1905,1645,0,0,0,0,4065,4074,4073,4086
1494450135451345926,150,1494450134116455036,,53052,0,0,0,43654,8456,18,18,0,0,156,1554,1904,1645,0,0,0,0,4065,4076,4070,4078
1494450135451357063,151,1494450134136408857,,53072,0,0,0,43654,8456,18,18,0,0,156,1556,1904,1648,0,0,0,0,4072,4069,4071,4079
1494450135451363016,152,1494450134156775966,,53092,0,0,0,43654,8456,18,18,0,0,156,1556,1902,1652,0,0,0,0,4072,4073,4073,4080
1494450135451370828,153,1494450134176574080,,53112,0,0,0,43658,8460,16,16,0,0,156,1554,1913,1652,0,1,0,0,4068,4067,4066,4077
1494450135451375975,154,1494450134197526850,,53132,0,0,0,43668,8469,11,12,0,0,156,1556,1913,1645,1,1,0,0,4078,4074,4061,4073
1494450135452259605,155,1494450134216530805,,53152,0,0,0,43673,8473,9,10,0,0,156,1556,1910,1645,1,1,0,0,4074,4073,4062,4074
1494450135452283916,156,1494450134236371960,,53172,0,0,0,43677,8477,9,10,0,0,156,1555,1912,1648,0,0,0,0,4074,4073,4062,4070
1494450135452292977,157,1494450134256945026,,53192,0,0,0,43682,8481,11,12,0,0,156,1554,1912,1648,0,0,0,0,4071,4079,4062,4073
1494450135452298932,158,1494450134276815222,,53212,0,0,0,43688,8484,11,13,0,0,156,1552,1912,1709,1,0,0,0,4075,4083,4063,4065
1494450135452306556,159,1494450134296385380,,53232,0,0,0,43694,8491,10,12,0,0,156,1556,1925,1709,0,0,0,0,4074,4081,4066,4062
1494450135452328029,160,1494450134316376534,,53252,0,0,0,43701,8498,9,10,0,0,156,1556,1925,1655,0,1,0,0,4074,4080,4075,4065
1494450135452345526,161,1494450134336455687,,53272,0,0,0,43707,8503,9,9,0,0,156,1554,1925,1646,0,0,0,0,4069,4075,4076,4070
1494450135452356805,162,1494450134356636214,,53292,0,0,0,43711,8508,10,10,0,0,156,1554,1906,1646,0,0,0,0,4069,4075,4075,4075
1494450135452363294,163,1494450134378920223,,53312,0,0,0,43715,8512,12,12,0,0,156,1554,1906,1647,0,0,0,0,4070,4081,4074,4080
1494450135452369911,164,1494450134397530722,,53332,0,0,0,43720,8517,12,12,0,0,156,1552,1904,1647,1,0,0,0,4072,4075,4076,4084
1494450135452381872,165,1494450134416862716,,53352,0,0,0,43725,8523,12,11,0,0,156,1552,1904,1648,1,0,0,0,4067,4073,4078,4086
1494450135452388487,166,1494450134436443748,,53372,0,0,0,43731,8529,11,10,0,0,156,1531,1906,1648,0,1,0,0,4070,4070,4073,4084
1494450135452401588,167,1494450134456383903,,53392,0,0,0,43736,8534,11,10,0,0,156,1530,1906,1644,0,0,0,0,4065,4073,4078,4082
1494450135452411191,168,1494450134477591087,,53412,0,0,0,43739,8538,12,11,0,0,156,1564,1906,1644,1,0,0,0,4065,4071,4075,4084
1494450135452419858,169,1494450134496614375,,53432,0,0,0,43744,8543,12,12,0,0,156,1564,1902,1647,1,0,0,0,4063,4070,4073,4083
1494450135452427148,170,1494450134518241597,,53452,0,0,0,43751,8549,11,11,0,0,156,1564,1902,1666,1,1,0,0,4060,4070,4073,4084
1494450135452434136,171,1494450134536933846,,53472,0,0,0,43757,8555,10,11,0,0,156,1564,1902,1666,0,0,0,0,4066,4069,4071,4081
1494450135452453489,172,1494450134557607494,,53492,0,0,0,43762,8560,10,11,0,0,156,1554,1903,1646,0,0,0,0,4064,4074,4072,4075
1494450135452459696,173,1494450134577308276,,53512,0,0,0,43767,8564,11,12,0,0,156,1554,1903,1646,0,0,0,0,4063,4067,4071,4082
1494450135452466792,174,1494450134597284888,,53532,0,0,0,43772,8568,12,13,0,0,156,1554,1903,1646,0,0,0,0,4067,4069,4069,4081
1494450135452479033,175,1494450134617365833,,53552,0,0,0,43779,8573,11,13,0,0,156,1554,1906,1709,1,1,0,0,4072,4070,4071,4079
1494450135452487251,176,1494450134637296404,,53572,0,0,0,43785,8579,10,12,0,0,156,1554,1906,1709,0,1,0,0,4068,4066,4066,4077
1494450135452495428,177,1494450134657402765,,53592,0,0,0,43791,8584,10,11,0,0,156,1538,1907,1655,0,1,0,0,4081,4073,4070,4080
1494450135452502108,178,1494450134677418502,,53612,0,0,0,43796,8589,11,11,0,0,156,1536,1907,1655,0,0,0,0,4077,4074,4067,4076
1494450135452510174,179,1494450134697315282,,53632,0,0,0,43803,8595,10,11,0,0,156,1530,1903,1655,0,0,0,0,4072,4073,4064,4069
1494450135452516396,180,1494450134717312019,,53652,0,0,0,43809,8601,10,11,0,0,156,1530,1904,1645,0,0,0,0,4073,4078,4068,4072
1494450135452523609,181,1494450134737623962,,53672,0,0,0,43816,8608,9,10,0,0,156,1551,1904,1645,0,0,0,0,4071,4084,4067,4062
1494450135452532760,182,1494450134757727282,,53692,0,0,0,43822,8615,10,10,0,0,156,1551,1903,1645,0,0,0,0,4070,4076,4071,4065
1494450135452542021,183,1494450134783738965,,53712,0,0,0,43828,8621,10,10,0,0,156,1557,1926,1644,0,0,0,0,4068,4078,4071,4061
1494450135452561303,184,1494450134798021712,,53732,0,0,0,43835,8627,10,10,0,0,156,1557,1926,1646,0,0,0,0,4069,4077,4077,4068
1494450135455415263,185,1494450134817505329,,53752,0,0,0,43841,8635,10,10,0,0,156,1556,1920,1646,0,0,0,0,4067,4075,4078,4076
1494450135455425285,186,1494450134837314693,,53772,0,0,0,43847,8642,10,9,0,0,156,1556,1904,1643,0,0,0,0,4075,4073,4076,4073
1494450135455442976,187,1494450134857735468,,53792,0,0,0,43853,8649,29,27,0,0,156,1556,1903,1645,2,2,0,0,4074,4068,4076,4073
1494450135455455080,188,1494450134878285825,,53812,0,0,0,43871,8664,23,24,0,0,156,1554,1903,1645,4,4,0,0,4068,4071,4078,4076
1494450135455462473,189,1494450134897671151,,53832,0,0,0,43888,8678,18,21,0,0,156,1554,1903,1647,3,4,0,0,4082,4079,4082,4092
1494450135455468660,190,1494450134917628180,,53852,0,0,0,43906,8698,13,15,0,0,156,1552,1902,1647,2,2,0,0,4072,4079,4079,4090
1494450135455474504,191,1494450134937654875,,53872,0,0,0,43924,8713,13,15,0,0,156,1528,1877,1647,1,1,0,0,4074,4082,4074,4083
1494450135455481342,192,1494450134958216024,,53892,0,0,0,43940,8726,13,15,0,0,156,1535,1874,1623,1,1,0,0,4069,4074,4074,4085
1494450135455487092,193,1494450134977241437,,53912,0,0,0,43953,8739,16,18,0,0,156,1554,1874,1623,1,1,0,0,4068,4072,4076,4087
1494450135455493353,194,1494450134997216216,,53932,0,0,0,43967,8752,17,19,0,0,156,1554,1883,1623,1,2,0,0,4070,4068,4073,4078
1494450135455500115,195,1494450135018792564,,53952,0,0,0,43982,8769,18,18,0,0,156,1554,1905,1645,1,2,0,0,4069,4078,4074,4078
1494450135455506333,196,1494450135037164524,,53972,0,0,0,44000,8787,16,15,0,0,156,1553,1905,1645,1,1,0,0,4063,4072,4072,4081
1494450135455517010,197,1494450135057303677,,53992,0,0,0,44020,8806,31,31,0,0,156,1554,1905,1644,2,3,0,0,4069,4079,4071,4079
1494450135455524648,198,1494450135077226915,,54012,0,0,0,44052,8835,23,25,0,0,156,1562,1905,1642,3,4,0,0,4071,4071,4075,4090
1494450135455535618,199,1494450135097344859,,54032,0,0,0,44077,8860,20,22,0,0,156,1562,1904,1643,2,3,0,0,4066,4067,4069,4078
1494450135455546607,200,1494450135117485179,,54052,0,0,0,44104,8889,17,17,0,0,156,1553,1904,1643,1,2,0,0,4063,4069,4069,4081
1494450135455552971,201,1494450135138402491,,54072,0,0,0,44129,8917,20,18,0,0,156,1555,1901,1643,1,1,0,0,4071,4071,4065,4076
1494450135455561511,202,1494450135157402112,,54092,0,0,0,44155,8942,20,18,0,0,156,1555,1858,1627,1,1,0,0,4068,4069,4070,4077
1494450135455572318,203,1494450135177741805,,54112,0,0,0,44177,8965,22,21,0,0,156,1554,1857,1627,2,1,0,0,4079,4064,4071,4075
1494450135455581986,204,1494450135198311579,,54132,0,0,0,44201,8989,23,23,0,0,156,1554,1881,1645,2,2,0,0,4070,4065,4072,4071
1494450135455591794,205,1494450135218338399,,54152,0,0,0,44228,9015,22,22,0,0,156,1556,1903,1647,2,2,0,0,4075,4068,4060,4072
1494450135455937787,206,1494450135237244271,,54172,0,0,0,44257,9042,19,20,0,0,156,1556,1903,1647,2,2,0,0,4079,4073,4058,4065
1494450135455943117,207,1494450135257212217,,54192,0,0,0,44285,9071,17,18,0,0,156,1556,1906,1647,1,1,0,0,4072,4082,4061,4067
1494450135455949632,208,1494450135277376245,,54212,0,0,0,44313,9100,17,17,0,0,156,1556,1906,1647,1,0,0,0,4070,4083,4070,4057
1494450135455956136,209,1494450135297205067,,54232,0,0,0,44339,9127,18,17,0,0,156,1552,1906,1645,1,0,0,0,4076,4075,4067,4060
1494450135455971549,210,1494450135318156421,,54252,0,0,0,44365,9153,19,18,0,0,156,1625,1906,1645,1,1,0,0,4066,4077,4079,4070
1494450135455978147,211,1494450135338245324,,54272,0,0,0,44392,9179,20,20,0,0,156,1625,1904,1644,1,1,0,0,4076,4078,4073,4070
1494450135455982456,212,1494450135358502309,,54292,0,0,0,44419,9206,19,20,0,0,156,1554,1904,1644,1,1,0,0,4074,4073,4076,4072
1494450135455989615,213,1494450135378671044,,54312,0,0,0,44447,9235,18,18,0,0,156,1571,1905,1645,1,1,0,0,4071,4080,4080,4085
1494450135455997599,214,1494450135398207494,,54332,0,0,0,44473,9262,19,18,0,0,156,1571,1908,1645,1,1,0,0,4065,4073,4076,4088
1494450135456003526,215,1494450135418229523,,54352,0,0,0,44500,9289,19,18,0,0,156,1555,1908,1627,1,1,0,0,4068,4075,4077,4084
1494450135456184532,216,1494450135438591090,,54372,0,0,0,44524,9314,21,20,0,0,156,1555,1905,1627,1,1,0,0,4067,4073,4073,4081
1494450135456195306,217,1494450135458137665,,54392,0,0,0,44550,9339,21,21,0,0,156,1553,1905,1623,1,1,0,0,4069,4073,4079,4077
1494450135456328583,218,1494450135478166277,,54412,0,0,0,44576,9365,21,21,0,0,156,1554,1905,1646,1,1,0,0,4070,4071,4077,4084
1494450135456408584,219,1494450135498956090,,54432,0,0,0,44604,9392,20,21,0,0,156,1554,1902,1646,1,1,0,0,4068,4072,4078,4086
1494450135465794224,220,1494450135519200534,,54452,0,0,0,44629,9420,20,19,0,0,156,1576,1902,1643,1,1,0,0,4070,4071,4080,4082
1494450135482740193,221,1494450135538347820,,54472,0,0,0,44655,9445,20,20,0,0,156,1576,1902,1626,1,1,0,0,4067,4072,4074,4083
1494450135502595808,222,1494450135558127685,,54492,0,0,0,44682,9472,21,20,0,0,156,1576,1904,1621,1,1,0,0,4077,4076,4079,4084
1494450135523545823,223,1494450135578870457,,54512,0,0,0,44709,9499,20,20,0,0,156,1557,1909,1621,1,1,0,0,4069,4069,4071,4080
1494450135542364964,224,1494450135598211033,,54532,0,0,0,44736,9527,19,19,0,0,156,1557,1909,1621,1,1,0,0,4068,4069,4071,4078
1494450135561895020,225,1494450135618072397,,54552,0,0,0,44763,9554,19,19,0,0,156,1555,1904,1622,1,1,0,0,4063,4069,4068,4077
1494450135596932681,226,1494450135638066968,,54572,0,0,0,44790,9581,19,19,0,0,156,1556,1904,1622,1,1,0,0,4064,4066,4074,4077
1494450135603660116,227,1494450135658605033,,54592,0,0,0,44818,9608,38,38,0,0,156,1558,1904,1625,3,3,0,0,4073,4066,4066,4058
1494450135622765149,228,1494450135678804852,,54612,0,0,0,44857,9648,32,32,0,0,156,1558,1907,1626,6,6,0,0,4070,4069,4071,4089
1494450135642713233,229,1494450135698028096,,54632,0,0,0,44895,9685,27,27,0,0,156,1558,1907,1626,5,5,0,0,4066,4068,4068,4077
1494450135663320075,230,1494450135719095824,,54652,0,0,0,44934,9724,22,22,0,0,156,1528,1902,1625,3,3,0,0,4077,4072,4073,4079
1494450135684977658,231,1494450135738358818,,54672,0,0,0,44971,9762,23,23,0,0,156,1507,1902,1625,2,2,0,0,4071,4072,4071,4077
1494450135704130692,232,1494450135758271973,,54692,0,0,0,45007,9798,24,23,0,0,156,1533,1861,1621,2,2,0,0,4066,4069,4079,4081
1494450135722679668,233,1494450135778277877,,54712,0,0,0,45039,9831,27,26,0,0,156,1533,1861,1624,2,2,0,0,4070,4072,4083,4078
1494450135748693506,234,1494450135802713574,,54732,0,0,0,45073,9864,28,29,0,0,156,1533,1878,1624,3,3,0,0,4066,4069,4070,4081
1494450135764044892,235,1494450135818660348,,54752,0,0,0,45110,9900,28,29,0,0,156,1532,1902,1621,3,3,0,0,4067,4070,4077,4077
1494450135786595023,236,1494450135838846417,,54772,0,0,0,45149,9940,25,25,0,0,156,1554,1902,1621,3,3,0,0,4072,4069,4075,4080
1494450135807298814,237,1494450135858513615,,54792,0,0,0,45189,9980,22,22,0,0,156,1559,1904,1643,2,2,0,0,4072,4067,4071,4078
1494450135830540412,238,1494450135878852766,,54812,0,0,0,45227,10018,22,21,0,0,156,1559,1904,1643,1,1,0,0,4077,4069,4075,4081
1494450135844945084,239,1494450135899316249,,54832,0,0,0,45264,10055,23,23,0,0,156,1553,1903,1622,1,1,0,0,4077,4073,4070,4078
1494450135863734280,240,1494450135919045322,,54852,0,0,0,45300,10091,25,25,0,0,156,1553,1905,1639,1,1,0,0,4075,4071,4078,4084
1494450135882759258,241,1494450135938978560,,54872,0,0,0,45339,10130,24,24,0,0,156,1553,1908,1639,1,1,0,0,4072,4072,4077,4074
1494450135908445388,242,1494450135959088963,,54892,0,0,0,45377,10169,24,23,0,0,156,1553,1908,1625,2,1,0,0,4067,4072,4076,4081
1494450135923341014,243,1494450135979094534,,54912,0,0,0,45414,10207,23,22,0,0,156,1574,1908,1645,2,1,0,0,4077,4070,4074,4077
1494450135944944569,244,1494450135999642724,,54932,0,0,0,45449,10243,25,24,0,0,156,1589,1904,1645,2,1,0,0,4069,4075,4084,4078
1494450135964383557,245,1494450136019616962,,54952,0,0,0,45485,10278,26,26,0,0,156,1589,1904,1641,2,1,0,0,4080,4070,4075,4079
1494450135991156625,246,1494450136039540950,,54972,0,0,0,45521,10315,27,26,0,0,156,1561,1904,1621,2,2,0,0,4073,4072,4079,4083
1494450136005306854,247,1494450136059688311,,54992,0,0,0,45557,10353,26,25,0,0,156,1572,1904,1623,2,2,0,0,4073,4076,4075,4081
1494450136029799381,248,1494450136079761048,,55012,0,0,0,45596,10392,25,24,0,0,156,1576,1904,1623,2,2,0,0,4070,4070,4074,4083
1494450136045692506,249,1494450136100019116,,55032,0,0,0,45633,10430,25,23,0,0,156,1579,1904,1623,2,1,0,0,4067,4070,4077,4083
1494450136067143009,250,1494450136120294309,,55052,0,0,0,45671,10467,24,24,0,0,156,1579,1905,1621,2,1,0,0,4068,4069,4082,4082
1494450136087271813,251,1494450136141027498,,55072,0,0,0,45708,10504,25,25,0,0,156,1579,1906,1623,2,1,0,0,4076,4071,4079,4088
1494450136105107559,252,1494450136159045504,,55092,0,0,0,45747,10542,42,43,0,0,156,1572,1915,1623,2,2,0,0,4074,4065,4073,4073
1494450136123913647,253,1494450136179284572,,55112,0,0,0,45795,10590,37,38,0,0,156,1571,1915,1623,6,6,0,0,4067,4073,4076,4085
1494450136150005378,254,1494450136198918729,,55132,0,0,0,45844,10638,32,33,0,0,156,1555,1904,1623,5,6,0,0,4071,4071,4070,4084
1494450136163265483,255,1494450136219136465,,55152,0,0,0,45893,10686,27,28,0,0,156,1555,1904,1623,3,4,0,0,4064,4064,4065,4067
1494450136189824058,256,1494450136244326989,,55172,0,0,0,45941,10734,27,28,0,0,156,1553,1904,1601,2,2,0,0,4068,4069,4071,4079
1494450136207631860,257,1494450136263467109,,55192,0,0,0,45988,10777,28,31,0,0,156,1547,1857,1599,2,3,0,0,4069,4071,4073,4082
1494450136225438852,258,1494450136280189834,,55212,0,0,0,46033,10815,30,36,0,0,156,1537,1857,1601,3,5,0,0,4069,4075,4072,4073
1494450136244158737,259,1494450136299238788,,55232,0,0,0,46077,10854,32,40,0,0,156,1535,1858,1622,3,8,0,0,4069,4074,4078,4088
1494450136264608275,260,1494450136319106068,,55252,0,0,0,46123,10897,33,40,0,0,156,1535,1881,1622,4,9,0,0,4068,4078,4071,4085
1494450136284537754,261,1494450136338966599,,55272,0,0,0,46173,10944,30,36,0,0,156,1532,1903,1642,4,8,0,0,4069,4076,4077,4086
1494450136302510399,262,1494450136358880837,,55292,0,0,0,46225,10994,27,31,0,0,156,1532,1926,1645,2,6,0,0,4068,4070,4078,4077
1494450136322484072,263,1494450136378930032,,55312,0,0,0,46274,11045,25,27,0,0,156,1533,1926,1647,2,3,0,0,4070,4069,4072,4077
1494450136342624279,264,1494450136398850395,,55332,0,0,0,46321,11093,27,26,0,0,156,1533,1926,1647,1,2,0,0,4075,4066,4074,4075
1494450136364017767,265,1494450136418982215,,55352,0,0,0,46368,11139,29,28,0,0,156,1533,1904,1642,2,2,0,0,4069,4074,4068,4077
1494450136383955459,266,1494450136439100659,,55372,0,0,0,46416,11184,30,31,0,0,156,1531,1927,1647,2,3,0,0,4068,4068,4069,4073
1494450136404015308,267,1494450136459952139,,55392,0,0,0,46465,11231,29,32,0,0,156,1531,1927,1647,2,3,0,0,4071,4063,4067,4071
1494450136423904412,268,1494450136478967927,,55412,0,0,0,46513,11278,28,31,0,0,156,1532,1926,1648,2,3,0,0,4071,4060,4063,4065
1494450136444501608,269,1494450136500756065,,55432,0,0,0,46561,11324,28,31,0,0,156,1551,1931,1648,2,3,0,0,4072,4065,4069,4071
1494450136464416022,270,1494450136520406930,,55452,0,0,0,46611,11370,28,32,0,0,156,1553,1931,1648,2,3,0,0,4075,4064,4063,4065
1494450136483933634,271,1494450136539821048,,55472,0,0,0,46659,11413,28,34,0,0,156,1553,1931,1647,2,4,0,0,4082,4065,4068,4076
1494450136505779393,272,1494450136558928085,,55492,0,0,0,46705,11457,29,35,0,0,156,1552,1905,1647,2,4,0,0,4079,4063,4063,4063
1494450136525810422,273,1494450136579687690,,55512,0,0,0,46752,11504,31,34,0,0,156,1552,1905,1646,2,5,0,0,4076,4073,4062,4071
1494450136543607347,274,1494450136598807477,,55532,0,0,0,46800,11555,31,30,0,0,156,1552,1905,1646,2,4,0,0,4077,4086,4063,4069
1494450136563457347,275,1494450136618949630,,55552,0,0,0,46849,11604,29,28,0,0,156,1552,1905,1625,2,3,0,0,4079,4080,4061,4069
1494450136585284184,276,1494450136639041200,,55572,0,0,0,46896,11653,29,27,0,0,156,1553,1923,1625,2,2,0,0,4082,4077,4066,4060
1494450136605952980,277,1494450136660128303,,55592,0,0,0,46943,11701,30,29,0,0,156,1553,1923,1623,2,2,0,0,4075,4084,4063,4061
1494450136626311388,278,1494450136680217081,,55612,0,0,0,46991,11749,30,29,0,0,156,1578,1921,1623,3,2,0,0,4076,4077,4061,4046
1494450136644626821,279,1494450136699986820,,55632,0,0,0,47040,11797,30,30,0,0,156,1578,1927,1623,3,2,0,0,4072,4083,4072,4062
1494450136664464501,280,1494450136719925558,,55652,0,0,0,47091,11847,28,29,0,0,156,1596,1927,1624,2,2,0,0,4071,4071,4066,4046
1494450136685578931,281,1494450136740232251,,55672,0,0,0,47140,11897,27,28,0,0,156,1596,1925,1629,2,2,0,0,4076,4072,4074,4093
1494450136708123060,282,1494450136759890783,,55692,0,0,0,47188,11945,47,47,0,0,156,1573,1903,1629,2,2,0,0,4073,4073,4080,4094
1494450136724468680,283,1494450136779835646,,55712,0,0,0,47245,12001,44,44,0,0,156,1562,1903,1625,7,7,0,0,4068,4080,4076,4083
1494450136744513658,284,1494450136800027382,,55732,0,0,0,47303,12060,39,40,0,0,156,1562,1905,1625,7,7,0,0,4072,4081,4070,4086
1494450136764020214,285,1494450136819832621,,55752,0,0,0,47363,12121,34,33,0,0,156,1557,1905,1624,5,5,0,0,4069,4081,4073,4085
1494450136786188579,286,1494450136839816317,,55772,0,0,0,47424,12183,32,31,0,0,156,1555,1902,1622,3,3,0,0,4074,4075,4075,4086
1494450136804725725,287,1494450136859819804,,55792,0,0,0,47483,12240,31,32,0,0,156,1557,1881,1621,3,2,0,0,4074,4072,4072,4087
1494450136824774684,288,1494450136879995998,,55812,0,0,0,47538,12295,34,35,0,0,156,1557,1864,1600,2,2,0,0,4068,4075,4072,4083
1494450136844635029,289,1494450136899791487,,55832,0,0,0,47593,12350,37,38,0,0,156,1554,1880,1599,3,3,0,0,4067,4074,4074,4091
1494450136864212051,290,1494450136919815849,,55852,0,0,0,47649,12408,38,38,0,0,156,1575,1902,1621,4,4,0,0,4069,4075,4078,4089
1494450136884922911,291,1494450136940179750,,55872,0,0,0,47708,12466,37,36,0,0,156,1577,1903,1622,4,4,0,0,4070,4074,4072,4089
1494450136903752808,292,1494450136959732533,,55892,0,0,0,47769,12527,34,34,0,0,156,1582,1903,1625,3,3,0,0,4068,4078,4070,4083
1494450136924174797,293,1494450136979770603,,55912,0,0,0,47829,12588,32,32,0,0,156,1582,1902,1625,2,2,0,0,4076,4072,4072,4088
1494450136944212581,294,1494450136999747091,,55932,0,0,0,47889,12647,31,32,0,0,156,1576,1905,1622,2,2,0,0,4073,4083,4071,4086
1494450136965927361,295,1494450137021017859,,55952,0,0,0,47948,12706,33,33,0,0,156,1576,1905,1622,2,2,0,0,4070,4077,4080,4087
1494450136983691311,296,1494450137039688775,,55972,0,0,0,48007,12765,33,34,0,0,156,1579,1905,1622,2,2,0,0,4072,4077,4069,4076
1494450137007075143,297,1494450137060026342,,55992,0,0,0,48065,12824,34,34,0,0,156,1579,1906,1621,2,2,0,0,4070,4074,4074,4081
1494450137026976916,298,1494450137080149870,,56012,0,0,0,48123,12880,35,35,0,0,156,1579,1906,1622,3,3,0,0,4067,4077,4081,4090
1494450137046208197,299,1494450137099975359,,56032,0,0,0,48181,12939,35,35,0,0,156,1590,1907,1622,3,3,0,0,4070,4078,4080,4088
1494450137068292173,300,1494450137119879806,,56052,0,0,0,48239,12998,35,36,0,0,156,1590,1907,1622,3,3,0,0,4068,4079,4070,4086
1494450137085044175,301,1494450137140310456,,56072,0,0,0,48297,13057,35,34,0,0,156,1579,1904,1622,3,3,0,0,4065,4074,4073,4086
1494450137105273149,302,1494450137160192153,,56092,0,0,0,48356,13113,35,36,0,0,156,1579,1906,1622,3,3,0,0,4069,4080,4069,4087
1494450137124794931,303,1494450137180004059,,56112,0,0,0,48415,13171,35,36,0,0,156,1579,1906,1621,3,4,0,0,4066,4075,4076,4079
1494450137144767369,304,1494450137199676049,,56132,0,0,0,48474,13231,34,36,0,0,156,1577,1906,1657,3,4,0,0,4063,4072,4066,4074
1494450137164779107,305,1494450137220827485,,56152,0,0,0,48534,13291,34,34,0,0,156,1572,1906,1657,3,3,0,0,4072,4070,4072,4083
1494450137184550808,306,1494450137240717223,,56172,0,0,0,48592,13347,34,35,0,0,156,1573,1906,1624,3,3,0,0,4073,4080,4078,4094
1494450137207558914,307,1494450137262731734,,56192,0,0,0,48648,13401,36,38,0,0,156,1573,1906,1625,3,4,0,0,4063,4070,4066,4080
1494450137228397932,308,1494450137281233402,,56212,0,0,0,48705,13456,37,40,0,0,156,1556,1906,1625,4,5,0,0,4070,4070,4069,4082
1494450137246870673,309,1494450137301208514,,56232,0,0,0,48765,13514,36,40,0,0,156,1556,1906,1625,4,6,0,0,4069,4075,4071,4077
1494450137267237032,310,1494450137321586748,,56252,0,0,0,48827,13575,34,36,0,0,156,1556,1904,1643,3,5,0,0,4076,4071,4065,4081
1494450137286203931,311,1494450137340945908,,56272,0,0,0,48888,13635,32,34,0,0,156,1555,1903,1649,2,4,0,0,4070,4075,4073,4081
1494450137306735315,312,1494450137361092061,,56292,0,0,0,48946,13689,33,36,0,0,156,1555,1903,1649,2,3,0,0,4073,4067,4064,4070
1494450137326428759,313,1494450137381071590,,56312,0,0,0,49003,13743,35,39,0,0,156,1555,1904,1645,2,5,0,0,4070,4069,4068,4085
1494450137346294814,314,1494450137401268784,,56332,0,0,0,49061,13798,37,42,0,0,156,1557,1906,1646,3,7,0,0,4068,4066,4062,4076
1494450137366417052,315,1494450137421007857,,56352,0,0,0,49121,13857,36,39,0,0,156,1557,1906,1647,4,7,0,0,4089,4067,4062,4079
1494450137386432986,316,1494450137442045044,,56372,0,0,0,49183,13913,33,39,0,0,156,1555,1906,1647,3,7,0,0,4078,4070,4069,4082
1494450137404700893,317,1494450137460799292,,56392,0,0,0,49241,13968,34,39,0,0,156,1553,1904,1647,3,6,0,0,4083,4068,4066,4081
1494450137425474927,318,1494450137480680364,,56412,0,0,0,49298,14021,35,42,0,0,156,1542,1904,1649,3,7,0,0,4083,4069,4063,4080
1494450137444894768,319,1494450137500632852,,56432,0,0,0,49356,14077,37,42,0,0,156,1557,1911,1649,3,7,0,0,4075,4075,4069,4077
1494450137465454402,320,1494450137520925420,,56452,0,0,0,49417,14139,36,38,0,0,156,1557,1911,1649,3,6,0,0,4075,4075,4059,4072
1494450137485268328,321,1494450137540717160,,56472,0,0,0,49477,14200,34,35,0,0,156,1556,1905,1647,3,4,0,0,4074,4089,4068,4063
1494450137506391306,322,1494450137562166301,,56492,0,0,0,49534,14260,35,33,0,0,156,1551,1904,1623,3,3,0,0,4076,4080,4064,4056
1494450137527757179,323,1494450137580760342,,56512,0,0,0,49592,14319,36,34,0,0,156,1551,1902,1623,3,3,0,0,4079,4081,4066,4079
1494450137546008231,324,1494450137601663822,,56532,0,0,0,49652,14378,36,35,0,0,156,1550,1899,1622,4,3,0,0,4075,4079,4069,4072
1494450137564813761,325,1494450137620832275,,56552,0,0,0,49712,14438,35,35,0,0,156,1553,1904,1599,3,3,0,0,4073,4081,4074,4065
1494450137585353491,326,1494450137640787679,,56572,0,0,0,49773,14499,34,35,0,0,156,1553,1907,1624,3,3,0,0,4074,4081,4075,4072
1494450137607364317,327,1494450137662681275,,56592,0,0,0,49833,14558,34,35,0,0,156,1616,1907,1624,3,3,0,0,4073,4081,4071,4075
1494450137629528321,328,1494450137681755979,,56612,0,0,0,49892,14617,34,35,0,0,156,1616,1906,1622,3,3,0,0,4074,4079,4076,4069
1494450137647815728,329,1494450137701417136,,56632,0,0,0,49951,14677,35,36,0,0,156,1553,1904,1623,3,3,0,0,4079,4083,4070,4069
1494450137672500208,330,1494450137728216979,,56652,0,0,0,50011,14738,35,35,0,0,156,1554,1927,1623,3,3,0,0,4075,4084,4077,4070
1494450137686386753,331,1494450137742659558,,56672,0,0,0,50072,14798,34,34,0,0,156,1554,1927,1623,3,2,0,0,4071,4080,4075,4072
1494450137707073434,332,1494450137761614388,,56692,0,0,0,50130,14858,35,34,0,0,156,1574,1927,1625,3,2,0,0,4071,4079,4079,4083
1494450137726188731,333,1494450137781884790,,56712,0,0,0,50190,14919,35,34,0,0,156,1574,1924,1625,3,2,0,0,4076,4081,4080,4092
1494450137745880821,334,1494450137801214242,,56732,0,0,0,50251,14979,35,35,0,0,156,1577,1924,1625,3,3,0,0,4072,4079,4075,4080
1494450137765025236,335,1494450137820746817,,56752,0,0,0,50312,15040,34,34,0,0,156,1577,1906,1622,3,2,0,0,4068,4075,4073,4085
1494450137785302156,336,1494450137841189342,,56772,0,0,0,50371,15099,34,35,0,0,156,1577,1906,1622,2,3,0,0,4071,4071,4072,4081
1494450137805301563,337,1494450137860669834,,56792,0,0,0,50430,15159,35,35,0,0,156,1573,1905,1621,2,3,0,0,4073,4076,4068,4082
1494450137866911492,338,1494450137880858195,,56812,0,0,0,50489,15217,36,37,0,0,156,1568,1905,1622,3,3,0,0,4087,4073,4063,4079
1494450137873125317,339,1494450137902841873,,56832,0,0,0,50550,15278,35,36,0,0,156,1557,1904,1623,3,3,0,0,4077,4071,4054,4059
1494450137873162515,340,1494450137921239958,,56852,0,0,0,50609,15339,35,35,0,0,156,1557,1904,1623,3,3,0,0,4077,4089,4063,4069
1494450137886966098,341,1494450137942279894,,56872,0,0,0,50668,15397,35,35,0,0,156,1555,1904,1623,3,3,0,0,4073,4082,4072,4080
1494450137905838029,342,1494450137960646230,,56892,0,0,0,50728,15453,36,38,0,0,156,1554,1906,1624,3,4,0,0,4070,4079,4077,4072
1494450137946523921,343,1494450137981932664,,56912,0,0,0,50789,15513,35,38,0,0,156,1554,1906,1624,3,4,0,0,4076,4085,4077,4085
1494450137949409730,344,1494450138001491988,,56932,0,0,0,50849,15575,35,37,0,0,156,1554,1905,1625,3,4,0,0,4070,4077,4073,4094
1494450137968105085,345,1494450138024059286,,56952,0,0,0,50910,15634,34,35,0,0,156,1554,1908,1627,3,4,0,0,4067,4072,4071,4083
1494450137991836256,346,1494450138042302831,,56972,0,0,0,50969,15691,35,37,0,0,156,1554,1908,1627,3,4,0,0,4069,4076,4073,4089
1494450138007205371,347,1494450138061627491,,56992,0,0,0,51027,15751,36,38,0,0,156,1554,1906,1623,3,4,0,0,4069,4080,4070,4085
1494450138028475929,348,1494450138082667470,,57012,0,0,0,51087,15811,37,37,0,0,156,1556,1903,1655,4,4,0,0,4066,4074,4070,4088
1494450138051268116,349,1494450138101519217,,57032,0,0,0,51149,15872,36,35,0,0,156,1556,1903,1655,3,4,0,0,4070,4071,4073,4086
1494450138065576776,350,1494450138121628829,,57052,0,0,0,51211,15932,34,36,0,0,156,1555,1903,1654,3,3,0,0,4070,4067,4065,4077
1494450138099085154,351,1494450138141456693,,57072,0,0,0,51269,15988,35,38,0,0,156,1552,1902,1626,3,4,0,0,4071,4069,4062,4075
1494450138107723655,352,1494450138161716970,,57092,0,0,0,51328,16044,36,40,0,0,156,1552,1906,1626,3,5,0,0,4075,4071,4065,4082
1494450138127884192,353,1494450138182519242,,57112,0,0,0,51389,16104,37,40,0,0,156,1559,1906,1626,4,6,0,0,4076,4080,4062,4077
1494450138145835630,354,1494450138201551321,,57132,0,0,0,51452,16167,34,37,0,0,156,1559,1906,1646,3,5,0,0,4070,4083,4066,4083
1494450138168132352,355,1494450138223248835,,57152,0,0,0,51515,16230,32,33,0,0,156,1552,1906,1646,2,3,0,0,4078,4077,4069,4067
1494450138186934287,356,1494450138242158624,,57172,0,0,0,51576,16288,33,34,0,0,156,1552,1906,1647,2,3,0,0,4072,4079,4070,4074
1494450138208037724,357,1494450138262185903,,57192,0,0,0,51633,16343,35,38,0,0,156,1544,1903,1648,3,4,0,0,4077,4084,4080,4076
1494450138230036246,358,1494450138284298163,,57212,0,0,0,51692,16397,37,43,0,0,156,1556,1905,1648,3,6,0,0,4069,4078,4080,4088
1494450138247813175,359,1494450138302353752,,57232,0,0,0,51752,16453,38,44,0,0,156,1556,1905,1647,4,8,0,0,4069,4080,4078,4086
1494450138269090375,360,1494450138322219949,,57252,0,0,0,51815,16510,35,43,0,0,156,1556,1905,1647,4,9,0,0,4065,4073,4074,4090
1494450138287233373,361,1494450138342776765,,57272,0,0,0,51877,16568,34,41,0,0,156,1561,1905,1647,3,8,0,0,4070,4072,4070,4080
1494450138305911208,362,1494450138361361890,,57292,0,0,0,51939,16626,33,40,0,0,156,1561,1913,1647,3,7,0,0,4067,4075,4076,4082
1494450138327284475,363,1494450138381912831,,57312,0,0,0,51999,16685,34,39,0,0,156,1547,1913,1648,2,7,0,0,4075,4070,4069,4082
1494450138347034522,364,1494450138401432656,,57332,0,0,0,52060,16745,35,38,0,0,156,1534,1906,1648,3,6,0,0,4074,4068,4067,4084
1494450138366713639,365,1494450138421483393,,57352,0,0,0,52119,16807,36,37,0,0,156,1553,1904,1648,3,4,0,0,4066,4069,4063,4073
1494450138389538001,366,1494450138443028450,,57372,0,0,0,52177,16867,37,36,0,0,156,1553,1889,1635,4,4,0,0,4072,4068,4069,4084
1494450138410537092,367,1494450138462632649,,57392,0,0,0,52237,16926,38,37,0,0,156,1553,1904,1622,4,4,0,0,4068,4072,4060,4075
1494450138428385608,368,1494450138482030267,,57412,0,0,0,52298,16986,37,38,0,0,156,1553,1905,1623,4,4,0,0,4074,4070,4063,4078
1494450138449018045,369,1494450138501574092,,57432,0,0,0,52360,17049,35,36,0,0,156,1575,1905,1623,4,3,0,0,4076,4080,4061,4076
1494450138466248959,370,1494450138521761370,,57452,0,0,0,52422,17112,34,34,0,0,156,1575,1905,1626,3,3,0,0,4080,4088,4068,4076
1494450138487405128,371,1494450138542285061,,57472,0,0,0,52483,17172,34,35,0,0,156,1565,1905,1626,3,3,0,0,4073,4078,4068,4069
1494450138506454330,372,1494450138561373931,,57492,0,0,0,52544,17232,35,36,0,0,156,1555,1904,1651,3,3,0,0,4078,4077,4074,4066
1494450138527925978,373,1494450138582352077,,57512,0,0,0,52607,17294,34,37,0,0,156,1555,1906,1651,3,3,0,0,4076,4082,4080,4077
1494450138555115990,374,1494450138601802694,,57532,0,0,0,52668,17357,34,35,0,0,156,1553,1906,1625,3,3,0,0,4076,4077,4077,4078
1494450138571595227,375,1494450138622798006,,57552,0,0,0,52728,17419,35,34,0,0,156,1551,1906,1625,3,3,0,0,4077,4081,4072,4087
1494450138588439237,376,1494450138642204249,,57572,0,0,0,52789,17480,36,35,0,0,156,1556,1905,1621,3,3,0,0,4069,4075,4075,4090
1494450138606694497,377,1494450138661491701,,57592,0,0,0,52849,17541,37,36,0,0,156,1556,1905,1621,3,3,0,0,4073,4072,4073,4085
1494450138627343613,378,1494450138682470472,,57612,0,0,0,52909,17602,37,36,0,0,156,1556,1905,1621,3,2,0,0,4065,4072,4069,4087
1494450138645464223,379,1494450138701375802,,57632,0,0,0,52971,17663,36,36,0,0,156,1577,1906,1601,3,3,0,0,4066,4076,4073,4078
1494450138666406869,380,1494450138722436989,,57652,0,0,0,53033,17725,35,36,0,0,156,1577,1906,1601,3,3,0,0,4069,4072,4072,4076
1494450138690538826,381,1494450138743021596,,57672,0,0,0,53097,17787,33,35,0,0,156,1574,1906,1622,3,3,0,0,4066,4069,4066,4081
1494450138711139058,382,1494450138762783044,,57692,0,0,0,53159,17849,33,35,0,0,156,1552,1906,1624,3,3,0,0,4070,4071,4068,4082
1494450138728984444,383,1494450138783307318,,57712,0,0,0,53219,17912,35,35,0,0,156,1553,1902,1624,3,3,0,0,4079,4072,4072,4082
1494450138749209566,384,1494450138802991850,,57732,0,0,0,53279,17971,36,36,0,0,156,1553,1898,1624,3,3,0,0,4077,4076,4059,4064
1494450138767469560,385,1494450138822689549,,57752,0,0,0,53337,18029,38,38,0,0,156,1555,1885,1598,4,4,0,0,4073,4077,4067,4075
1494450138826773640,386,1494450138882576262,,57812,0,0,0,53525,18213,34,36,0,0,156,1554,1905,1657,3,4,0,0,4072,4083,4075,4069
1494450138847043784,387,1494450138902288836,,57832,0,0,0,53587,18274,34,35,0,0,156,1572,1902,1657,2,3,0,0,4079,4081,4067,4060
1494450138871443688,388,1494450138923931225,,57852,0,0,0,53648,18335,35,36,0,0,156,1572,1903,1623,3,3,0,0,4070,4077,4074,4080
1494450138892059390,389,1494450138943419967,,57872,0,0,0,53709,18396,36,37,0,0,156,1566,1903,1623,3,3,0,0,4072,4080,4071,4087
1494450138909094413,390,1494450138963292664,,57892,0,0,0,53770,18458,36,37,0,0,156,1554,1902,1659,3,4,0,0,4066,4074,4070,4082
1494450138933380426,391,1494450138983767523,,57912,0,0,0,53831,18519,36,37,0,0,156,1552,1887,1659,3,4,0,0,4064,4070,4068,4082
1494450138953346093,392,1494450139003468221,,57932,0,0,0,53893,18578,36,38,0,0,156,1552,1902,1642,3,4,0,0,4065,4073,4071,4092
1494450138967193008,393,1494450139022872089,,57952,0,0,0,53954,18635,36,40,0,0,156,1558,1902,1642,3,5,0,0,4066,4071,4066,4079
1494450138986050003,394,1494450139042143958,,57972,0,0,0,54015,18696,36,40,0,0,156,1558,1902,1643,3,5,0,0,4068,4070,4066,4082
1494450139006893098,395,1494450139062310611,,57992,0,0,0,54078,18760,36,38,0,0,156,1554,1902,1644,3,5,0,0,4070,4063,4057,4064
1494450139028028732,396,1494450139083400630,,58012,0,0,0,54141,18823,35,35,0,0,156,1554,1903,1644,3,4,0,0,4079,4071,4064,4074
1494450139050243962,397,1494450139103247536,,58032,0,0,0,54204,18884,34,35,0,0,156,1553,1904,1644,2,3,0,0,4081,4075,4063,4086
1494450139071392072,398,1494450139123700520,,58052,0,0,0,54265,18944,35,37,0,0,156,1559,1904,1645,2,3,0,0,4075,4081,4063,4074
1494450139087619290,399,1494450139142378436,,58072,0,0,0,54326,19001,36,40,0,0,156,1559,1906,1645,3,4,0,0,4072,4081,4068,4067
1494450139106544133,400,1494450139162177925,,58092,0,0,0,54388,19057,36,42,0,0,156,1556,1908,1645,3,6,0,0,4077,4076,4078,4068
1494450139126633358,401,1494450139182328703,,58112,0,0,0,54452,19116,35,43,0,0,156,1556,1908,1622,3,7,0,0,4073,4078,4078,4081
1494450139146257280,402,1494450139202403815,,58132,0,0,0,54513,19175,35,42,0,0,156,1558,1908,1644,3,8,0,0,4068,4076,4076,4082
1494450139170253674,403,1494450139224350202,,58152,0,0,0,54575,19232,35,42,0,0,156,1558,1902,1644,3,8,0,0,4070,4076,4077,4093
1494450139186701953,404,1494450139242384540,,58172,0,0,0,54636,19292,37,41,0,0,156,1556,1904,1645,3,7,0,0,4074,4074,4073,4087
1494450139206516109,405,1494450139262132905,,58192,0,0,0,54697,19355,37,39,0,0,156,1554,1906,1645,3,5,0,0,4073,4079,4065,4077
1494450139227233389,406,1494450139282193392,,58212,0,0,0,54759,19419,37,36,0,0,156,1553,1906,1644,4,4,0,0,4066,4075,4070,4086
1494450139248197135,407,1494450139303338828,,58232,0,0,0,54821,19482,36,35,0,0,156,1571,1906,1629,4,4,0,0,4067,4076,4074,4082
1494450139269146357,408,1494450139322799570,,58252,0,0,0,54883,19543,36,36,0,0,156,1575,1906,1624,3,3,0,0,4069,4071,4074,4062
1494450139287201059,409,1494450139342126855,,58272,0,0,0,54944,19606,36,36,0,0,156,1575,1905,1624,3,3,0,0,4070,4073,4070,4077
1494450139307011026,410,1494450139363099084,,58292,0,0,0,55007,19670,36,36,0,0,156,1579,1906,1655,3,3,0,0,4075,4072,4065,4082
1494450139327967400,411,1494450139383099155,,58312,0,0,0,55070,19733,35,35,0,0,156,1579,1906,1660,3,3,0,0,4082,4071,4062,4075
1494450139347093124,412,1494450139402291692,,58332,0,0,0,55133,19794,35,36,0,0,156,1565,1905,1660,3,3,0,0,4074,4071,4059,4074
1494450139393109747,413,1494450139423010256,,58352,0,0,0,55195,19856,35,37,0,0,156,1556,1905,1623,3,3,0,0,4072,4082,4068,4067
1494450139404544578,414,1494450139443245658,,58372,0,0,0,55255,19918,37,37,0,0,156,1552,1905,1645,2,3,0,0,4069,4079,4068,4072
1494450139407575824,415,1494450139462768900,,58392,0,0,0,55318,19980,37,37,0,0,156,1552,1905,1662,3,3,0,0,4069,4078,4075,4076
1494450139444233970,416,1494450139483765546,,58412,0,0,0,55382,20044,36,36,0,0,156,1552,1903,1662,3,3,0,0,4070,4078,4075,4078
1494450139483341480,417,1494450139504249320,,58432,0,0,0,55445,20108,34,35,0,0,156,1552,1904,1625,3,3,0,0,4071,4079,4077,4085
1494450139487747159,418,1494450139524285849,,58452,0,0,0,55506,20171,35,35,0,0,156,1551,1904,1627,3,3,0,0,4076,4073,4073,4086
1494450139491802749,419,1494450139543601301,,58472,0,0,0,55567,20233,37,36,0,0,156,1554,1908,1627,3,2,0,0,4070,4075,4073,4083
1494450139507421985,420,1494450139563178043,,58492,0,0,0,55629,20295,37,37,0,0,156,1556,1908,1625,3,3,0,0,4069,4079,4078,4087
1494450139535476071,421,1494450139591199792,,58512,0,0,0,55692,20356,36,38,0,0,156,1556,1908,1625,3,3,0,0,4067,4078,4071,4095
1494450139561444585,422,1494450139603199726,,58532,0,0,0,55755,20419,36,37,0,0,156,1554,1904,1656,3,4,0,0,4066,4076,4078,4084
1494450139568665076,423,1494450139623624668,,58552,0,0,0,55817,20483,36,36,0,0,156,1554,1904,1656,2,3,0,0,4071,4073,4067,4081
1494450139586863774,424,1494450139643062119,,58572,0,0,0,55879,20547,36,35,0,0,156,1577,1904,1623,2,3,0,0,4075,4068,4068,4080
1494450139607917625,425,1494450139663287771,,58592,0,0,0,55943,20608,36,36,0,0,156,1577,1904,1623,2,3,0,0,4076,4069,4067,4079
1494450139627842256,426,1494450139683008720,,58612,0,0,0,56004,20668,36,38,0,0,156,1556,1926,1619,3,4,0,0,4079,4076,4066,4080
1494450139647783053,427,1494450139703003333,,58632,0,0,0,56066,20730,36,39,0,0,156,1556,1926,1624,3,4,0,0,4081,4080,4047,4055
1494450139669428324,428,1494450139723259943,,58652,0,0,0,56129,20793,37,38,0,0,156,1555,1925,1624,3,5,0,0,4075,4087,4072,4076
1494450139691970705,429,1494450139743999840,,58672,0,0,0,56193,20856,35,37,0,0,156,1554,1908,1624,3,4,0,0,4074,4081,4070,4076
1494450139707482006,430,1494450139763229293,,58692,0,0,0,56257,20918,34,37,0,0,156,1556,1908,1624,3,4,0,0,4074,4084,4072,4069
1494450139727395898,431,1494450139782988741,,58712,0,0,0,56319,20980,35,37,0,0,156,1600,1908,1653,2,3,0,0,4072,4081,4082,4074
1494450139747850206,432,1494450139802988979,,58732,0,0,0,56378,21042,37,38,0,0,156,1600,1903,1653,3,4,0,0,4074,4082,4074,4079
1494450139771825482,433,1494450139823114674,,58752,0,0,0,56439,21101,39,39,0,0,156,1555,1903,1622,4,4,0,0,4070,4078,4082,4094
1494450139787082990,434,1494450139843137203,,58772,0,0,0,56502,21161,38,40,0,0,156,1555,1905,1626,4,5,0,0,4072,4075,4074,4092
1494450139812771037,435,1494450139868090063,,58792,0,0,0,56565,21223,37,40,0,0,156,1554,1905,1626,4,6,0,0,4064,4076,4072,4089
1494450139827807033,436,1494450139883007887,,58812,0,0,0,56630,21287,35,38,0,0,156,1556,1906,1626,3,5,0,0,4070,4072,4071,4081
1494450139848566724,437,1494450139903234873,,58832,0,0,0,56694,21352,34,36,0,0,156,1556,1906,1623,3,4,0,0,4067,4074,4077,4082
1494450139870920369,438,1494450139923809564,,58852,0,0,0,56758,21414,34,36,0,0,156,1532,1908,1621,2,3,0,0,4066,4073,4071,4083
1494450139891114669,439,1494450139943681886,,58872,0,0,0,56821,21475,35,37,0,0,156,1527,1908,1621,2,3,0,0,4070,4080,4072,4091
1494450139908183807,440,1494450139963119087,,58892,0,0,0,56881,21535,37,40,0,0,156,1528,1907,1623,2,4,0,0,4067,4074,4074,4090
1494450139927961307,441,1494450139983006992,,58912,0,0,0,56942,21594,38,41,0,0,156,1531,1904,1623,3,5,0,0,4066,4080,4077,4077
1494450139948368630,442,1494450140003070229,,58932,0,0,0,57004,21651,39,43,0,0,156,1540,1904,1623,4,7,0,0,4067,4076,4076,4084
1494450139967392728,443,1494450140023044842,,58952,0,0,0,57069,21711,36,43,0,0,156,1540,1904,1626,4,8,0,0,4069,4071,4070,4083
1494450139989824495,444,1494450140044186028,,58972,0,0,0,57136,21772,34,42,0,0,156,1533,1907,1626,3,8,0,0,4066,4070,4069,4083
1494450140009320929,445,1494450140063830435,,58992,0,0,0,57200,21830,33,42,0,0,156,1533,1907,1645,2,7,0,0,4072,4074,4065,4082
1494450140028610615,446,1494450140083900589,,59012,0,0,0,57261,21893,35,40,0,0,156,1533,1905,1647,2,7,0,0,4071,4071,4074,4088
1494450140048266648,447,1494450140103944618,,59032,0,0,0,57321,21957,38,39,0,0,156,1532,1904,1647,3,6,0,0,4076,4067,4063,4075
1494450140068295200,448,1494450140123940939,,59052,0,0,0,57385,22022,38,36,0,0,156,1532,1906,1646,3,4,0,0,4079,4073,4069,4078
1494450140090883340,449,1494450140143070309,,59072,0,0,0,57447,22084,38,36,0,0,156,1548,1906,1623,4,3,0,0,4080,4077,4062,4077
1494450140121447907,450,1494450140162917257,,59092,0,0,0,57509,22147,37,37,0,0,156,1614,1905,1622,4,3,0,0,4076,4077,4061,4067
1494450140129955859,451,1494450140184189316,,59112,0,0,0,57571,22211,38,37,0,0,156,1614,1904,1621,4,3,0,0,4075,4074,4061,4076
1494450140151354569,452,1494450140204516134,,59132,0,0,0,57634,22275,37,36,0,0,156,1554,1901,1603,4,3,0,0,4078,4079,4058,4072
1494450140169525073,453,1494450140224024043,,59152,0,0,0,57699,22339,36,36,0,0,156,1553,1904,1621,3,3,0,0,4073,4080,4059,4068
1494450140189342913,454,1494450140243888824,,59172,0,0,0,57764,22403,35,36,0,0,156,1553,1904,1621,3,3,0,0,4072,4080,4062,4075
1494450140209183085,455,1494450140263850895,,59192,0,0,0,57827,22467,35,36,0,0,156,1553,1903,1621,2,3,0,0,4073,4083,4073,4080
1494450140229879230,456,1494450140283879174,,59212,0,0,0,57890,22531,36,36,0,0,156,1552,1898,1626,3,3,0,0,4073,4078,4066,4065
1494450140249360578,457,1494450140303915661,,59232,0,0,0,57953,22593,37,37,0,0,156,1550,1883,1633,3,3,0,0,4075,4081,4071,4078
1494450140268367076,458,1494450140324010857,,59252,0,0,0,58016,22656,37,38,0,0,156,1553,1883,1633,3,3,0,0,4077,4077,4069,4067
1494450140289165322,459,1494450140343933928,,59272,0,0,0,58077,22718,38,39,0,0,156,1559,1882,1659,3,4,0,0,4075,4082,4081,4072
1494450140308039333,460,1494450140363847208,,59292,0,0,0,58139,22782,38,38,0,0,156,1559,1881,1659,4,3,0,0,4075,4081,4073,4074
1494450140328851999,461,1494450140383839446,,59312,0,0,0,58201,22846,39,37,0,0,156,1559,1881,1620,4,3,0,0,4074,4075,4074,4075
1494450140350256051,462,1494450140403921350,,59332,0,0,0,58267,22910,36,36,0,0,156,1551,1880,1621,3,3,0,0,4076,4081,4071,4082
1494450140371911895,463,1494450140424861787,,59352,0,0,0,58332,22975,35,36,0,0,156,1553,1880,1622,3,3,0,0,4073,4081,4073,4090
1494450140404949763,464,1494450140443837034,,59372,0,0,0,58395,23039,34,36,0,0,156,1554,1904,1623,3,3,0,0,4067,4072,4069,4083
1494450140423792220,465,1494450140463799397,,59392,0,0,0,58456,23103,37,36,0,0,156,1554,1904,1623,3,3,0,0,4069,4080,4072,4090
1494450140429237786,466,1494450140483977342,,59412,0,0,0,58520,23166,37,37,0,0,156,1557,1903,1623,3,3,0,0,4072,4074,4077,4095
1494450140449903796,467,1494450140504719573,,59432,0,0,0,58585,23228,37,38,0,0,156,1557,1903,1634,3,3,0,0,4071,4077,4067,4083
1494450140470630698,468,1494450140524863934,,59452,0,0,0,58648,23291,36,38,0,0,156,1555,1906,1634,3,3,0,0,4076,4069,4070,4089
1494450140488627841,469,1494450140543874972,,59472,0,0,0,58711,23355,36,38,0,0,156,1555,1906,1628,3,3,0,0,4077,4069,4062,4072
1494450140508934396,470,1494450140563910543,,59492,0,0,0,58773,23416,38,38,0,0,156,1556,1903,1628,3,4,0,0,4077,4078,4066,4079
1494450140528159399,471,1494450140583814323,,59512,0,0,0,58838,23479,37,39,0,0,156,1556,1903,1628,3,4,0,0,4073,4076,4067,4074
1494450140548137062,472,1494450140604001309,,59532,0,0,0,58902,23543,36,39,0,0,156,1558,1905,1624,3,4,0,0,4078,4084,4063,4049
1494450140572921431,473,1494450140626235943,,59552,0,0,0,58965,23608,36,37,0,0,156,1558,1905,1624,3,4,0,0,4077,4084,4069,4075
1494450140591703960,474,1494450140643885202,,59572,0,0,0,59028,23669,37,38,0,0,156,1552,1904,1624,3,4,0,0,4078,4080,4067,4068
1494450140611116034,475,1494450140664170854,,59592,0,0,0,59092,23730,37,39,0,0,156,1552,1904,1625,3,5,0,0,4076,4084,4068,4068
1494450140627640533,476,1494450140683917594,,59612,0,0,0,59153,23790,38,42,0,0,156,1552,1904,1625,4,5,0,0,4075,4082,4079,4072
1494450140649130042,477,1494450140704270412,,59632,0,0,0,59217,23854,37,40,0,0,156,1531,1884,1622,4,5,0,0,4070,4079,4080,4066
1494450140669955130,478,1494450140723907111,,59652,0,0,0,59281,23919,37,38,0,0,156,1532,1906,1622,3,5,0,0,4070,4078,4074,4079
1494450140689309590,479,1494450140743762558,,59672,0,0,0,59347,23985,35,36,0,0,156,1532,1906,1623,3,3,0,0,4078,4079,4075,4077
1494450140708201809,480,1494450140763751879,,59692,0,0,0,59412,24048,35,36,0,0,156,1532,1902,1623,2,3,0,0,4077,4078,4075,4091
1494450140728239838,481,1494450140783714951,,59712,0,0,0,59477,24111,34,37,0,0,156,1527,1904,1624,2,3,0,0,4067,4074,4073,4089
1494450140749154904,482,1494450140804948261,,59732,0,0,0,59539,24172,36,39,0,0,156,1530,1905,1628,3,4,0,0,4068,4073,4071,4081
1494450140769580399,483,1494450140825127872,,59752,0,0,0,59601,24229,38,42,0,0,156,1532,1906,1628,3,6,0,0,4067,4076,4070,4085
1494450140790485742,484,1494450140844763904,,59772,0,0,0,59667,24290,37,43,0,0,156,1532,1906,1627,3,7,0,0,4068,4071,4072,4081
1494450140814126516,485,1494450140864725642,,59792,0,0,0,59733,24353,35,43,0,0,156,1532,1906,1622,3,7,0,0,4069,4069,4065,4078
1494450140835329040,486,1494450140885566039,,59812,0,0,0,59799,24415,33,40,0,0,156,1531,1906,1622,2,6,0,0,4072,4068,4068,4080
1494450140848410511,487,1494450140903756460,,59832,0,0,0,59861,24476,35,40,0,0,156,1531,1906,1622,2,5,0,0,4082,4067,4061,4072
1494450140872100320,488,1494450140924991228,,59852,0,0,0,59923,24539,37,40,0,0,156,1539,1904,1623,3,5,0,0,4081,4075,4060,4076
1494450140889955216,489,1494450140945856249,,59872,0,0,0,59986,24604,39,39,0,0,156,1553,1906,1623,3,4,0,0,4078,4073,4059,4074
1494450140908868306,490,1494450140964835163,,59892,0,0,0,60049,24669,38,37,0,0,156,1556,1906,1623,3,4,0,0,4071,4081,4065,4073
1494450140929002476,491,1494450140984878483,,59912,0,0,0,60112,24735,38,36,0,0,156,1556,1907,1622,3,3,0,0,4081,4085,4076,4077
1494450140962386279,492,1494450141004883346,,59932,0,0,0,60176,24800,37,36,0,0,156,1553,1907,1622,3,3,0,0,4074,4081,4082,4087
1494450140992341981,493,1494450141024766627,,59952,0,0,0,60242,24866,36,35,0,0,156,1554,1903,1624,3,2,0,0,4076,4075,4076,4078
1494450140992356602,494,1494450141045024279,,59972,0,0,0,60308,24931,35,36,0,0,156,1554,1901,1628,3,2,0,0,4069,4078,4076,4091
1494450141009405484,495,1494450141064870559,,59992,0,0,0,60373,24995,34,36,0,0,156,1551,1905,1628,2,3,0,0,4075,4076,4075,4089
1494450141029564587,496,1494450141084863464,,60012,0,0,0,60435,25058,36,38,0,0,156,1553,1905,1625,2,3,0,0,4070,4080,4071,4087
1494450141049631823,497,1494450141104654287,,60032,0,0,0,60499,25122,37,38,0,0,156,1559,1905,1625,3,3,0,0,4069,4079,4070,4079
1494450141070081880,498,1494450141125423268,,60052,0,0,0,60564,25186,37,38,0,0,156,1559,1902,1625,3,3,0,0,4066,4080,4078,4095
1494450141095112441,499,1494450141145862918,,60072,0,0,0,60629,25252,36,37,0,0,156,1554,1902,1625,3,3,0,0,4064,4073,4071,4088
1494450141111587345,500,1494450141165736407,,60092,0,0,0,60692,25317,36,36,0,0,156,1554,1904,1660,3,3,0,0,4072,4071,4070,4082
1494450141131627325,501,1494450141186580846,,60112,0,0,0,60755,25381,37,36,0,0,156,1558,1905,1660,3,3,0,0,4065,4078,4072,4080
1494450141152797634,502,1494450141205385011,,60132,0,0,0,60820,25445,37,37,0,0,156,1558,1905,1658,3,3,0,0,4072,4076,4066,4083
1494450141170580838,503,1494450141225490873,,60152,0,0,0,60887,25510,35,37,0,0,156,1558,1904,1622,3,3,0,0,4067,4071,4070,4086
1494450141193640861,504,1494450141245903315,,60172,0,0,0,60951,25576,35,36,0,0,156,1562,1903,1623,2,3,0,0,4069,4069,4067,4075
1494450141214067082,505,1494450141264639731,,60192,0,0,0,61014,25642,36,36,0,0,156,1562,1903,1625,2,2,0,0,4074,4076,4065,4078
1494450141228209982,506,1494450141284606594,,60212,0,0,0,61076,25704,38,37,0,0,156,1551,1903,1633,3,2,0,0,4079,4076,4072,4085
1494450141248806585,507,1494450141304679206,,60232,0,0,0,61141,25767,38,39,0,0,156,1552,1881,1633,3,3,0,0,4073,4071,4061,4076
1494450141270173816,508,1494450141324724443,,60252,0,0,0,61206,25831,37,39,0,0,156,1552,1881,1633,3,3,0,0,4075,4074,4060,4077
1494450141291666774,509,1494450141345493716,,60272,0,0,0,61269,25897,37,38,0,0,156,1576,1905,1625,3,3,0,0,4076,4086,4061,4075
1494450141317344248,510,1494450141371173903,,60292,0,0,0,61335,25962,36,37,0,0,156,1577,1905,1625,3,3,0,0,4078,4077,4064,4069
1494450141329517361,511,1494450141384941154,,60312,0,0,0,61399,26025,37,37,0,0,156,1577,1902,1635,3,4,0,0,4072,4081,4067,4071
1494450141350189955,512,1494450141404872268,,60332,0,0,0,61464,26089,36,38,0,0,156,1570,1881,1635,3,3,0,0,4080,4080,4071,4076
1494450141370080516,513,1494450141424668174,,60352,0,0,0,61526,26153,38,39,0,0,156,1574,1882,1622,3,3,0,0,4074,4079,4071,4070
1494450141389148770,514,1494450141445236323,,60372,0,0,0,61588,26216,39,39,0,0,156,1574,1882,1622,4,4,0,0,4077,4078,4070,4067
1494450141410431535,515,1494450141464743107,,60392,0,0,0,61652,26276,39,41,0,0,156,1561,1881,1623,4,5,0,0,4078,4079,4078,4078
1494450141432502645,516,1494450141486750994,,60412,0,0,0,61717,26337,38,42,0,0,156,1561,1907,1623,4,5,0,0,4076,4076,4076,4074
1494450141450437536,517,1494450141505225537,,60432,0,0,0,61782,26402,36,41,0,0,156,1556,1907,1625,3,5,0,0,4070,4078,4074,4067
1494450141470841004,518,1494450141525483022,,60452,0,0,0,61847,26468,36,38,0,0,156,1554,1905,1625,3,5,0,0,4069,4076,4075,4090
1494450141490583082,519,1494450141545336469,,60472,0,0,0,61912,26533,36,37,0,0,156,1554,1905,1624,3,4,0,0,4071,4077,4080,4090
1494450141512571854,520,1494450141566490572,,60492,0,0,0,61978,26598,17,18,0,0,156,1553,1905,1625,2,2,0,0,4065,4070,4073,4082
1494450141532782376,521,1494450141586726141,,60512,0,0,0,62035,26653,21,23,0,0,156,1554,1904,1625,0,1,0,0,4067,4072,4077,4085
1494450141549663517,522,1494450141605805137,,60532,0,0,0,62088,26706,27,29,0,0,156,1554,1904,1624,0,1,0,0,4070,4068,4072,4081
1494450141570361077,523,1494450141625743125,,60552,0,0,0,62143,26761,32,34,0,0,156,1559,1904,1621,1,2,0,0,4070,4075,4071,4075
1494450141590954317,524,1494450141645728363,,60572,0,0,0,62198,26815,33,34,0,0,156,1559,1907,1621,2,3,0,0,4065,4071,4068,4083
1494450141610499261,525,1494450141665556602,,60592,0,0,0,62254,26865,31,36,0,0,156,1556,1907,1621,2,4,0,0,4068,4066,4063,4061
1494450141631033695,526,1494450141686136668,,60612,0,0,0,62310,26918,31,37,0,0,156,1556,1905,1621,2,4,0,0,4071,4074,4068,4072
1494450141654425455,527,1494450141706522819,,60632,0,0,0,62365,26968,31,39,0,0,156,1555,1903,1621,2,5,0,0,4069,4068,4071,4070
1494450141681237338,528,1494450141733543827,,60652,0,0,0,62418,27017,32,39,0,0,156,1555,1903,1622,2,7,0,0,4074,4068,4067,4078
1494450141690351249,529,1494450141745667469,,60672,0,0,0,62469,27070,35,39,0,0,156,1555,1901,1622,3,7,0,0,4071,4072,4066,4073
1494450141712010782,530,1494450141765777789,,60692,0,0,0,62519,27121,19,20,0,0,156,1553,1899,1622,1,4,0,0,4071,4068,4075,4073
1494450141732078605,531,1494450141787701551,,60712,0,0,0,62562,27165,23,23,0,0,156,1550,1880,1600,1,2,0,0,4075,4060,4064,4071
1494450141751278242,532,1494450141806037429,,60732,0,0,0,62606,27209,27,27,0,0,156,1552,1901,1600,1,1,0,0,4077,4073,4070,4076
1494450141770574260,533,1494450141825660462,,60752,0,0,0,62653,27257,28,28,0,0,156,1572,1905,1600,2,1,0,0,4072,4070,4057,4065
1494450141792415414,534,1494450141846447901,,60772,0,0,0,62701,27307,26,26,0,0,156,1576,1907,1601,1,1,0,0,4081,4080,4062,4060
1494450141812450304,535,1494450141866377639,,60792,0,0,0,62747,27353,25,25,0,0,156,1576,1907,1601,1,1,0,0,4074,4082,4064,4063
1494450141832453308,536,1494450141886338502,,60812,0,0,0,62791,27398,26,26,0,0,156,1576,1903,1616,1,1,0,0,4074,4081,4069,4063
1494450141852478897,537,1494450141906325282,,60832,0,0,0,62836,27442,28,29,0,0,156,1569,1903,1621,1,1,0,0,4075,4081,4066,4062
1494450141870689565,538,1494450141926940597,,60852,0,0,0,62881,27488,28,29,0,0,156,1555,1902,1621,2,2,0,0,4074,4073,4071,4062
1494450141891243770,539,1494450141946567422,,60872,0,0,0,62927,27532,27,29,0,0,156,1560,1911,1625,2,3,0,0,4071,4073,4068,4057
1494450141910113960,540,1494450141965512210,,60892,0,0,0,62971,27578,9,10,0,0,156,1560,1911,1625,2,2,0,0,4072,4075,4071,4062
1494450141930880279,541,1494450141985661155,,60912,0,0,0,63009,27619,13,12,0,0,156,1560,1905,1625,1,1,0,0,4072,4082,4074,4062
1494450141950480200,542,1494450142005531561,,60932,0,0,0,63040,27651,20,18,0,0,156,1555,1907,1618,0,0,0,0,4069,4075,4076,4064
1494450141971559409,543,1494450142026696747,,60952,0,0,0,63075,27684,24,24,0,0,156,1555,1907,1618,1,1,0,0,4075,4080,4075,4073
1494450141990717509,544,1494450142046384404,,60972,0,0,0,63113,27723,24,25,0,0,156,1555,1905,1621,1,1,0,0,4071,4073,4080,4072
1494450142010428095,545,1494450142065565566,,60992,0,0,0,63152,27763,20,21,0,0,156,1554,1910,1621,1,1,0,0,4072,4077,4086,4095
1494450142032294499,546,1494450142085630553,,61012,0,0,0,63188,27800,20,19,0,0,156,1553,1910,1624,1,0,0,0,4072,4077,4079,4085
1494450142050377836,547,1494450142105749040,,61032,0,0,0,63221,27835,22,21,0,0,156,1553,1910,1624,1,0,0,0,4075,4078,4080,4086
1494450142076981677,548,1494450142127818426,,61052,0,0,0,63255,27868,25,25,0,0,156,1562,1905,1624,2,1,0,0,4068,4071,4074,4083
1494450142092274009,549,1494450142147344876,,61072,0,0,0,63288,27901,26,27,0,0,156,1562,1907,1622,2,2,0,0,4080,4072,4076,4084
1494450142110467322,550,1494450142166443039,,61092,0,0,0,63321,27936,26,27,0,0,156,1562,1907,1622,2,3,0,0,4074,4071,4080,4085
1494450142136220233,551,1494450142186359860,,61112,0,0,0,63357,27972,25,25,0,0,156,1559,1906,1622,2,3,0,0,4071,4070,4075,4082
1494450142150868696,552,1494450142206369890,,61132,0,0,0,63394,28010,23,23,0,0,156,1557,1903,1622,2,2,0,0,4076,4075,4068,4079
1494450142169757357,553,1494450142225701300,,61152,0,0,0,63429,28045,22,23,0,0,156,1557,1906,1622,1,2,0,0,4069,4072,4078,4080
1494450142191085596,554,1494450142245723871,,61172,0,0,0,63463,28079,23,24,0,0,156,1573,1906,1623,1,2,0,0,4069,4074,4069,4081
1494450142210109374,555,1494450142265566861,,61192,0,0,0,63497,28114,25,25,0,0,156,1577,1906,1623,1,2,0,0,4067,4072,4082,4079
1494450142231079499,556,1494450142285528057,,61212,0,0,0,63533,28151,24,24,0,0,156,1577,1904,1622,2,2,0,0,4065,4069,4071,4080
1494450142254573373,557,1494450142308057939,,61232,0,0,0,63569,28188,23,23,0,0,156,1551,1927,1623,1,2,0,0,4070,4070,4076,4077
1494450142272022333,558,1494450142327034394,,61252,0,0,0,63605,28224,22,22,0,0,156,1554,1927,1627,1,1,0,0,4071,4070,4077,4075
1494450142292127141,559,1494450142347543752,,61272,0,0,0,63640,28259,23,23,0,0,156,1554,1904,1627,1,1,0,0,4065,4067,4068,4073
1494450142310514350,560,1494450142366473833,,61292,0,0,0,63673,28293,43,43,0,0,156,1554,1902,1627,2,1,0,0,4069,4075,4077,4079
1494450142332218501,561,1494450142386322989,,61312,0,0,0,63719,28337,38,39,0,0,156,1553,1906,1624,7,8,0,0,4069,4068,4062,4068
1494450142350339017,562,1494450142406420351,,61332,0,0,0,63765,28383,33,34,0,0,156,1553,1906,1656,6,7,0,0,4068,4072,4076,4087
1494450142370492680,563,1494450142426559088,,61352,0,0,0,63813,28431,25,27,0,0,156,1554,1906,1656,4,5,0,0,4065,4073,4068,4074
1494450142393078139,564,1494450142448316143,,61372,0,0,0,63860,28478,25,26,0,0,156,1554,1880,1619,2,3,0,0,4069,4069,4074,4079
1494450142416138105,565,1494450142468196549,,61392,0,0,0,63904,28521,26,27,0,0,156,1530,1880,1618,2,2,0,0,4069,4076,4072,4085
1494450142434505641,566,1494450142487575459,,61412,0,0,0,63947,28561,28,31,0,0,156,1533,1861,1600,2,3,0,0,4065,4068,4075,4073
1494450142457507721,567,1494450142507534613,,61432,0,0,0,63991,28603,30,34,0,0,156,1533,1857,1620,2,5,0,0,4069,4069,4077,4075
1494450142471464705,568,1494450142526523944,,61452,0,0,0,64033,28647,31,33,0,0,156,1552,1902,1620,3,5,0,0,4071,4072,4070,4066
1494450142490714704,569,1494450142546668138,,61472,0,0,0,64077,28693,30,30,0,0,156,1555,1905,1645,3,4,0,0,4075,4067,4067,4075
1494450142510322476,570,1494450142566378879,,61492,0,0,0,64126,28743,46,45,0,0,156,1555,1906,1648,5,5,0,0,4071,4070,4061,4076
1494450142536907729,571,1494450142588941760,,61512,0,0,0,64186,28801,38,38,0,0,156,1554,1907,1650,7,6,0,0,4079,4068,4061,4076
1494450142553795489,572,1494450142607022057,,61532,0,0,0,64243,28854,32,35,0,0,156,1554,1907,1650,5,6,0,0,4081,4078,4070,4082
1494450142572719577,573,1494450142627036420,,61552,0,0,0,64297,28908,29,33,0,0,156,1531,1907,1635,3,4,0,0,4077,4067,4065,4070
1494450142592699479,574,1494450142646930367,,61572,0,0,0,64352,28961,32,36,0,0,156,1531,1904,1626,2,4,0,0,4078,4068,4063,4069
1494450142613541113,575,1494450142667089270,,61592,0,0,0,64407,29012,33,37,0,0,156,1510,1896,1622,2,5,0,0,4077,4073,4066,4082
1494450142635491806,576,1494450142688604744,,61612,0,0,0,64461,29064,33,38,0,0,156,1510,1896,1622,3,5,0,0,4075,4075,4069,4074
1494450142651240771,577,1494450142706252211,,61632,0,0,0,64513,29119,34,37,0,0,156,1533,1905,1656,3,5,0,0,4077,4074,4068,4086
1494450142670635372,578,1494450142726294199,,61652,0,0,0,64568,29176,34,34,0,0,156,1533,1923,1656,3,4,0,0,4080,4071,4063,4077
1494450142690879711,579,1494450142746330728,,61672,0,0,0,64625,29233,33,31,0,0,156,1533,1928,1646,3,3,0,0,4078,4080,4062,4079
1494450142710840791,580,1494450142766234592,,61692,0,0,0,64683,29290,48,49,0,0,156,1537,1930,1624,5,5,0,0,4070,4067,4052,4059
1494450142730843139,581,1494450142786290746,,61712,0,0,0,64749,29355,43,45,0,0,156,1537,1930,1646,7,8,0,0,4072,4073,4060,4075
1494450142751481005,582,1494450142807298016,,61732,0,0,0,64815,29413,39,45,0,0,156,1537,1914,1649,6,10,0,0,4074,4073,4060,4075
1494450142771169820,583,1494450142826411637,,61752,0,0,0,64881,29475,35,43,0,0,156,1530,1914,1649,4,8,0,0,4075,4079,4062,4076
1494450142790837825,584,1494450142846534790,,61772,0,0,0,64947,29535,35,45,0,0,156,1530,1914,1645,3,8,0,0,4078,4080,4061,4070
1494450142813739834,585,1494450142868509219,,61792,0,0,0,65008,29595,38,44,0,0,156,1531,1904,1649,3,9,0,0,4078,4089,4065,4083
1494450142831979682,586,1494450142887643881,,61812,0,0,0,65072,29659,39,43,0,0,156,1534,1904,1649,4,9,0,0,4080,4084,4063,4071
1494450142854418234,587,1494450142908009074,,61832,0,0,0,65139,29726,38,40,0,0,156,1534,1907,1648,4,7,0,0,4073,4082,4072,4070
1494450142872535115,588,1494450142927908896,,61852,0,0,0,65205,29795,36,36,0,0,156,1558,1907,1625,3,5,0,0,4076,4078,4068,4070
1494450142891458110,589,1494450142947341806,,61872,0,0,0,65268,29862,36,34,0,0,156,1558,1907,1625,3,3,0,0,4077,4083,4081,4095
1494450142911181954,590,1494450142967264044,,61892,0,0,0,65332,29927,38,35,0,0,156,1558,1885,1623,3,2,0,0,4071,4079,4081,4075
1494450142931944982,591,1494450142987219824,,61912,0,0,0,65395,29990,39,38,0,0,156,1555,1885,1622,4,2,0,0,4070,4081,4077,4089
1494450142955023935,592,1494450143007195104,,61932,0,0,0,65459,30055,39,39,0,0,156,1555,1903,1624,4,3,0,0,4073,4073,4073,4085
1494450142975215742,593,1494450143028472747,,61952,0,0,0,65526,30122,37,38,0,0,156,1555,1903,1624,3,3,0,0,4069,4080,4072,4088
