,%time,field.header.seq,field.header.stamp,field.header.frame_id,field.child_frame_id,field.pose.pose.position.x,field.pose.pose.position.y,field.pose.pose.position.z,field.pose.pose.orientation.x,field.pose.pose.orientation.y,field.pose.pose.orientation.z,field.pose.pose.orientation.w,field.pose.covariance0,field.pose.covariance1,field.pose.covariance2,field.pose.covariance3,field.pose.covariance4,field.pose.covariance5,field.pose.covariance6,field.pose.covariance7,field.pose.covariance8,field.pose.covariance9,field.pose.covariance10,field.pose.covariance11,field.pose.covariance12,field.pose.covariance13,field.pose.covariance14,field.pose.covariance15,field.pose.covariance16,field.pose.covariance17,field.pose.covariance18,field.pose.covariance19,field.pose.covariance20,field.pose.covariance21,field.pose.covariance22,field.pose.covariance23,field.pose.covariance24,field.pose.covariance25,field.pose.covariance26,field.pose.covariance27,field.pose.covariance28,field.pose.covariance29,field.pose.covariance30,field.pose.covariance31,field.pose.covariance32,field.pose.covariance33,field.pose.covariance34,field.pose.covariance35,field.twist.twist.linear.x,field.twist.twist.linear.y,field.twist.twist.linear.z,field.twist.twist.angular.x,field.twist.twist.angular.y,field.twist.twist.angular.z,field.twist.covariance0,field.twist.covariance1,field.twist.covariance2,field.twist.covariance3,field.twist.covariance4,field.twist.covariance5,field.twist.covariance6,field.twist.covariance7,field.twist.covariance8,field.twist.covariance9,field.twist.covariance10,field.twist.covariance11,field.twist.covariance12,field.twist.covariance13,field.twist.covariance14,field.twist.covariance15,field.twist.covariance16,field.twist.covariance17,field.twist.covariance18,field.twist.covariance19,field.twist.covariance20,field.twist.covariance21,field.twist.covariance22,field.twist.covariance23,field.twist.covariance24,field.twist.covariance25,field.twist.covariance26,field.twist.covariance27,field.twist.covariance28,field.twist.covariance29,field.twist.covariance30,field.twist.covariance31,field.twist.covariance32,field.twist.covariance33,field.twist.covariance34,field.twist.covariance35,field.linear.x,field.linear.y,field.linear.z,field.angular.x,field.angular.y,field.angular.z
0,1494450135450678608,370.0,1.49445013348e+18,odom,base_footprint,0.0,0.0,0.0,0.0,0.0,0.0,1.0,0.1,0.0,0.0,0.0,0.0,0.0,0.0,0.1,0.0,0.0,0.0,0.0,0.0,0.0,1.79769313486e+308,0.0,0.0,0.0,0.0,0.0,0.0,1.79769313486e+308,0.0,0.0,0.0,0.0,0.0,0.0,1.79769313486e+308,0.0,0.0,0.0,0.0,0.0,0.0,0.05,0.0,0.0,0.0,0.0,0.0,0.0,0.0,0.0,0.0,0.0,0.0,0.0,0.0,0.0,0.0,0.0,0.0,0.0,0.0,0.0,0.0,0.0,0.0,0.0,0.0,0.0,0.0,0.0,0.0,0.0,0.0,0.0,0.0,0.0,0.0,0.0,0.0,0.0,0.0,0.0,0.0,0.0,,,,,,
1,1494450135450690310,371.0,1.4944501335e+18,odom,base_footprint,0.0,0.0,0.0,0.0,0.0,0.0,1.0,0.1,0.0,0.0,0.0,0.0,0.0,0.0,0.1,0.0,0.0,0.0,0.0,0.0,0.0,1.79769313486e+308,0.0,0.0,0.0,0.0,0.0,0.0,1.79769313486e+308,0.0,0.0,0.0,0.0,0.0,0.0,1.79769313486e+308,0.0,0.0,0.0,0.0,0.0,0.0,0.05,0.0,0.0,0.0,0.0,0.0,0.0,0.0,0.0,0.0,0.0,0.0,0.0,0.0,0.0,0.0,0.0,0.0,0.0,0.0,0.0,0.0,0.0,0.0,0.0,0.0,0.0,0.0,0.0,0.0,0.0,0.0,0.0,0.0,0.0,0.0,0.0,0.0,0.0,0.0,0.0,0.0,0.0,,,,,,
2,1494450135450705409,372.0,1.49445013352e+18,odom,base_footprint,0.0,0.0,0.0,0.0,0.0,0.0,1.0,0.1,0.0,0.0,0.0,0.0,0.0,0.0,0.1,0.0,0.0,0.0,0.0,0.0,0.0,1.79769313486e+308,0.0,0.0,0.0,0.0,0.0,0.0,1.79769313486e+308,0.0,0.0,0.0,0.0,0.0,0.0,1.79769313486e+308,0.0,0.0,0.0,0.0,0.0,0.0,0.05,0.0,0.0,0.0,0.0,0.0,0.0,0.0,0.0,0.0,0.0,0.0,0.0,0.0,0.0,0.0,0.0,0.0,0.0,0.0,0.0,0.0,0.0,0.0,0.0,0.0,0.0,0.0,0.0,0.0,0.0,0.0,0.0,0.0,0.0,0.0,0.0,0.0,0.0,0.0,0.0,0.0,0.0,,,,,,
3,1494450135450720562,373.0,1.49445013354e+18,odom,base_footprint,0.0,0.0,0.0,0.0,0.0,0.0,1.0,0.1,0.0,0.0,0.0,0.0,0.0,0.0,0.1,0.0,0.0,0.0,0.0,0.0,0.0,1.79769313486e+308,0.0,0.0,0.0,0.0,0.0,0.0,1.79769313486e+308,0.0,0.0,0.0,0.0,0.0,0.0,1.79769313486e+308,0.0,0.0,0.0,0.0,0.0,0.0,0.05,0.0,0.0,0.0,0.0,0.0,0.0,0.0,0.0,0.0,0.0,0.0,0.0,0.0,0.0,0.0,0.0,0.0,0.0,0.0,0.0,0.0,0.0,0.0,0.0,0.0,0.0,0.0,0.0,0.0,0.0,0.0,0.0,0.0,0.0,0.0,0.0,0.0,0.0,0.0,0.0,0.0,0.0,,,,,,
4,1494450135450736632,374.0,1.49445013356e+18,odom,base_footprint,0.0,0.0,0.0,0.0,0.0,0.0,1.0,0.1,0.0,0.0,0.0,0.0,0.0,0.0,0.1,0.0,0.0,0.0,0.0,0.0,0.0,1.79769313486e+308,0.0,0.0,0.0,0.0,0.0,0.0,1.79769313486e+308,0.0,0.0,0.0,0.0,0.0,0.0,1.79769313486e+308,0.0,0.0,0.0,0.0,0.0,0.0,0.05,0.0,0.0,0.0,0.0,0.0,0.0,0.0,0.0,0.0,0.0,0.0,0.0,0.0,0.0,0.0,0.0,0.0,0.0,0.0,0.0,0.0,0.0,0.0,0.0,0.0,0.0,0.0,0.0,0.0,0.0,0.0,0.0,0.0,0.0,0.0,0.0,0.0,0.0,0.0,0.0,0.0,0.0,,,,,,
5,1494450135450766506,375.0,1.49445013358e+18,odom,base_footprint,0.0,0.0,0.0,0.0,0.0,0.0,1.0,0.1,0.0,0.0,0.0,0.0,0.0,0.0,0.1,0.0,0.0,0.0,0.0,0.0,0.0,1.79769313486e+308,0.0,0.0,0.0,0.0,0.0,0.0,1.79769313486e+308,0.0,0.0,0.0,0.0,0.0,0.0,1.79769313486e+308,0.0,0.0,0.0,0.0,0.0,0.0,0.05,0.0,0.0,0.0,0.0,0.0,0.0,0.0,0.0,0.0,0.0,0.0,0.0,0.0,0.0,0.0,0.0,0.0,0.0,0.0,0.0,0.0,0.0,0.0,0.0,0.0,0.0,0.0,0.0,0.0,0.0,0.0,0.0,0.0,0.0,0.0,0.0,0.0,0.0,0.0,0.0,0.0,0.0,,,,,,
6,1494450135450778862,376.0,1.4944501336e+18,odom,base_footprint,0.0,0.0,0.0,0.0,0.0,0.0,1.0,0.1,0.0,0.0,0.0,0.0,0.0,0.0,0.1,0.0,0.0,0.0,0.0,0.0,0.0,1.79769313486e+308,0.0,0.0,0.0,0.0,0.0,0.0,1.79769313486e+308,0.0,0.0,0.0,0.0,0.0,0.0,1.79769313486e+308,0.0,0.0,0.0,0.0,0.0,0.0,0.05,0.0,0.0,0.0,0.0,0.0,0.0,0.0,0.0,0.0,0.0,0.0,0.0,0.0,0.0,0.0,0.0,0.0,0.0,0.0,0.0,0.0,0.0,0.0,0.0,0.0,0.0,0.0,0.0,0.0,0.0,0.0,0.0,0.0,0.0,0.0,0.0,0.0,0.0,0.0,0.0,0.0,0.0,,,,,,
7,1494450135450787995,377.0,1.49445013362e+18,odom,base_footprint,0.0,0.0,0.0,0.0,0.0,0.0,1.0,0.1,0.0,0.0,0.0,0.0,0.0,0.0,0.1,0.0,0.0,0.0,0.0,0.0,0.0,1.79769313486e+308,0.0,0.0,0.0,0.0,0.0,0.0,1.79769313486e+308,0.0,0.0,0.0,0.0,0.0,0.0,1.79769313486e+308,0.0,0.0,0.0,0.0,0.0,0.0,0.05,0.0,0.0,0.0,0.0,0.0,0.0,0.0,0.0,0.0,0.0,0.0,0.0,0.0,0.0,0.0,0.0,0.0,0.0,0.0,0.0,0.0,0.0,0.0,0.0,0.0,0.0,0.0,0.0,0.0,0.0,0.0,0.0,0.0,0.0,0.0,0.0,0.0,0.0,0.0,0.0,0.0,0.0,,,,,,
8,1494450135450822632,378.0,1.49445013364e+18,odom,base_footprint,0.0,0.0,0.0,0.0,0.0,0.0,1.0,0.1,0.0,0.0,0.0,0.0,0.0,0.0,0.1,0.0,0.0,0.0,0.0,0.0,0.0,1.79769313486e+308,0.0,0.0,0.0,0.0,0.0,0.0,1.79769313486e+308,0.0,0.0,0.0,0.0,0.0,0.0,1.79769313486e+308,0.0,0.0,0.0,0.0,0.0,0.0,0.05,0.0,0.0,0.0,0.0,0.0,0.0,0.0,0.0,0.0,0.0,0.0,0.0,0.0,0.0,0.0,0.0,0.0,0.0,0.0,0.0,0.0,0.0,0.0,0.0,0.0,0.0,0.0,0.0,0.0,0.0,0.0,0.0,0.0,0.0,0.0,0.0,0.0,0.0,0.0,0.0,0.0,0.0,,,,,,
9,1494450135450830310,379.0,1.49445013366e+18,odom,base_footprint,0.0,0.0,0.0,0.0,0.0,0.0,1.0,0.1,0.0,0.0,0.0,0.0,0.0,0.0,0.1,0.0,0.0,0.0,0.0,0.0,0.0,1.79769313486e+308,0.0,0.0,0.0,0.0,0.0,0.0,1.79769313486e+308,0.0,0.0,0.0,0.0,0.0,0.0,1.79769313486e+308,0.0,0.0,0.0,0.0,0.0,0.0,0.05,0.0,0.0,0.0,0.0,0.0,0.0,0.0,0.0,0.0,0.0,0.0,0.0,0.0,0.0,0.0,0.0,0.0,0.0,0.0,0.0,0.0,0.0,0.0,0.0,0.0,0.0,0.0,0.0,0.0,0.0,0.0,0.0,0.0,0.0,0.0,0.0,0.0,0.0,0.0,0.0,0.0,0.0,,,,,,
10,1494450135450838312,380.0,1.49445013368e+18,odom,base_footprint,0.0,0.0,0.0,0.0,0.0,0.0,1.0,0.1,0.0,0.0,0.0,0.0,0.0,0.0,0.1,0.0,0.0,0.0,0.0,0.0,0.0,1.79769313486e+308,0.0,0.0,0.0,0.0,0.0,0.0,1.79769313486e+308,0.0,0.0,0.0,0.0,0.0,0.0,1.79769313486e+308,0.0,0.0,0.0,0.0,0.0,0.0,0.05,0.0,0.0,0.0,0.0,0.0,0.0,0.0,0.0,0.0,0.0,0.0,0.0,0.0,0.0,0.0,0.0,0.0,0.0,0.0,0.0,0.0,0.0,0.0,0.0,0.0,0.0,0.0,0.0,0.0,0.0,0.0,0.0,0.0,0.0,0.0,0.0,0.0,0.0,0.0,0.0,0.0,0.0,,,,,,
11,1494450135450930985,381.0,1.4944501337e+18,odom,base_footprint,0.0,0.0,0.0,0.0,0.0,0.0,1.0,0.1,0.0,0.0,0.0,0.0,0.0,0.0,0.1,0.0,0.0,0.0,0.0,0.0,0.0,1.79769313486e+308,0.0,0.0,0.0,0.0,0.0,0.0,1.79769313486e+308,0.0,0.0,0.0,0.0,0.0,0.0,1.79769313486e+308,0.0,0.0,0.0,0.0,0.0,0.0,0.05,0.0,0.0,0.0,0.0,0.0,0.0,0.0,0.0,0.0,0.0,0.0,0.0,0.0,0.0,0.0,0.0,0.0,0.0,0.0,0.0,0.0,0.0,0.0,0.0,0.0,0.0,0.0,0.0,0.0,0.0,0.0,0.0,0.0,0.0,0.0,0.0,0.0,0.0,0.0,0.0,0.0,0.0,,,,,,
12,1494450135450998272,382.0,1.49445013372e+18,odom,base_footprint,0.0,0.0,0.0,0.0,0.0,0.0,1.0,0.1,0.0,0.0,0.0,0.0,0.0,0.0,0.1,0.0,0.0,0.0,0.0,0.0,0.0,1.79769313486e+308,0.0,0.0,0.0,0.0,0.0,0.0,1.79769313486e+308,0.0,0.0,0.0,0.0,0.0,0.0,1.79769313486e+308,0.0,0.0,0.0,0.0,0.0,0.0,0.05,0.0,0.0,0.0,0.0,0.0,0.0,0.0,0.0,0.0,0.0,0.0,0.0,0.0,0.0,0.0,0.0,0.0,0.0,0.0,0.0,0.0,0.0,0.0,0.0,0.0,0.0,0.0,0.0,0.0,0.0,0.0,0.0,0.0,0.0,0.0,0.0,0.0,0.0,0.0,0.0,0.0,0.0,,,,,,
13,1494450135451008427,383.0,1.49445013374e+18,odom,base_footprint,0.0,0.0,0.0,0.0,0.0,0.0,1.0,0.1,0.0,0.0,0.0,0.0,0.0,0.0,0.1,0.0,0.0,0.0,0.0,0.0,0.0,1.79769313486e+308,0.0,0.0,0.0,0.0,0.0,0.0,1.79769313486e+308,0.0,0.0,0.0,0.0,0.0,0.0,1.79769313486e+308,0.0,0.0,0.0,0.0,0.0,0.0,0.05,0.0,0.0,0.0,0.0,0.0,0.0,0.0,0.0,0.0,0.0,0.0,0.0,0.0,0.0,0.0,0.0,0.0,0.0,0.0,0.0,0.0,0.0,0.0,0.0,0.0,0.0,0.0,0.0,0.0,0.0,0.0,0.0,0.0,0.0,0.0,0.0,0.0,0.0,0.0,0.0,0.0,0.0,,,,,,
14,1494450135451015224,384.0,1.49445013376e+18,odom,base_footprint,0.0,0.0,0.0,0.0,0.0,0.0,1.0,0.1,0.0,0.0,0.0,0.0,0.0,0.0,0.1,0.0,0.0,0.0,0.0,0.0,0.0,1.79769313486e+308,0.0,0.0,0.0,0.0,0.0,0.0,1.79769313486e+308,0.0,0.0,0.0,0.0,0.0,0.0,1.79769313486e+308,0.0,0.0,0.0,0.0,0.0,0.0,0.05,0.0,0.0,0.0,0.0,0.0,0.0,0.0,0.0,0.0,0.0,0.0,0.0,0.0,0.0,0.0,0.0,0.0,0.0,0.0,0.0,0.0,0.0,0.0,0.0,0.0,0.0,0.0,0.0,0.0,0.0,0.0,0.0,0.0,0.0,0.0,0.0,0.0,0.0,0.0,0.0,0.0,0.0,,,,,,
15,1494450135451024538,385.0,1.49445013378e+18,odom,base_footprint,0.0,0.0,0.0,0.0,0.0,0.0,1.0,0.1,0.0,0.0,0.0,0.0,0.0,0.0,0.1,0.0,0.0,0.0,0.0,0.0,0.0,1.79769313486e+308,0.0,0.0,0.0,0.0,0.0,0.0,1.79769313486e+308,0.0,0.0,0.0,0.0,0.0,0.0,1.79769313486e+308,0.0,0.0,0.0,0.0,0.0,0.0,0.05,0.0,0.0,0.0,0.0,0.0,0.0,0.0,0.0,0.0,0.0,0.0,0.0,0.0,0.0,0.0,0.0,0.0,0.0,0.0,0.0,0.0,0.0,0.0,0.0,0.0,0.0,0.0,0.0,0.0,0.0,0.0,0.0,0.0,0.0,0.0,0.0,0.0,0.0,0.0,0.0,0.0,0.0,,,,,,
16,1494450135451119516,386.0,1.4944501338e+18,odom,base_footprint,0.0,0.0,0.0,0.0,0.0,0.0,1.0,0.1,0.0,0.0,0.0,0.0,0.0,0.0,0.1,0.0,0.0,0.0,0.0,0.0,0.0,1.79769313486e+308,0.0,0.0,0.0,0.0,0.0,0.0,1.79769313486e+308,0.0,0.0,0.0,0.0,0.0,0.0,1.79769313486e+308,0.0,0.0,0.0,0.0,0.0,0.0,0.05,0.0,0.0,0.0,0.0,0.0,0.0,0.0,0.0,0.0,0.0,0.0,0.0,0.0,0.0,0.0,0.0,0.0,0.0,0.0,0.0,0.0,0.0,0.0,0.0,0.0,0.0,0.0,0.0,0.0,0.0,0.0,0.0,0.0,0.0,0.0,0.0,0.0,0.0,0.0,0.0,0.0,0.0,,,,,,
17,1494450135451139249,387.0,1.49445013382e+18,odom,base_footprint,0.0,0.0,0.0,0.0,0.0,0.0,1.0,0.1,0.0,0.0,0.0,0.0,0.0,0.0,0.1,0.0,0.0,0.0,0.0,0.0,0.0,1.79769313486e+308,0.0,0.0,0.0,0.0,0.0,0.0,1.79769313486e+308,0.0,0.0,0.0,0.0,0.0,0.0,1.79769313486e+308,0.0,0.0,0.0,0.0,0.0,0.0,0.05,0.0,0.0,0.0,0.0,0.0,0.0,0.0,0.0,0.0,0.0,0.0,0.0,0.0,0.0,0.0,0.0,0.0,0.0,0.0,0.0,0.0,0.0,0.0,0.0,0.0,0.0,0.0,0.0,0.0,0.0,0.0,0.0,0.0,0.0,0.0,0.0,0.0,0.0,0.0,0.0,0.0,0.0,,,,,,
18,1494450135451160088,388.0,1.49445013384e+18,odom,base_footprint,0.0,0.0,0.0,0.0,0.0,0.0,1.0,0.1,0.0,0.0,0.0,0.0,0.0,0.0,0.1,0.0,0.0,0.0,0.0,0.0,0.0,1.79769313486e+308,0.0,0.0,0.0,0.0,0.0,0.0,1.79769313486e+308,0.0,0.0,0.0,0.0,0.0,0.0,1.79769313486e+308,0.0,0.0,0.0,0.0,0.0,0.0,0.05,0.0,0.0,0.0,0.0,0.0,0.0,0.0,0.0,0.0,0.0,0.0,0.0,0.0,0.0,0.0,0.0,0.0,0.0,0.0,0.0,0.0,0.0,0.0,0.0,0.0,0.0,0.0,0.0,0.0,0.0,0.0,0.0,0.0,0.0,0.0,0.0,0.0,0.0,0.0,0.0,0.0,0.0,,,,,,
19,1494450135451173857,389.0,1.49445013386e+18,odom,base_footprint,0.0,0.0,0.0,0.0,0.0,0.0,1.0,0.1,0.0,0.0,0.0,0.0,0.0,0.0,0.1,0.0,0.0,0.0,0.0,0.0,0.0,1.79769313486e+308,0.0,0.0,0.0,0.0,0.0,0.0,1.79769313486e+308,0.0,0.0,0.0,0.0,0.0,0.0,1.79769313486e+308,0.0,0.0,0.0,0.0,0.0,0.0,0.05,0.0,0.0,0.0,0.0,0.0,0.0,0.0,0.0,0.0,0.0,0.0,0.0,0.0,0.0,0.0,0.0,0.0,0.0,0.0,0.0,0.0,0.0,0.0,0.0,0.0,0.0,0.0,0.0,0.0,0.0,0.0,0.0,0.0,0.0,0.0,0.0,0.0,0.0,0.0,0.0,0.0,0.0,,,,,,
20,1494450135451188351,390.0,1.49445013388e+18,odom,base_footprint,0.0,0.0,0.0,0.0,0.0,0.0,1.0,0.1,0.0,0.0,0.0,0.0,0.0,0.0,0.1,0.0,0.0,0.0,0.0,0.0,0.0,1.79769313486e+308,0.0,0.0,0.0,0.0,0.0,0.0,1.79769313486e+308,0.0,0.0,0.0,0.0,0.0,0.0,1.79769313486e+308,0.0,0.0,0.0,0.0,0.0,0.0,0.05,0.0,0.0,0.0,0.0,0.0,0.0,0.0,0.0,0.0,0.0,0.0,0.0,0.0,0.0,0.0,0.0,0.0,0.0,0.0,0.0,0.0,0.0,0.0,0.0,0.0,0.0,0.0,0.0,0.0,0.0,0.0,0.0,0.0,0.0,0.0,0.0,0.0,0.0,0.0,0.0,0.0,0.0,,,,,,
21,1494450135451194069,391.0,1.4944501339e+18,odom,base_footprint,0.0,0.0,0.0,0.0,0.0,0.0,1.0,0.1,0.0,0.0,0.0,0.0,0.0,0.0,0.1,0.0,0.0,0.0,0.0,0.0,0.0,1.79769313486e+308,0.0,0.0,0.0,0.0,0.0,0.0,1.79769313486e+308,0.0,0.0,0.0,0.0,0.0,0.0,1.79769313486e+308,0.0,0.0,0.0,0.0,0.0,0.0,0.05,0.0,0.0,0.0,0.0,0.0,0.0,0.0,0.0,0.0,0.0,0.0,0.0,0.0,0.0,0.0,0.0,0.0,0.0,0.0,0.0,0.0,0.0,0.0,0.0,0.0,0.0,0.0,0.0,0.0,0.0,0.0,0.0,0.0,0.0,0.0,0.0,0.0,0.0,0.0,0.0,0.0,0.0,,,,,,
22,1494450135451212124,392.0,1.49445013392e+18,odom,base_footprint,0.0,0.0,0.0,0.0,0.0,0.0,1.0,0.1,0.0,0.0,0.0,0.0,0.0,0.0,0.1,0.0,0.0,0.0,0.0,0.0,0.0,1.79769313486e+308,0.0,0.0,0.0,0.0,0.0,0.0,1.79769313486e+308,0.0,0.0,0.0,0.0,0.0,0.0,1.79769313486e+308,0.0,0.0,0.0,0.0,0.0,0.0,0.05,0.0,0.0,0.0,0.0,0.0,0.0,0.0,0.0,0.0,0.0,0.0,0.0,0.0,0.0,0.0,0.0,0.0,0.0,0.0,0.0,0.0,0.0,0.0,0.0,0.0,0.0,0.0,0.0,0.0,0.0,0.0,0.0,0.0,0.0,0.0,0.0,0.0,0.0,0.0,0.0,0.0,0.0,,,,,,
23,1494450135451219969,393.0,1.49445013394e+18,odom,base_footprint,0.0,0.0,0.0,0.0,0.0,0.0,1.0,0.1,0.0,0.0,0.0,0.0,0.0,0.0,0.1,0.0,0.0,0.0,0.0,0.0,0.0,1.79769313486e+308,0.0,0.0,0.0,0.0,0.0,0.0,1.79769313486e+308,0.0,0.0,0.0,0.0,0.0,0.0,1.79769313486e+308,0.0,0.0,0.0,0.0,0.0,0.0,0.05,0.0,0.0,0.0,0.0,0.0,0.0,0.0,0.0,0.0,0.0,0.0,0.0,0.0,0.0,0.0,0.0,0.0,0.0,0.0,0.0,0.0,0.0,0.0,0.0,0.0,0.0,0.0,0.0,0.0,0.0,0.0,0.0,0.0,0.0,0.0,0.0,0.0,0.0,0.0,0.0,0.0,0.0,,,,,,
24,1494450135451237603,394.0,1.49445013396e+18,odom,base_footprint,0.0,0.0,0.0,0.0,0.0,0.0,1.0,0.1,0.0,0.0,0.0,0.0,0.0,0.0,0.1,0.0,0.0,0.0,0.0,0.0,0.0,1.79769313486e+308,0.0,0.0,0.0,0.0,0.0,0.0,1.79769313486e+308,0.0,0.0,0.0,0.0,0.0,0.0,1.79769313486e+308,0.0,0.0,0.0,0.0,0.0,0.0,0.05,0.0,0.0,0.0,0.0,0.0,0.0,0.0,0.0,0.0,0.0,0.0,0.0,0.0,0.0,0.0,0.0,0.0,0.0,0.0,0.0,0.0,0.0,0.0,0.0,0.0,0.0,0.0,0.0,0.0,0.0,0.0,0.0,0.0,0.0,0.0,0.0,0.0,0.0,0.0,0.0,0.0,0.0,,,,,,
25,1494450135451244817,395.0,1.49445013398e+18,odom,base_footprint,0.0,0.0,0.0,0.0,0.0,0.0,1.0,0.1,0.0,0.0,0.0,0.0,0.0,0.0,0.1,0.0,0.0,0.0,0.0,0.0,0.0,1.79769313486e+308,0.0,0.0,0.0,0.0,0.0,0.0,1.79769313486e+308,0.0,0.0,0.0,0.0,0.0,0.0,1.79769313486e+308,0.0,0.0,0.0,0.0,0.0,0.0,0.05,0.0,0.0,0.0,0.0,0.0,0.0,0.0,0.0,0.0,0.0,0.0,0.0,0.0,0.0,0.0,0.0,0.0,0.0,0.0,0.0,0.0,0.0,0.0,0.0,0.0,0.0,0.0,0.0,0.0,0.0,0.0,0.0,0.0,0.0,0.0,0.0,0.0,0.0,0.0,0.0,0.0,0.0,,,,,,
26,1494450135451251875,396.0,1.494450134e+18,odom,base_footprint,0.0,0.0,0.0,0.0,0.0,0.0,1.0,0.1,0.0,0.0,0.0,0.0,0.0,0.0,0.1,0.0,0.0,0.0,0.0,0.0,0.0,1.79769313486e+308,0.0,0.0,0.0,0.0,0.0,0.0,1.79769313486e+308,0.0,0.0,0.0,0.0,0.0,0.0,1.79769313486e+308,0.0,0.0,0.0,0.0,0.0,0.0,0.05,0.0,0.0,0.0,0.0,0.0,0.0,0.0,0.0,0.0,0.0,0.0,0.0,0.0,0.0,0.0,0.0,0.0,0.0,0.0,0.0,0.0,0.0,0.0,0.0,0.0,0.0,0.0,0.0,0.0,0.0,0.0,0.0,0.0,0.0,0.0,0.0,0.0,0.0,0.0,0.0,0.0,0.0,,,,,,
27,1494450135451258401,397.0,1.49445013402e+18,odom,base_footprint,0.0,0.0,0.0,0.0,0.0,0.0,1.0,0.1,0.0,0.0,0.0,0.0,0.0,0.0,0.1,0.0,0.0,0.0,0.0,0.0,0.0,1.79769313486e+308,0.0,0.0,0.0,0.0,0.0,0.0,1.79769313486e+308,0.0,0.0,0.0,0.0,0.0,0.0,1.79769313486e+308,0.0,0.0,0.0,0.0,0.0,0.0,0.05,0.0,0.0,0.0,0.0,0.0,0.0,0.0,0.0,0.0,0.0,0.0,0.0,0.0,0.0,0.0,0.0,0.0,0.0,0.0,0.0,0.0,0.0,0.0,0.0,0.0,0.0,0.0,0.0,0.0,0.0,0.0,0.0,0.0,0.0,0.0,0.0,0.0,0.0,0.0,0.0,0.0,0.0,,,,,,
28,1494450135451485781,398.0,1.49445013404e+18,odom,base_footprint,0.0,0.0,0.0,0.0,0.0,0.0,1.0,0.1,0.0,0.0,0.0,0.0,0.0,0.0,0.1,0.0,0.0,0.0,0.0,0.0,0.0,1.79769313486e+308,0.0,0.0,0.0,0.0,0.0,0.0,1.79769313486e+308,0.0,0.0,0.0,0.0,0.0,0.0,1.79769313486e+308,0.0,0.0,0.0,0.0,0.0,0.0,0.05,0.0,0.0,0.0,0.0,0.0,0.0,0.0,0.0,0.0,0.0,0.0,0.0,0.0,0.0,0.0,0.0,0.0,0.0,0.0,0.0,0.0,0.0,0.0,0.0,0.0,0.0,0.0,0.0,0.0,0.0,0.0,0.0,0.0,0.0,0.0,0.0,0.0,0.0,0.0,0.0,0.0,0.0,,,,,,
29,1494450135452251206,399.0,1.49445013406e+18,odom,base_footprint,0.0,0.0,0.0,0.0,0.0,0.0,1.0,0.1,0.0,0.0,0.0,0.0,0.0,0.0,0.1,0.0,0.0,0.0,0.0,0.0,0.0,1.79769313486e+308,0.0,0.0,0.0,0.0,0.0,0.0,1.79769313486e+308,0.0,0.0,0.0,0.0,0.0,0.0,1.79769313486e+308,0.0,0.0,0.0,0.0,0.0,0.0,0.05,0.0,0.0,0.0,0.0,0.0,0.0,0.0,0.0,0.0,0.0,0.0,0.0,0.0,0.0,0.0,0.0,0.0,0.0,0.0,0.0,0.0,0.0,0.0,0.0,0.0,0.0,0.0,0.0,0.0,0.0,0.0,0.0,0.0,0.0,0.0,0.0,0.0,0.0,0.0,0.0,0.0,0.0,,,,,,
30,1494450135452268412,400.0,1.49445013408e+18,odom,base_footprint,0.0,0.0,0.0,0.0,0.0,0.0,1.0,0.1,0.0,0.0,0.0,0.0,0.0,0.0,0.1,0.0,0.0,0.0,0.0,0.0,0.0,1.79769313486e+308,0.0,0.0,0.0,0.0,0.0,0.0,1.79769313486e+308,0.0,0.0,0.0,0.0,0.0,0.0,1.79769313486e+308,0.0,0.0,0.0,0.0,0.0,0.0,0.05,0.0,0.0,0.0,0.0,0.0,-0.000174532925199,0.0,0.0,0.0,0.0,0.0,0.0,0.0,0.0,0.0,0.0,0.0,0.0,0.0,0.0,0.0,0.0,0.0,0.0,0.0,0.0,0.0,0.0,0.0,0.0,0.0,0.0,0.0,0.0,0.0,0.0,0.0,0.0,0.0,0.0,0.0,0.0,,,,,,
31,1494450135452277084,401.0,1.4944501341e+18,odom,base_footprint,0.0,0.0,0.0,0.0,0.0,0.0,1.0,0.1,0.0,0.0,0.0,0.0,0.0,0.0,0.1,0.0,0.0,0.0,0.0,0.0,0.0,1.79769313486e+308,0.0,0.0,0.0,0.0,0.0,0.0,1.79769313486e+308,0.0,0.0,0.0,0.0,0.0,0.0,1.79769313486e+308,0.0,0.0,0.0,0.0,0.0,0.0,0.05,0.0,0.0,0.0,0.0,0.0,0.0010471975512,0.0,0.0,0.0,0.0,0.0,0.0,0.0,0.0,0.0,0.0,0.0,0.0,0.0,0.0,0.0,0.0,0.0,0.0,0.0,0.0,0.0,0.0,0.0,0.0,0.0,0.0,0.0,0.0,0.0,0.0,0.0,0.0,0.0,0.0,0.0,0.0,,,,,,
32,1494450135452286660,402.0,1.49445013412e+18,odom,base_footprint,0.0,0.0,0.0,0.0,0.0,0.0,1.0,0.1,0.0,0.0,0.0,0.0,0.0,0.0,0.1,0.0,0.0,0.0,0.0,0.0,0.0,1.79769313486e+308,0.0,0.0,0.0,0.0,0.0,0.0,1.79769313486e+308,0.0,0.0,0.0,0.0,0.0,0.0,1.79769313486e+308,0.0,0.0,0.0,0.0,0.0,0.0,0.05,0.0,0.0,0.0,0.0,0.0,-0.000872664625997,0.0,0.0,0.0,0.0,0.0,0.0,0.0,0.0,0.0,0.0,0.0,0.0,0.0,0.0,0.0,0.0,0.0,0.0,0.0,0.0,0.0,0.0,0.0,0.0,0.0,0.0,0.0,0.0,0.0,0.0,0.0,0.0,0.0,0.0,0.0,0.0,,,,,,
33,1494450135452296485,403.0,1.49445013414e+18,odom,base_footprint,0.0,0.0,0.0,0.0,0.0,0.0,1.0,0.1,0.0,0.0,0.0,0.0,0.0,0.0,0.1,0.0,0.0,0.0,0.0,0.0,0.0,1.79769313486e+308,0.0,0.0,0.0,0.0,0.0,0.0,1.79769313486e+308,0.0,0.0,0.0,0.0,0.0,0.0,1.79769313486e+308,0.0,0.0,0.0,0.0,0.0,0.0,0.05,0.0,0.0,0.0,0.0,0.0,-0.000698131700798,0.0,0.0,0.0,0.0,0.0,0.0,0.0,0.0,0.0,0.0,0.0,0.0,0.0,0.0,0.0,0.0,0.0,0.0,0.0,0.0,0.0,0.0,0.0,0.0,0.0,0.0,0.0,0.0,0.0,0.0,0.0,0.0,0.0,0.0,0.0,0.0,,,,,,
34,1494450135452302618,404.0,1.49445013416e+18,odom,base_footprint,0.0,0.0,0.0,0.0,0.0,0.0,1.0,0.1,0.0,0.0,0.0,0.0,0.0,0.0,0.1,0.0,0.0,0.0,0.0,0.0,0.0,1.79769313486e+308,0.0,0.0,0.0,0.0,0.0,0.0,1.79769313486e+308,0.0,0.0,0.0,0.0,0.0,0.0,1.79769313486e+308,0.0,0.0,0.0,0.0,0.0,0.0,0.05,0.0,0.0,0.0,0.0,0.0,-0.0013962634016,0.0,0.0,0.0,0.0,0.0,0.0,0.0,0.0,0.0,0.0,0.0,0.0,0.0,0.0,0.0,0.0,0.0,0.0,0.0,0.0,0.0,0.0,0.0,0.0,0.0,0.0,0.0,0.0,0.0,0.0,0.0,0.0,0.0,0.0,0.0,0.0,,,,,,
35,1494450135452312495,405.0,1.49445013418e+18,odom,base_footprint,0.000341168353334,0.0,0.0,0.0,0.0,-8.72664624889e-05,0.999999996192,0.1,0.0,0.0,0.0,0.0,0.0,0.0,0.1,0.0,0.0,0.0,0.0,0.0,0.0,1.79769313486e+308,0.0,0.0,0.0,0.0,0.0,0.0,1.79769313486e+308,0.0,0.0,0.0,0.0,0.0,0.0,1.79769313486e+308,0.0,0.0,0.0,0.0,0.0,0.0,0.05,0.0170584176667,0.0,0.0,0.0,0.0,-0.0012217304764,0.0,0.0,0.0,0.0,0.0,0.0,0.0,0.0,0.0,0.0,0.0,0.0,0.0,0.0,0.0,0.0,0.0,0.0,0.0,0.0,0.0,0.0,0.0,0.0,0.0,0.0,0.0,0.0,0.0,0.0,0.0,0.0,0.0,0.0,0.0,0.0,,,,,,
36,1494450135452331012,406.0,1.4944501342e+18,odom,base_footprint,0.00115144318016,-1.41419637178e-07,0.0,0.0,0.0,-8.72664624889e-05,0.999999996192,0.1,0.0,0.0,0.0,0.0,0.0,0.0,0.1,0.0,0.0,0.0,0.0,0.0,0.0,1.79769313486e+308,0.0,0.0,0.0,0.0,0.0,0.0,1.79769313486e+308,0.0,0.0,0.0,0.0,0.0,0.0,1.79769313486e+308,0.0,0.0,0.0,0.0,0.0,0.0,0.05,0.0405137419584,0.0,0.0,0.0,0.0,-0.000698131700798,0.0,0.0,0.0,0.0,0.0,0.0,0.0,0.0,0.0,0.0,0.0,0.0,0.0,0.0,0.0,0.0,0.0,0.0,0.0,0.0,0.0,0.0,0.0,0.0,0.0,0.0,0.0,0.0,0.0,0.0,0.0,0.0,0.0,0.0,0.0,0.0,,,,,,
37,1494450135452338185,407.0,1.49445013422e+18,odom,base_footprint,0.00153525757182,-2.08407886367e-07,0.0,0.0,0.0,-8.72664624889e-05,0.999999996192,0.1,0.0,0.0,0.0,0.0,0.0,0.0,0.1,0.0,0.0,0.0,0.0,0.0,0.0,1.79769313486e+308,0.0,0.0,0.0,0.0,0.0,0.0,1.79769313486e+308,0.0,0.0,0.0,0.0,0.0,0.0,1.79769313486e+308,0.0,0.0,0.0,0.0,0.0,0.0,0.05,0.019190719875,0.0,0.0,0.0,0.0,-0.000698131700798,0.0,0.0,0.0,0.0,0.0,0.0,0.0,0.0,0.0,0.0,0.0,0.0,0.0,0.0,0.0,0.0,0.0,0.0,0.0,0.0,0.0,0.0,0.0,0.0,0.0,0.0,0.0,0.0,0.0,0.0,0.0,0.0,0.0,0.0,0.0,0.0,,,,,,
38,1494450135452352255,408.0,1.49445013424e+18,odom,base_footprint,0.00187642591995,-2.67952996758e-07,0.0,0.0,0.0,-8.72664624889e-05,0.999999996192,0.1,0.0,0.0,0.0,0.0,0.0,0.0,0.1,0.0,0.0,0.0,0.0,0.0,0.0,1.79769313486e+308,0.0,0.0,0.0,0.0,0.0,0.0,1.79769313486e+308,0.0,0.0,0.0,0.0,0.0,0.0,1.79769313486e+308,0.0,0.0,0.0,0.0,0.0,0.0,0.05,0.0170584176667,0.0,0.0,0.0,0.0,0.000174532925199,0.0,0.0,0.0,0.0,0.0,0.0,0.0,0.0,0.0,0.0,0.0,0.0,0.0,0.0,0.0,0.0,0.0,0.0,0.0,0.0,0.0,0.0,0.0,0.0,0.0,0.0,0.0,0.0,0.0,0.0,0.0,0.0,0.0,0.0,0.0,0.0,,,,,,
39,1494450135452361797,409.0,1.49445013426e+18,odom,base_footprint,0.00226024031161,-3.34941245947e-07,0.0,0.0,0.0,-8.72664624889e-05,0.999999996192,0.1,0.0,0.0,0.0,0.0,0.0,0.0,0.1,0.0,0.0,0.0,0.0,0.0,0.0,1.79769313486e+308,0.0,0.0,0.0,0.0,0.0,0.0,1.79769313486e+308,0.0,0.0,0.0,0.0,0.0,0.0,1.79769313486e+308,0.0,0.0,0.0,0.0,0.0,0.0,0.05,0.019190719875,0.0,0.0,0.0,0.0,-0.00226892802759,0.0,0.0,0.0,0.0,0.0,0.0,0.0,0.0,0.0,0.0,0.0,0.0,0.0,0.0,0.0,0.0,0.0,0.0,0.0,0.0,0.0,0.0,0.0,0.0,0.0,0.0,0.0,0.0,0.0,0.0,0.0,0.0,0.0,0.0,0.0,0.0,,,,,,
40,1494450135452373602,410.0,1.49445013428e+18,odom,base_footprint,0.00264405470326,-4.01929495136e-07,0.0,0.0,0.0,-0.000261799384809,0.999999965731,0.1,0.0,0.0,0.0,0.0,0.0,0.0,0.1,0.0,0.0,0.0,0.0,0.0,0.0,1.79769313486e+308,0.0,0.0,0.0,0.0,0.0,0.0,1.79769313486e+308,0.0,0.0,0.0,0.0,0.0,0.0,1.79769313486e+308,0.0,0.0,0.0,0.0,0.0,0.0,0.05,0.019190719875,0.0,0.0,0.0,0.0,-0.0211184839491,0.0,0.0,0.0,0.0,0.0,0.0,0.0,0.0,0.0,0.0,0.0,0.0,0.0,0.0,0.0,0.0,0.0,0.0,0.0,0.0,0.0,0.0,0.0,0.0,0.0,0.0,0.0,0.0,0.0,0.0,0.0,0.0,0.0,0.0,0.0,0.0,,,,,,
41,1494450135452389146,411.0,1.4944501343e+18,odom,base_footprint,0.00319845320144,-6.922118965e-07,0.0,0.0,0.0,-0.000436332299153,0.999999904807,0.1,0.0,0.0,0.0,0.0,0.0,0.0,0.1,0.0,0.0,0.0,0.0,0.0,0.0,1.79769313486e+308,0.0,0.0,0.0,0.0,0.0,0.0,1.79769313486e+308,0.0,0.0,0.0,0.0,0.0,0.0,1.79769313486e+308,0.0,0.0,0.0,0.0,0.0,0.0,0.05,0.0277199287084,0.0,0.0,0.0,0.0,-0.0232128790515,0.0,0.0,0.0,0.0,0.0,0.0,0.0,0.0,0.0,0.0,0.0,0.0,0.0,0.0,0.0,0.0,0.0,0.0,0.0,0.0,0.0,0.0,0.0,0.0,0.0,0.0,0.0,0.0,0.0,0.0,0.0,0.0,0.0,0.0,0.0,0.0,,,,,,
42,1494450135452398111,412.0,1.49445013432e+18,odom,base_footprint,0.00379549759243,-1.21323154893e-06,0.0,0.0,0.0,-0.000610865200207,0.999999813422,0.1,0.0,0.0,0.0,0.0,0.0,0.0,0.1,0.0,0.0,0.0,0.0,0.0,0.0,1.79769313486e+308,0.0,0.0,0.0,0.0,0.0,0.0,1.79769313486e+308,0.0,0.0,0.0,0.0,0.0,0.0,1.79769313486e+308,0.0,0.0,0.0,0.0,0.0,0.0,0.05,0.0298522309167,0.0,0.0,0.0,0.0,-0.0129154364648,0.0,0.0,0.0,0.0,0.0,0.0,0.0,0.0,0.0,0.0,0.0,0.0,0.0,0.0,0.0,0.0,0.0,0.0,0.0,0.0,0.0,0.0,0.0,0.0,0.0,0.0,0.0,0.0,0.0,0.0,0.0,0.0,0.0,0.0,0.0,0.0,,,,,,
43,1494450135452407787,413.0,1.49445013434e+18,odom,base_footprint,0.00426460372817,-1.78635309678e-06,0.0,0.0,0.0,-0.000698131644088,0.999999756306,0.1,0.0,0.0,0.0,0.0,0.0,0.0,0.1,0.0,0.0,0.0,0.0,0.0,0.0,1.79769313486e+308,0.0,0.0,0.0,0.0,0.0,0.0,1.79769313486e+308,0.0,0.0,0.0,0.0,0.0,0.0,1.79769313486e+308,0.0,0.0,0.0,0.0,0.0,0.0,0.05,0.0234553242917,0.0,0.0,0.0,0.0,-0.00610865238198,0.0,0.0,0.0,0.0,0.0,0.0,0.0,0.0,0.0,0.0,0.0,0.0,0.0,0.0,0.0,0.0,0.0,0.0,0.0,0.0,0.0,0.0,0.0,0.0,0.0,0.0,0.0,0.0,0.0,0.0,0.0,0.0,0.0,0.0,0.0,0.0,,,,,,
44,1494450135452417169,414.0,1.49445013436e+18,odom,base_footprint,0.00464841775154,-2.32225891888e-06,0.0,0.0,0.0,-0.000785398082652,0.999999691575,0.1,0.0,0.0,0.0,0.0,0.0,0.0,0.1,0.0,0.0,0.0,0.0,0.0,0.0,1.79769313486e+308,0.0,0.0,0.0,0.0,0.0,0.0,1.79769313486e+308,0.0,0.0,0.0,0.0,0.0,0.0,1.79769313486e+308,0.0,0.0,0.0,0.0,0.0,0.0,0.05,0.019190719875,0.0,0.0,0.0,0.0,-0.00471238898038,0.0,0.0,0.0,0.0,0.0,0.0,0.0,0.0,0.0,0.0,0.0,0.0,0.0,0.0,0.0,0.0,0.0,0.0,0.0,0.0,0.0,0.0,0.0,0.0,0.0,0.0,0.0,0.0,0.0,0.0,0.0,0.0,0.0,0.0,0.0,0.0,,,,,,
45,1494450135452430543,415.0,1.49445013438e+18,odom,base_footprint,0.00498958568397,-2.85816469474e-06,0.0,0.0,0.0,-0.000698131644088,0.999999756306,0.1,0.0,0.0,0.0,0.0,0.0,0.0,0.1,0.0,0.0,0.0,0.0,0.0,0.0,1.79769313486e+308,0.0,0.0,0.0,0.0,0.0,0.0,1.79769313486e+308,0.0,0.0,0.0,0.0,0.0,0.0,1.79769313486e+308,0.0,0.0,0.0,0.0,0.0,0.0,0.05,0.0170584176667,0.0,0.0,0.0,0.0,0.00453785605519,0.0,0.0,0.0,0.0,0.0,0.0,0.0,0.0,0.0,0.0,0.0,0.0,0.0,0.0,0.0,0.0,0.0,0.0,0.0,0.0,0.0,0.0,0.0,0.0,0.0,0.0,0.0,0.0,0.0,0.0,0.0,0.0,0.0,0.0,0.0,0.0,,,,,,
46,1494450135452437318,416.0,1.4944501344e+18,odom,base_footprint,0.00541604570993,-3.45361560819e-06,0.0,0.0,0.0,-0.000523598751674,0.999999862922,0.1,0.0,0.0,0.0,0.0,0.0,0.0,0.1,0.0,0.0,0.0,0.0,0.0,0.0,1.79769313486e+308,0.0,0.0,0.0,0.0,0.0,0.0,1.79769313486e+308,0.0,0.0,0.0,0.0,0.0,0.0,1.79769313486e+308,0.0,0.0,0.0,0.0,0.0,0.0,0.05,0.0213230220834,0.0,0.0,0.0,0.0,0.0153588974176,0.0,0.0,0.0,0.0,0.0,0.0,0.0,0.0,0.0,0.0,0.0,0.0,0.0,0.0,0.0,0.0,0.0,0.0,0.0,0.0,0.0,0.0,0.0,0.0,0.0,0.0,0.0,0.0,0.0,0.0,0.0,0.0,0.0,0.0,0.0,0.0,,,,,,
47,1494450135452447767,417.0,1.49445013442e+18,odom,base_footprint,0.00588515193855,-3.94486268162e-06,0.0,0.0,0.0,-0.000436332299153,0.999999904807,0.1,0.0,0.0,0.0,0.0,0.0,0.0,0.1,0.0,0.0,0.0,0.0,0.0,0.0,1.79769313486e+308,0.0,0.0,0.0,0.0,0.0,0.0,1.79769313486e+308,0.0,0.0,0.0,0.0,0.0,0.0,1.79769313486e+308,0.0,0.0,0.0,0.0,0.0,0.0,0.05,0.0234553242917,0.0,0.0,0.0,0.0,0.00610865238198,0.0,0.0,0.0,0.0,0.0,0.0,0.0,0.0,0.0,0.0,0.0,0.0,0.0,0.0,0.0,0.0,0.0,0.0,0.0,0.0,0.0,0.0,0.0,0.0,0.0,0.0,0.0,0.0,0.0,0.0,0.0,0.0,0.0,0.0,0.0,0.0,,,,,,
48,1494450135452462556,418.0,1.49445013444e+18,odom,base_footprint,0.00639690427369,-4.39145095513e-06,0.0,0.0,0.0,-0.000436332299153,0.999999904807,0.1,0.0,0.0,0.0,0.0,0.0,0.0,0.1,0.0,0.0,0.0,0.0,0.0,0.0,1.79769313486e+308,0.0,0.0,0.0,0.0,0.0,0.0,1.79769313486e+308,0.0,0.0,0.0,0.0,0.0,0.0,1.79769313486e+308,0.0,0.0,0.0,0.0,0.0,0.0,0.05,0.0255876265001,0.0,0.0,0.0,0.0,-0.00209439510239,0.0,0.0,0.0,0.0,0.0,0.0,0.0,0.0,0.0,0.0,0.0,0.0,0.0,0.0,0.0,0.0,0.0,0.0,0.0,0.0,0.0,0.0,0.0,0.0,0.0,0.0,0.0,0.0,0.0,0.0,0.0,0.0,0.0,0.0,0.0,0.0,,,,,,
49,1494450135452469559,419.0,1.49445013446e+18,odom,base_footprint,0.00682336455298,-4.76360784973e-06,0.0,0.0,0.0,-0.000436332299153,0.999999904807,0.1,0.0,0.0,0.0,0.0,0.0,0.0,0.1,0.0,0.0,0.0,0.0,0.0,0.0,1.79769313486e+308,0.0,0.0,0.0,0.0,0.0,0.0,1.79769313486e+308,0.0,0.0,0.0,0.0,0.0,0.0,1.79769313486e+308,0.0,0.0,0.0,0.0,0.0,0.0,0.05,0.0213230220834,0.0,0.0,0.0,0.0,0.00506145483078,0.0,0.0,0.0,0.0,0.0,0.0,0.0,0.0,0.0,0.0,0.0,0.0,0.0,0.0,0.0,0.0,0.0,0.0,0.0,0.0,0.0,0.0,0.0,0.0,0.0,0.0,0.0,0.0,0.0,0.0,0.0,0.0,0.0,0.0,0.0,0.0,,,,,,
50,1494450135452482772,420.0,1.49445013448e+18,odom,base_footprint,0.00712188674847,-5.02411767594e-06,0.0,0.0,0.0,-0.00034906584331,0.999999939077,0.1,0.0,0.0,0.0,0.0,0.0,0.0,0.1,0.0,0.0,0.0,0.0,0.0,0.0,1.79769313486e+308,0.0,0.0,0.0,0.0,0.0,0.0,1.79769313486e+308,0.0,0.0,0.0,0.0,0.0,0.0,1.79769313486e+308,0.0,0.0,0.0,0.0,0.0,0.0,0.05,0.0149261154584,0.0,0.0,0.0,0.0,0.00855211333477,0.0,0.0,0.0,0.0,0.0,0.0,0.0,0.0,0.0,0.0,0.0,0.0,0.0,0.0,0.0,0.0,0.0,0.0,0.0,0.0,0.0,0.0,0.0,0.0,0.0,0.0,0.0,0.0,0.0,0.0,0.0,0.0,0.0,0.0,0.0,0.0,,,,,,
51,1494450135452491812,421.0,1.4944501345e+18,odom,base_footprint,0.00754834708622,-5.32184320522e-06,0.0,0.0,0.0,-0.000261799384809,0.999999965731,0.1,0.0,0.0,0.0,0.0,0.0,0.0,0.1,0.0,0.0,0.0,0.0,0.0,0.0,1.79769313486e+308,0.0,0.0,0.0,0.0,0.0,0.0,1.79769313486e+308,0.0,0.0,0.0,0.0,0.0,0.0,1.79769313486e+308,0.0,0.0,0.0,0.0,0.0,0.0,0.05,0.0213230220834,0.0,0.0,0.0,0.0,0.00942477796077,0.0,0.0,0.0,0.0,0.0,0.0,0.0,0.0,0.0,0.0,0.0,0.0,0.0,0.0,0.0,0.0,0.0,0.0,0.0,0.0,0.0,0.0,0.0,0.0,0.0,0.0,0.0,0.0,0.0,0.0,0.0,0.0,0.0,0.0,0.0,0.0,,,,,,
52,1494450135452500982,422.0,1.49445013452e+18,odom,base_footprint,0.00810274558439,-5.61212560659e-06,0.0,0.0,0.0,-0.000174532924313,0.999999984769,0.1,0.0,0.0,0.0,0.0,0.0,0.0,0.1,0.0,0.0,0.0,0.0,0.0,0.0,1.79769313486e+308,0.0,0.0,0.0,0.0,0.0,0.0,1.79769313486e+308,0.0,0.0,0.0,0.0,0.0,0.0,1.79769313486e+308,0.0,0.0,0.0,0.0,0.0,0.0,0.05,0.0277199287084,0.0,0.0,0.0,0.0,0.00523598775598,0.0,0.0,0.0,0.0,0.0,0.0,0.0,0.0,0.0,0.0,0.0,0.0,0.0,0.0,0.0,0.0,0.0,0.0,0.0,0.0,0.0,0.0,0.0,0.0,0.0,0.0,0.0,0.0,0.0,0.0,0.0,0.0,0.0,0.0,0.0,0.0,,,,,,
53,1494450135452509699,423.0,1.49445013454e+18,odom,base_footprint,0.00861449808321,-5.79076093504e-06,0.0,0.0,0.0,-0.000174532924313,0.999999984769,0.1,0.0,0.0,0.0,0.0,0.0,0.0,0.1,0.0,0.0,0.0,0.0,0.0,0.0,1.79769313486e+308,0.0,0.0,0.0,0.0,0.0,0.0,1.79769313486e+308,0.0,0.0,0.0,0.0,0.0,0.0,1.79769313486e+308,0.0,0.0,0.0,0.0,0.0,0.0,0.05,0.0255876265001,0.0,0.0,0.0,0.0,-0.00261799387799,0.0,0.0,0.0,0.0,0.0,0.0,0.0,0.0,0.0,0.0,0.0,0.0,0.0,0.0,0.0,0.0,0.0,0.0,0.0,0.0,0.0,0.0,0.0,0.0,0.0,0.0,0.0,0.0,0.0,0.0,0.0,0.0,0.0,0.0,0.0,0.0,,,,,,
54,1494450135452516406,424.0,1.49445013456e+18,odom,base_footprint,0.0090409584989,-5.93962370875e-06,0.0,0.0,0.0,-0.000261799384809,0.999999965731,0.1,0.0,0.0,0.0,0.0,0.0,0.0,0.1,0.0,0.0,0.0,0.0,0.0,0.0,1.79769313486e+308,0.0,0.0,0.0,0.0,0.0,0.0,1.79769313486e+308,0.0,0.0,0.0,0.0,0.0,0.0,1.79769313486e+308,0.0,0.0,0.0,0.0,0.0,0.0,0.05,0.0213230220834,0.0,0.0,0.0,0.0,-0.00698131700798,0.0,0.0,0.0,0.0,0.0,0.0,0.0,0.0,0.0,0.0,0.0,0.0,0.0,0.0,0.0,0.0,0.0,0.0,0.0,0.0,0.0,0.0,0.0,0.0,0.0,0.0,0.0,0.0,0.0,0.0,0.0,0.0,0.0,0.0,0.0,0.0,,,,,,
55,1494450135452524386,425.0,1.49445013458e+18,odom,base_footprint,0.00942477284379,-6.14058844815e-06,0.0,0.0,0.0,-0.00034906584331,0.999999939077,0.1,0.0,0.0,0.0,0.0,0.0,0.0,0.1,0.0,0.0,0.0,0.0,0.0,0.0,1.79769313486e+308,0.0,0.0,0.0,0.0,0.0,0.0,1.79769313486e+308,0.0,0.0,0.0,0.0,0.0,0.0,1.79769313486e+308,0.0,0.0,0.0,0.0,0.0,0.0,0.05,0.019190719875,0.0,0.0,0.0,0.0,-0.00715584993318,0.0,0.0,0.0,0.0,0.0,0.0,0.0,0.0,0.0,0.0,0.0,0.0,0.0,0.0,0.0,0.0,0.0,0.0,0.0,0.0,0.0,0.0,0.0,0.0,0.0,0.0,0.0,0.0,0.0,0.0,0.0,0.0,0.0,0.0,0.0,0.0,,,,,,
56,1494450135452538764,426.0,1.4944501346e+18,odom,base_footprint,0.00980858714775,-6.4085414245e-06,0.0,0.0,0.0,-0.000436332299153,0.999999904807,0.1,0.0,0.0,0.0,0.0,0.0,0.0,0.1,0.0,0.0,0.0,0.0,0.0,0.0,1.79769313486e+308,0.0,0.0,0.0,0.0,0.0,0.0,1.79769313486e+308,0.0,0.0,0.0,0.0,0.0,0.0,1.79769313486e+308,0.0,0.0,0.0,0.0,0.0,0.0,0.05,0.019190719875,0.0,0.0,0.0,0.0,-0.00610865238198,0.0,0.0,0.0,0.0,0.0,0.0,0.0,0.0,0.0,0.0,0.0,0.0,0.0,0.0,0.0,0.0,0.0,0.0,0.0,0.0,0.0,0.0,0.0,0.0,0.0,0.0,0.0,0.0,0.0,0.0,0.0,0.0,0.0,0.0,0.0,0.0,,,,,,
57,1494450135452550236,427.0,1.49445013462e+18,odom,base_footprint,0.0103203394829,-6.85512969802e-06,0.0,0.0,0.0,-0.000523598751674,0.999999862922,0.1,0.0,0.0,0.0,0.0,0.0,0.0,0.1,0.0,0.0,0.0,0.0,0.0,0.0,1.79769313486e+308,0.0,0.0,0.0,0.0,0.0,0.0,1.79769313486e+308,0.0,0.0,0.0,0.0,0.0,0.0,1.79769313486e+308,0.0,0.0,0.0,0.0,0.0,0.0,0.05,0.0255876265001,0.0,0.0,0.0,0.0,-0.00977384381117,0.0,0.0,0.0,0.0,0.0,0.0,0.0,0.0,0.0,0.0,0.0,0.0,0.0,0.0,0.0,0.0,0.0,0.0,0.0,0.0,0.0,0.0,0.0,0.0,0.0,0.0,0.0,0.0,0.0,0.0,0.0,0.0,0.0,0.0,0.0,0.0,,,,,,
58,1494450135455388555,428.0,1.49445013464e+18,odom,base_footprint,0.0108320917323,-7.39103559631e-06,0.0,0.0,0.0,-0.000698131644088,0.999999756306,0.1,0.0,0.0,0.0,0.0,0.0,0.0,0.1,0.0,0.0,0.0,0.0,0.0,0.0,1.79769313486e+308,0.0,0.0,0.0,0.0,0.0,0.0,1.79769313486e+308,0.0,0.0,0.0,0.0,0.0,0.0,1.79769313486e+308,0.0,0.0,0.0,0.0,0.0,0.0,0.05,0.0255876265001,0.0,0.0,0.0,0.0,-0.0188495559215,0.0,0.0,0.0,0.0,0.0,0.0,0.0,0.0,0.0,0.0,0.0,0.0,0.0,0.0,0.0,0.0,0.0,0.0,0.0,0.0,0.0,0.0,0.0,0.0,0.0,0.0,0.0,0.0,0.0,0.0,0.0,0.0,0.0,0.0,0.0,0.0,,,,,,
59,1494450135455394888,429.0,1.49445013466e+18,odom,base_footprint,0.0113011977609,-8.0460316011e-06,0.0,0.0,0.0,-0.000872664515235,0.999999619228,0.1,0.0,0.0,0.0,0.0,0.0,0.0,0.1,0.0,0.0,0.0,0.0,0.0,0.0,1.79769313486e+308,0.0,0.0,0.0,0.0,0.0,0.0,1.79769313486e+308,0.0,0.0,0.0,0.0,0.0,0.0,1.79769313486e+308,0.0,0.0,0.0,0.0,0.0,0.0,0.05,0.0234553242917,0.0,0.0,0.0,0.0,-0.0188495559215,0.0,0.0,0.0,0.0,0.0,0.0,0.0,0.0,0.0,0.0,0.0,0.0,0.0,0.0,0.0,0.0,0.0,0.0,0.0,0.0,0.0,0.0,0.0,0.0,0.0,0.0,0.0,0.0,0.0,0.0,0.0,0.0,0.0,0.0,0.0,0.0,,,,,,
60,1494450135455401790,430.0,1.49445013468e+18,odom,base_footprint,0.011727657553,-8.79034510688e-06,0.0,0.0,0.0,-0.0010471973598,0.999999451689,0.1,0.0,0.0,0.0,0.0,0.0,0.0,0.1,0.0,0.0,0.0,0.0,0.0,0.0,1.79769313486e+308,0.0,0.0,0.0,0.0,0.0,0.0,1.79769313486e+308,0.0,0.0,0.0,0.0,0.0,0.0,1.79769313486e+308,0.0,0.0,0.0,0.0,0.0,0.0,0.05,0.0213230220834,0.0,0.0,0.0,0.0,-0.0162315620435,0.0,0.0,0.0,0.0,0.0,0.0,0.0,0.0,0.0,0.0,0.0,0.0,0.0,0.0,0.0,0.0,0.0,0.0,0.0,0.0,0.0,0.0,0.0,0.0,0.0,0.0,0.0,0.0,0.0,0.0,0.0,0.0,0.0,0.0,0.0,0.0,,,,,,
61,1494450135455431666,431.0,1.4944501347e+18,odom,base_footprint,0.0122820549112,-9.95147391651e-06,0.0,0.0,0.0,-0.00113446377045,0.999999356496,0.1,0.0,0.0,0.0,0.0,0.0,0.0,0.1,0.0,0.0,0.0,0.0,0.0,0.0,1.79769313486e+308,0.0,0.0,0.0,0.0,0.0,0.0,1.79769313486e+308,0.0,0.0,0.0,0.0,0.0,0.0,1.79769313486e+308,0.0,0.0,0.0,0.0,0.0,0.0,0.05,0.0277199287084,0.0,0.0,0.0,0.0,-0.0111701072128,0.0,0.0,0.0,0.0,0.0,0.0,0.0,0.0,0.0,0.0,0.0,0.0,0.0,0.0,0.0,0.0,0.0,0.0,0.0,0.0,0.0,0.0,0.0,0.0,0.0,0.0,0.0,0.0,0.0,0.0,0.0,0.0,0.0,0.0,0.0,0.0,,,,,,
62,1494450135455447367,432.0,1.49445013472e+18,odom,base_footprint,0.012793806124,-1.11126025788e-05,0.0,0.0,0.0,-0.00122173017247,0.999999253687,0.1,0.0,0.0,0.0,0.0,0.0,0.0,0.1,0.0,0.0,0.0,0.0,0.0,0.0,1.79769313486e+308,0.0,0.0,0.0,0.0,0.0,0.0,1.79769313486e+308,0.0,0.0,0.0,0.0,0.0,0.0,1.79769313486e+308,0.0,0.0,0.0,0.0,0.0,0.0,0.05,0.0255876265001,0.0,0.0,0.0,0.0,-0.00785398163397,0.0,0.0,0.0,0.0,0.0,0.0,0.0,0.0,0.0,0.0,0.0,0.0,0.0,0.0,0.0,0.0,0.0,0.0,0.0,0.0,0.0,0.0,0.0,0.0,0.0,0.0,0.0,0.0,0.0,0.0,0.0,0.0,0.0,0.0,0.0,0.0,,,,,,
63,1494450135455457268,433.0,1.49445013474e+18,odom,base_footprint,0.01339084896,-1.25714563391e-05,0.0,0.0,0.0,-0.00130899656517,0.999999143264,0.1,0.0,0.0,0.0,0.0,0.0,0.0,0.1,0.0,0.0,0.0,0.0,0.0,0.0,1.79769313486e+308,0.0,0.0,0.0,0.0,0.0,0.0,1.79769313486e+308,0.0,0.0,0.0,0.0,0.0,0.0,1.79769313486e+308,0.0,0.0,0.0,0.0,0.0,0.0,0.05,0.0298522309167,0.0,0.0,0.0,0.0,-0.00837758040957,0.0,0.0,0.0,0.0,0.0,0.0,0.0,0.0,0.0,0.0,0.0,0.0,0.0,0.0,0.0,0.0,0.0,0.0,0.0,0.0,0.0,0.0,0.0,0.0,0.0,0.0,0.0,0.0,0.0,0.0,0.0,0.0,0.0,0.0,0.0,0.0,,,,,,
64,1494450135455466459,434.0,1.49445013476e+18,odom,base_footprint,0.0139452456342,-1.40228667542e-05,0.0,0.0,0.0,-0.00148352932002,0.99999889957,0.1,0.0,0.0,0.0,0.0,0.0,0.0,0.1,0.0,0.0,0.0,0.0,0.0,0.0,1.79769313486e+308,0.0,0.0,0.0,0.0,0.0,0.0,1.79769313486e+308,0.0,0.0,0.0,0.0,0.0,0.0,1.79769313486e+308,0.0,0.0,0.0,0.0,0.0,0.0,0.05,0.0277199287084,0.0,0.0,0.0,0.0,-0.00942477796077,0.0,0.0,0.0,0.0,0.0,0.0,0.0,0.0,0.0,0.0,0.0,0.0,0.0,0.0,0.0,0.0,0.0,0.0,0.0,0.0,0.0,0.0,0.0,0.0,0.0,0.0,0.0,0.0,0.0,0.0,0.0,0.0,0.0,0.0,0.0,0.0,,,,,,
65,1494450135455476509,435.0,1.49445013478e+18,odom,base_footprint,0.0144569959117,-1.5541264849e-05,0.0,0.0,0.0,-0.00148352932002,0.99999889957,0.1,0.0,0.0,0.0,0.0,0.0,0.0,0.1,0.0,0.0,0.0,0.0,0.0,0.0,1.79769313486e+308,0.0,0.0,0.0,0.0,0.0,0.0,1.79769313486e+308,0.0,0.0,0.0,0.0,0.0,0.0,1.79769313486e+308,0.0,0.0,0.0,0.0,0.0,0.0,0.05,0.0255876265001,0.0,0.0,0.0,0.0,0.000872664625997,0.0,0.0,0.0,0.0,0.0,0.0,0.0,0.0,0.0,0.0,0.0,0.0,0.0,0.0,0.0,0.0,0.0,0.0,0.0,0.0,0.0,0.0,0.0,0.0,0.0,0.0,0.0,0.0,0.0,0.0,0.0,0.0,0.0,0.0,0.0,0.0,,,,,,
66,1494450135455482814,436.0,1.4944501348e+18,odom,base_footprint,0.0150113920455,-1.71861961184e-05,0.0,0.0,0.0,-0.00139626294791,0.999999025224,0.1,0.0,0.0,0.0,0.0,0.0,0.0,0.1,0.0,0.0,0.0,0.0,0.0,0.0,1.79769313486e+308,0.0,0.0,0.0,0.0,0.0,0.0,1.79769313486e+308,0.0,0.0,0.0,0.0,0.0,0.0,1.79769313486e+308,0.0,0.0,0.0,0.0,0.0,0.0,0.05,0.0277199287084,0.0,0.0,0.0,0.0,0.00959931088597,0.0,0.0,0.0,0.0,0.0,0.0,0.0,0.0,0.0,0.0,0.0,0.0,0.0,0.0,0.0,0.0,0.0,0.0,0.0,0.0,0.0,0.0,0.0,0.0,0.0,0.0,0.0,0.0,0.0,0.0,0.0,0.0,0.0,0.0,0.0,0.0,,,,,,
67,1494450135455490621,437.0,1.49445013482e+18,odom,base_footprint,0.0156084343359,-1.88534570509e-05,0.0,0.0,0.0,-0.00122173017247,0.999999253687,0.1,0.0,0.0,0.0,0.0,0.0,0.0,0.1,0.0,0.0,0.0,0.0,0.0,0.0,1.79769313486e+308,0.0,0.0,0.0,0.0,0.0,0.0,1.79769313486e+308,0.0,0.0,0.0,0.0,0.0,0.0,1.79769313486e+308,0.0,0.0,0.0,0.0,0.0,0.0,0.05,0.0298522309167,0.0,0.0,0.0,0.0,0.0143116998664,0.0,0.0,0.0,0.0,0.0,0.0,0.0,0.0,0.0,0.0,0.0,0.0,0.0,0.0,0.0,0.0,0.0,0.0,0.0,0.0,0.0,0.0,0.0,0.0,0.0,0.0,0.0,0.0,0.0,0.0,0.0,0.0,0.0,0.0,0.0,0.0,,,,,,
68,1494450135455497237,438.0,1.49445013484e+18,odom,base_footprint,0.0161628312551,-2.02081069711e-05,0.0,0.0,0.0,-0.00113446377045,0.999999356496,0.1,0.0,0.0,0.0,0.0,0.0,0.0,0.1,0.0,0.0,0.0,0.0,0.0,0.0,1.79769313486e+308,0.0,0.0,0.0,0.0,0.0,0.0,1.79769313486e+308,0.0,0.0,0.0,0.0,0.0,0.0,1.79769313486e+308,0.0,0.0,0.0,0.0,0.0,0.0,0.05,0.0277199287084,0.0,0.0,0.0,0.0,0.0158824961931,0.0,0.0,0.0,0.0,0.0,0.0,0.0,0.0,0.0,0.0,0.0,0.0,0.0,0.0,0.0,0.0,0.0,0.0,0.0,0.0,0.0,0.0,0.0,0.0,0.0,0.0,0.0,0.0,0.0,0.0,0.0,0.0,0.0,0.0,0.0,0.0,,,,,,
69,1494450135455503101,439.0,1.49445013486e+18,odom,base_footprint,0.0167172284022,-2.14659963553e-05,0.0,0.0,0.0,-0.000959930941173,0.999999539266,0.1,0.0,0.0,0.0,0.0,0.0,0.0,0.1,0.0,0.0,0.0,0.0,0.0,0.0,1.79769313486e+308,0.0,0.0,0.0,0.0,0.0,0.0,1.79769313486e+308,0.0,0.0,0.0,0.0,0.0,0.0,1.79769313486e+308,0.0,0.0,0.0,0.0,0.0,0.0,0.05,0.0277199287084,0.0,0.0,0.0,0.0,0.0204203522483,0.0,0.0,0.0,0.0,0.0,0.0,0.0,0.0,0.0,0.0,0.0,0.0,0.0,0.0,0.0,0.0,0.0,0.0,0.0,0.0,0.0,0.0,0.0,0.0,0.0,0.0,0.0,0.0,0.0,0.0,0.0,0.0,0.0,0.0,0.0,0.0,,,,,,
70,1494450135455509921,440.0,1.49445013488e+18,odom,base_footprint,0.0181245452661,-2.41678540932e-05,0.0,0.0,0.0,-0.000698131644088,0.999999756306,0.1,0.0,0.0,0.0,0.0,0.0,0.0,0.1,0.0,0.0,0.0,0.0,0.0,0.0,1.79769313486e+308,0.0,0.0,0.0,0.0,0.0,0.0,1.79769313486e+308,0.0,0.0,0.0,0.0,0.0,0.0,1.79769313486e+308,0.0,0.0,0.0,0.0,0.0,0.0,0.05,0.0703659728752,0.0,0.0,0.0,0.0,0.0181514242207,0.0,0.0,0.0,0.0,0.0,0.0,0.0,0.0,0.0,0.0,0.0,0.0,0.0,0.0,0.0,0.0,0.0,0.0,0.0,0.0,0.0,0.0,0.0,0.0,0.0,0.0,0.0,0.0,0.0,0.0,0.0,0.0,0.0,0.0,0.0,0.0,,,,,,
71,1494450135455516656,441.0,1.4944501349e+18,odom,base_footprint,0.0194465713466,-2.60137519249e-05,0.0,0.0,0.0,-0.000610865200207,0.999999813422,0.1,0.0,0.0,0.0,0.0,0.0,0.0,0.1,0.0,0.0,0.0,0.0,0.0,0.0,1.79769313486e+308,0.0,0.0,0.0,0.0,0.0,0.0,1.79769313486e+308,0.0,0.0,0.0,0.0,0.0,0.0,1.79769313486e+308,0.0,0.0,0.0,0.0,0.0,0.0,0.05,0.0661013684585,0.0,0.0,0.0,0.0,0.00558505360638,0.0,0.0,0.0,0.0,0.0,0.0,0.0,0.0,0.0,0.0,0.0,0.0,0.0,0.0,0.0,0.0,0.0,0.0,0.0,0.0,0.0,0.0,0.0,0.0,0.0,0.0,0.0,0.0,0.0,0.0,0.0,0.0,0.0,0.0,0.0,0.0,,,,,,
72,1494450135455528146,442.0,1.49445013492e+18,odom,base_footprint,0.0210671198155,-2.79936263629e-05,0.0,0.0,0.0,-0.000698131644088,0.999999756306,0.1,0.0,0.0,0.0,0.0,0.0,0.0,0.1,0.0,0.0,0.0,0.0,0.0,0.0,1.79769313486e+308,0.0,0.0,0.0,0.0,0.0,0.0,1.79769313486e+308,0.0,0.0,0.0,0.0,0.0,0.0,1.79769313486e+308,0.0,0.0,0.0,0.0,0.0,0.0,0.05,0.0810274839168,0.0,0.0,0.0,0.0,-0.00959931088597,0.0,0.0,0.0,0.0,0.0,0.0,0.0,0.0,0.0,0.0,0.0,0.0,0.0,0.0,0.0,0.0,0.0,0.0,0.0,0.0,0.0,0.0,0.0,0.0,0.0,0.0,0.0,0.0,0.0,0.0,0.0,0.0,0.0,0.0,0.0,0.0,,,,,,
73,1494450135455537541,443.0,1.49445013494e+18,odom,base_footprint,0.0224744379012,-2.99586143773e-05,0.0,0.0,0.0,-0.000785398082652,0.999999691575,0.1,0.0,0.0,0.0,0.0,0.0,0.0,0.1,0.0,0.0,0.0,0.0,0.0,0.0,1.79769313486e+308,0.0,0.0,0.0,0.0,0.0,0.0,1.79769313486e+308,0.0,0.0,0.0,0.0,0.0,0.0,1.79769313486e+308,0.0,0.0,0.0,0.0,0.0,0.0,0.05,0.0703659728752,0.0,0.0,0.0,0.0,-0.00872664625997,0.0,0.0,0.0,0.0,0.0,0.0,0.0,0.0,0.0,0.0,0.0,0.0,0.0,0.0,0.0,0.0,0.0,0.0,0.0,0.0,0.0,0.0,0.0,0.0,0.0,0.0,0.0,0.0,0.0,0.0,0.0,0.0,0.0,0.0,0.0,0.0,,,,,,
74,1494450135455544015,444.0,1.49445013496e+18,odom,base_footprint,0.0237111716563,-3.19012728147e-05,0.0,0.0,0.0,-0.00130899656517,0.999999143264,0.1,0.0,0.0,0.0,0.0,0.0,0.0,0.1,0.0,0.0,0.0,0.0,0.0,0.0,1.79769313486e+308,0.0,0.0,0.0,0.0,0.0,0.0,1.79769313486e+308,0.0,0.0,0.0,0.0,0.0,0.0,1.79769313486e+308,0.0,0.0,0.0,0.0,0.0,0.0,0.05,0.0618367640418,0.0,0.0,0.0,0.0,-0.0446804288511,0.0,0.0,0.0,0.0,0.0,0.0,0.0,0.0,0.0,0.0,0.0,0.0,0.0,0.0,0.0,0.0,0.0,0.0,0.0,0.0,0.0,0.0,0.0,0.0,0.0,0.0,0.0,0.0,0.0,0.0,0.0,0.0,0.0,0.0,0.0,0.0,,,,,,
75,1494450135455553049,445.0,1.49445013498e+18,odom,base_footprint,0.0248199650048,-3.48040936451e-05,0.0,0.0,0.0,-0.00165806202968,0.999998625414,0.1,0.0,0.0,0.0,0.0,0.0,0.0,0.1,0.0,0.0,0.0,0.0,0.0,0.0,1.79769313486e+308,0.0,0.0,0.0,0.0,0.0,0.0,1.79769313486e+308,0.0,0.0,0.0,0.0,0.0,0.0,1.79769313486e+308,0.0,0.0,0.0,0.0,0.0,0.0,0.05,0.0554398574168,0.0,0.0,0.0,0.0,-0.0387463093943,0.0,0.0,0.0,0.0,0.0,0.0,0.0,0.0,0.0,0.0,0.0,0.0,0.0,0.0,0.0,0.0,0.0,0.0,0.0,0.0,0.0,0.0,0.0,0.0,0.0,0.0,0.0,0.0,0.0,0.0,0.0,0.0,0.0,0.0,0.0,0.0,,,,,,
76,1494450135455565250,446.0,1.494450135e+18,odom,base_footprint,0.0259714018663,-3.86224168701e-05,0.0,0.0,0.0,-0.0019198609978,0.999998157065,0.1,0.0,0.0,0.0,0.0,0.0,0.0,0.1,0.0,0.0,0.0,0.0,0.0,0.0,1.79769313486e+308,0.0,0.0,0.0,0.0,0.0,0.0,1.79769313486e+308,0.0,0.0,0.0,0.0,0.0,0.0,1.79769313486e+308,0.0,0.0,0.0,0.0,0.0,0.0,0.05,0.0575721596251,0.0,0.0,0.0,0.0,-0.0198967534727,0.0,0.0,0.0,0.0,0.0,0.0,0.0,0.0,0.0,0.0,0.0,0.0,0.0,0.0,0.0,0.0,0.0,0.0,0.0,0.0,0.0,0.0,0.0,0.0,0.0,0.0,0.0,0.0,0.0,0.0,0.0,0.0,0.0,0.0,0.0,0.0,,,,,,
77,1494450135455576035,447.0,1.49445013502e+18,odom,base_footprint,0.0273360652196,-4.38623737352e-05,0.0,0.0,0.0,-0.0019198609978,0.999998157065,0.1,0.0,0.0,0.0,0.0,0.0,0.0,0.1,0.0,0.0,0.0,0.0,0.0,0.0,1.79769313486e+308,0.0,0.0,0.0,0.0,0.0,0.0,1.79769313486e+308,0.0,0.0,0.0,0.0,0.0,0.0,1.79769313486e+308,0.0,0.0,0.0,0.0,0.0,0.0,0.05,0.0682336706668,0.0,0.0,0.0,0.0,0.000698131700798,0.0,0.0,0.0,0.0,0.0,0.0,0.0,0.0,0.0,0.0,0.0,0.0,0.0,0.0,0.0,0.0,0.0,0.0,0.0,0.0,0.0,0.0,0.0,0.0,0.0,0.0,0.0,0.0,0.0,0.0,0.0,0.0,0.0,0.0,0.0,0.0,,,,,,
78,1494450135455583121,448.0,1.49445013504e+18,odom,base_footprint,0.0288713114921,-4.97573252084e-05,0.0,0.0,0.0,-0.00183259468883,0.999998320797,0.1,0.0,0.0,0.0,0.0,0.0,0.0,0.1,0.0,0.0,0.0,0.0,0.0,0.0,1.79769313486e+308,0.0,0.0,0.0,0.0,0.0,0.0,1.79769313486e+308,0.0,0.0,0.0,0.0,0.0,0.0,1.79769313486e+308,0.0,0.0,0.0,0.0,0.0,0.0,0.05,0.0767628795002,0.0,0.0,0.0,0.0,0.0190240888467,0.0,0.0,0.0,0.0,0.0,0.0,0.0,0.0,0.0,0.0,0.0,0.0,0.0,0.0,0.0,0.0,0.0,0.0,0.0,0.0,0.0,0.0,0.0,0.0,0.0,0.0,0.0,0.0,0.0,0.0,0.0,0.0,0.0,0.0,0.0,0.0,,,,,,
79,1494450135455591162,449.0,1.49445013506e+18,odom,base_footprint,0.0305344960432,-5.58532422672e-05,0.0,0.0,0.0,-0.00148352932002,0.99999889957,0.1,0.0,0.0,0.0,0.0,0.0,0.0,0.1,0.0,0.0,0.0,0.0,0.0,0.0,1.79769313486e+308,0.0,0.0,0.0,0.0,0.0,0.0,1.79769313486e+308,0.0,0.0,0.0,0.0,0.0,0.0,1.79769313486e+308,0.0,0.0,0.0,0.0,0.0,0.0,0.05,0.0831597861252,0.0,0.0,0.0,0.0,0.0410152374219,0.0,0.0,0.0,0.0,0.0,0.0,0.0,0.0,0.0,0.0,0.0,0.0,0.0,0.0,0.0,0.0,0.0,0.0,0.0,0.0,0.0,0.0,0.0,0.0,0.0,0.0,0.0,0.0,0.0,0.0,0.0,0.0,0.0,0.0,0.0,0.0,,,,,,
80,1494450135455604390,450.0,1.49445013508e+18,odom,base_footprint,0.0331358932868,-6.35717659158e-05,0.0,0.0,0.0,-0.00122173017247,0.999999253687,0.1,0.0,0.0,0.0,0.0,0.0,0.0,0.1,0.0,0.0,0.0,0.0,0.0,0.0,1.79769313486e+308,0.0,0.0,0.0,0.0,0.0,0.0,1.79769313486e+308,0.0,0.0,0.0,0.0,0.0,0.0,1.79769313486e+308,0.0,0.0,0.0,0.0,0.0,0.0,0.05,0.130070434709,0.0,0.0,0.0,0.0,0.0212930168743,0.0,0.0,0.0,0.0,0.0,0.0,0.0,0.0,0.0,0.0,0.0,0.0,0.0,0.0,0.0,0.0,0.0,0.0,0.0,0.0,0.0,0.0,0.0,0.0,0.0,0.0,0.0,0.0,0.0,0.0,0.0,0.0,0.0,0.0,0.0,0.0,,,,,,
81,1494450135455924066,451.0,1.4944501351e+18,odom,base_footprint,0.0352681891296,-6.87819579168e-05,0.0,0.0,0.0,-0.00122173017247,0.999999253687,0.1,0.0,0.0,0.0,0.0,0.0,0.0,0.1,0.0,0.0,0.0,0.0,0.0,0.0,1.79769313486e+308,0.0,0.0,0.0,0.0,0.0,0.0,1.79769313486e+308,0.0,0.0,0.0,0.0,0.0,0.0,1.79769313486e+308,0.0,0.0,0.0,0.0,0.0,0.0,0.05,0.106615110417,0.0,0.0,0.0,0.0,-0.0155334303427,0.0,0.0,0.0,0.0,0.0,0.0,0.0,0.0,0.0,0.0,0.0,0.0,0.0,0.0,0.0,0.0,0.0,0.0,0.0,0.0,0.0,0.0,0.0,0.0,0.0,0.0,0.0,0.0,0.0,0.0,0.0,0.0,0.0,0.0,0.0,0.0,,,,,,
82,1494450135455947623,452.0,1.49445013512e+18,odom,base_footprint,0.0376563604737,-7.4617372958e-05,0.0,0.0,0.0,-0.00157079568083,0.9999987663,0.1,0.0,0.0,0.0,0.0,0.0,0.0,0.1,0.0,0.0,0.0,0.0,0.0,0.0,1.79769313486e+308,0.0,0.0,0.0,0.0,0.0,0.0,1.79769313486e+308,0.0,0.0,0.0,0.0,0.0,0.0,1.79769313486e+308,0.0,0.0,0.0,0.0,0.0,0.0,0.05,0.119408923667,0.0,0.0,0.0,0.0,-0.0319395253115,0.0,0.0,0.0,0.0,0.0,0.0,0.0,0.0,0.0,0.0,0.0,0.0,0.0,0.0,0.0,0.0,0.0,0.0,0.0,0.0,0.0,0.0,0.0,0.0,0.0,0.0,0.0,0.0,0.0,0.0,0.0,0.0,0.0,0.0,0.0,0.0,,,,,,
83,1494450135455956081,453.0,1.49445013514e+18,odom,base_footprint,0.0399165896607,-8.17181157279e-05,0.0,0.0,0.0,-0.00165806202968,0.999998625414,0.1,0.0,0.0,0.0,0.0,0.0,0.0,0.1,0.0,0.0,0.0,0.0,0.0,0.0,1.79769313486e+308,0.0,0.0,0.0,0.0,0.0,0.0,1.79769313486e+308,0.0,0.0,0.0,0.0,0.0,0.0,1.79769313486e+308,0.0,0.0,0.0,0.0,0.0,0.0,0.05,0.113012017042,0.0,0.0,0.0,0.0,0.00261799387799,0.0,0.0,0.0,0.0,0.0,0.0,0.0,0.0,0.0,0.0,0.0,0.0,0.0,0.0,0.0,0.0,0.0,0.0,0.0,0.0,0.0,0.0,0.0,0.0,0.0,0.0,0.0,0.0,0.0,0.0,0.0,0.0,0.0,0.0,0.0,0.0,,,,,,
84,1494450135455960468,454.0,1.49445013516e+18,odom,base_footprint,0.0420915259546,-8.89305040418e-05,0.0,0.0,0.0,-0.00148352932002,0.99999889957,0.1,0.0,0.0,0.0,0.0,0.0,0.0,0.1,0.0,0.0,0.0,0.0,0.0,0.0,1.79769313486e+308,0.0,0.0,0.0,0.0,0.0,0.0,1.79769313486e+308,0.0,0.0,0.0,0.0,0.0,0.0,1.79769313486e+308,0.0,0.0,0.0,0.0,0.0,0.0,0.05,0.108747412625,0.0,0.0,0.0,0.0,0.0263544717051,0.0,0.0,0.0,0.0,0.0,0.0,0.0,0.0,0.0,0.0,0.0,0.0,0.0,0.0,0.0,0.0,0.0,0.0,0.0,0.0,0.0,0.0,0.0,0.0,0.0,0.0,0.0,0.0,0.0,0.0,0.0,0.0,0.0,0.0,0.0,0.0,,,,,,
85,1494450135455967910,455.0,1.49445013518e+18,odom,base_footprint,0.0440105894949,-9.46244968973e-05,0.0,0.0,0.0,-0.00113446377045,0.999999356496,0.1,0.0,0.0,0.0,0.0,0.0,0.0,0.1,0.0,0.0,0.0,0.0,0.0,0.0,1.79769313486e+308,0.0,0.0,0.0,0.0,0.0,0.0,1.79769313486e+308,0.0,0.0,0.0,0.0,0.0,0.0,1.79769313486e+308,0.0,0.0,0.0,0.0,0.0,0.0,0.05,0.0959535993752,0.0,0.0,0.0,0.0,0.0425860337487,0.0,0.0,0.0,0.0,0.0,0.0,0.0,0.0,0.0,0.0,0.0,0.0,0.0,0.0,0.0,0.0,0.0,0.0,0.0,0.0,0.0,0.0,0.0,0.0,0.0,0.0,0.0,0.0,0.0,0.0,0.0,0.0,0.0,0.0,0.0,0.0,,,,,,
86,1494450135455975380,456.0,1.4944501352e+18,odom,base_footprint,0.0460575943458,-9.92690115463e-05,0.0,0.0,0.0,-0.000785398082652,0.999999691575,0.1,0.0,0.0,0.0,0.0,0.0,0.0,0.1,0.0,0.0,0.0,0.0,0.0,0.0,1.79769313486e+308,0.0,0.0,0.0,0.0,0.0,0.0,1.79769313486e+308,0.0,0.0,0.0,0.0,0.0,0.0,1.79769313486e+308,0.0,0.0,0.0,0.0,0.0,0.0,0.05,0.102350506,0.0,0.0,0.0,0.0,0.0280998009571,0.0,0.0,0.0,0.0,0.0,0.0,0.0,0.0,0.0,0.0,0.0,0.0,0.0,0.0,0.0,0.0,0.0,0.0,0.0,0.0,0.0,0.0,0.0,0.0,0.0,0.0,0.0,0.0,0.0,0.0,0.0,0.0,0.0,0.0,0.0,0.0,,,,,,
87,1494450135455982530,457.0,1.49445013522e+18,odom,base_footprint,0.0483178318982,-0.000102819387311,0.0,0.0,0.0,-0.000610865200207,0.999999813422,0.1,0.0,0.0,0.0,0.0,0.0,0.0,0.1,0.0,0.0,0.0,0.0,0.0,0.0,1.79769313486e+308,0.0,0.0,0.0,0.0,0.0,0.0,1.79769313486e+308,0.0,0.0,0.0,0.0,0.0,0.0,1.79769313486e+308,0.0,0.0,0.0,0.0,0.0,0.0,0.05,0.113012017042,0.0,0.0,0.0,0.0,0.0127409035396,0.0,0.0,0.0,0.0,0.0,0.0,0.0,0.0,0.0,0.0,0.0,0.0,0.0,0.0,0.0,0.0,0.0,0.0,0.0,0.0,0.0,0.0,0.0,0.0,0.0,0.0,0.0,0.0,0.0,0.0,0.0,0.0,0.0,0.0,0.0,0.0,,,,,,
88,1494450135455987111,458.0,1.49445013524e+18,odom,base_footprint,0.0507060085892,-0.000105737097009,0.0,0.0,0.0,-0.000610865200207,0.999999813422,0.1,0.0,0.0,0.0,0.0,0.0,0.0,0.1,0.0,0.0,0.0,0.0,0.0,0.0,1.79769313486e+308,0.0,0.0,0.0,0.0,0.0,0.0,1.79769313486e+308,0.0,0.0,0.0,0.0,0.0,0.0,1.79769313486e+308,0.0,0.0,0.0,0.0,0.0,0.0,0.05,0.119408923667,0.0,0.0,0.0,0.0,-0.000698131700798,0.0,0.0,0.0,0.0,0.0,0.0,0.0,0.0,0.0,0.0,0.0,0.0,0.0,0.0,0.0,0.0,0.0,0.0,0.0,0.0,0.0,0.0,0.0,0.0,0.0,0.0,0.0,0.0,0.0,0.0,0.0,0.0,0.0,0.0,0.0,0.0,,,,,,
89,1494450135455993230,459.0,1.49445013526e+18,odom,base_footprint,0.0531368312926,-0.000108706908666,0.0,0.0,0.0,-0.000698131644088,0.999999756306,0.1,0.0,0.0,0.0,0.0,0.0,0.0,0.1,0.0,0.0,0.0,0.0,0.0,0.0,1.79769313486e+308,0.0,0.0,0.0,0.0,0.0,0.0,1.79769313486e+308,0.0,0.0,0.0,0.0,0.0,0.0,1.79769313486e+308,0.0,0.0,0.0,0.0,0.0,0.0,0.05,0.121541225875,0.0,0.0,0.0,0.0,-0.00907571211037,0.0,0.0,0.0,0.0,0.0,0.0,0.0,0.0,0.0,0.0,0.0,0.0,0.0,0.0,0.0,0.0,0.0,0.0,0.0,0.0,0.0,0.0,0.0,0.0,0.0,0.0,0.0,0.0,0.0,0.0,0.0,0.0,0.0,0.0,0.0,0.0,,,,,,
90,1494450135456184880,460.0,1.49445013528e+18,odom,base_footprint,0.0555676534406,-0.000112100978873,0.0,0.0,0.0,-0.000785398082652,0.999999691575,0.1,0.0,0.0,0.0,0.0,0.0,0.0,0.1,0.0,0.0,0.0,0.0,0.0,0.0,1.79769313486e+308,0.0,0.0,0.0,0.0,0.0,0.0,1.79769313486e+308,0.0,0.0,0.0,0.0,0.0,0.0,1.79769313486e+308,0.0,0.0,0.0,0.0,0.0,0.0,0.05,0.121541225875,0.0,0.0,0.0,0.0,-0.0150098315672,0.0,0.0,0.0,0.0,0.0,0.0,0.0,0.0,0.0,0.0,0.0,0.0,0.0,0.0,0.0,0.0,0.0,0.0,0.0,0.0,0.0,0.0,0.0,0.0,0.0,0.0,0.0,0.0,0.0,0.0,0.0,0.0,0.0,0.0,0.0,0.0,,,,,,
91,1494450135456198169,461.0,1.4944501353e+18,odom,base_footprint,0.0578278909929,-0.000115651354638,0.0,0.0,0.0,-0.000785398082652,0.999999691575,0.1,0.0,0.0,0.0,0.0,0.0,0.0,0.1,0.0,0.0,0.0,0.0,0.0,0.0,1.79769313486e+308,0.0,0.0,0.0,0.0,0.0,0.0,1.79769313486e+308,0.0,0.0,0.0,0.0,0.0,0.0,1.79769313486e+308,0.0,0.0,0.0,0.0,0.0,0.0,0.05,0.113012017042,0.0,0.0,0.0,0.0,0.00820304748437,0.0,0.0,0.0,0.0,0.0,0.0,0.0,0.0,0.0,0.0,0.0,0.0,0.0,0.0,0.0,0.0,0.0,0.0,0.0,0.0,0.0,0.0,0.0,0.0,0.0,0.0,0.0,0.0,0.0,0.0,0.0,0.0,0.0,0.0,0.0,0.0,,,,,,
92,1494450135456307094,462.0,1.49445013532e+18,odom,base_footprint,0.0600454825538,-0.000119134742181,0.0,0.0,0.0,-0.000610865200207,0.999999813422,0.1,0.0,0.0,0.0,0.0,0.0,0.0,0.1,0.0,0.0,0.0,0.0,0.0,0.0,1.79769313486e+308,0.0,0.0,0.0,0.0,0.0,0.0,1.79769313486e+308,0.0,0.0,0.0,0.0,0.0,0.0,1.79769313486e+308,0.0,0.0,0.0,0.0,0.0,0.0,0.05,0.110879714834,0.0,0.0,0.0,0.0,0.0232128790515,0.0,0.0,0.0,0.0,0.0,0.0,0.0,0.0,0.0,0.0,0.0,0.0,0.0,0.0,0.0,0.0,0.0,0.0,0.0,0.0,0.0,0.0,0.0,0.0,0.0,0.0,0.0,0.0,0.0,0.0,0.0,0.0,0.0,0.0,0.0,0.0,,,,,,
93,1494450135456313447,463.0,1.49445013534e+18,odom,base_footprint,0.0623057212078,-0.000121896146003,0.0,0.0,0.0,-0.000261799384809,0.999999965731,0.1,0.0,0.0,0.0,0.0,0.0,0.0,0.1,0.0,0.0,0.0,0.0,0.0,0.0,1.79769313486e+308,0.0,0.0,0.0,0.0,0.0,0.0,1.79769313486e+308,0.0,0.0,0.0,0.0,0.0,0.0,1.79769313486e+308,0.0,0.0,0.0,0.0,0.0,0.0,0.05,0.113012017042,0.0,0.0,0.0,0.0,0.0132645023152,0.0,0.0,0.0,0.0,0.0,0.0,0.0,0.0,0.0,0.0,0.0,0.0,0.0,0.0,0.0,0.0,0.0,0.0,0.0,0.0,0.0,0.0,0.0,0.0,0.0,0.0,0.0,0.0,0.0,0.0,0.0,0.0,0.0,0.0,0.0,0.0,,,,,,
94,1494450135456403448,464.0,1.49445013536e+18,odom,base_footprint,0.0646086072771,-0.000123101934439,0.0,0.0,0.0,-0.000261799384809,0.999999965731,0.1,0.0,0.0,0.0,0.0,0.0,0.0,0.1,0.0,0.0,0.0,0.0,0.0,0.0,1.79769313486e+308,0.0,0.0,0.0,0.0,0.0,0.0,1.79769313486e+308,0.0,0.0,0.0,0.0,0.0,0.0,1.79769313486e+308,0.0,0.0,0.0,0.0,0.0,0.0,0.05,0.11514431925,0.0,0.0,0.0,0.0,-0.0012217304764,0.0,0.0,0.0,0.0,0.0,0.0,0.0,0.0,0.0,0.0,0.0,0.0,0.0,0.0,0.0,0.0,0.0,0.0,0.0,0.0,0.0,0.0,0.0,0.0,0.0,0.0,0.0,0.0,0.0,0.0,0.0,0.0,0.0,0.0,0.0,0.0,,,,,,
95,1494450135456463588,465.0,1.49445013538e+18,odom,base_footprint,0.0670394314614,-0.000124374711122,0.0,0.0,0.0,-0.000174532924313,0.999999984769,0.1,0.0,0.0,0.0,0.0,0.0,0.0,0.1,0.0,0.0,0.0,0.0,0.0,0.0,1.79769313486e+308,0.0,0.0,0.0,0.0,0.0,0.0,1.79769313486e+308,0.0,0.0,0.0,0.0,0.0,0.0,1.79769313486e+308,0.0,0.0,0.0,0.0,0.0,0.0,0.05,0.121541225875,0.0,0.0,0.0,0.0,0.0249582083035,0.0,0.0,0.0,0.0,0.0,0.0,0.0,0.0,0.0,0.0,0.0,0.0,0.0,0.0,0.0,0.0,0.0,0.0,0.0,0.0,0.0,0.0,0.0,0.0,0.0,0.0,0.0,0.0,0.0,0.0,0.0,0.0,0.0,0.0,0.0,0.0,,,,,,
96,1494450135456533266,466.0,1.4944501354e+18,odom,base_footprint,0.0692996716645,-0.000125163683823,0.0,0.0,0.0,0.000174532924313,0.999999984769,0.1,0.0,0.0,0.0,0.0,0.0,0.0,0.1,0.0,0.0,0.0,0.0,0.0,0.0,1.79769313486e+308,0.0,0.0,0.0,0.0,0.0,0.0,1.79769313486e+308,0.0,0.0,0.0,0.0,0.0,0.0,1.79769313486e+308,0.0,0.0,0.0,0.0,0.0,0.0,0.05,0.113012017042,0.0,0.0,0.0,0.0,0.0345575191895,0.0,0.0,0.0,0.0,0.0,0.0,0.0,0.0,0.0,0.0,0.0,0.0,0.0,0.0,0.0,0.0,0.0,0.0,0.0,0.0,0.0,0.0,0.0,0.0,0.0,0.0,0.0,0.0,0.0,0.0,0.0,0.0,0.0,0.0,0.0,0.0,,,,,,
97,1494450135456576476,467.0,1.49445013542e+18,odom,base_footprint,0.0716025579092,-0.000124359824845,0.0,0.0,0.0,0.00034906584331,0.999999939077,0.1,0.0,0.0,0.0,0.0,0.0,0.0,0.1,0.0,0.0,0.0,0.0,0.0,0.0,1.79769313486e+308,0.0,0.0,0.0,0.0,0.0,0.0,1.79769313486e+308,0.0,0.0,0.0,0.0,0.0,0.0,1.79769313486e+308,0.0,0.0,0.0,0.0,0.0,0.0,0.05,0.11514431925,0.0,0.0,0.0,0.0,0.00680678408278,0.0,0.0,0.0,0.0,0.0,0.0,0.0,0.0,0.0,0.0,0.0,0.0,0.0,0.0,0.0,0.0,0.0,0.0,0.0,0.0,0.0,0.0,0.0,0.0,0.0,0.0,0.0,0.0,0.0,0.0,0.0,0.0,0.0,0.0,0.0,0.0,,,,,,
98,1494450135456648215,468.0,1.49445013544e+18,odom,base_footprint,0.0736922135642,-0.000122900969751,0.0,0.0,0.0,0.000174532924313,0.999999984769,0.1,0.0,0.0,0.0,0.0,0.0,0.0,0.1,0.0,0.0,0.0,0.0,0.0,0.0,1.79769313486e+308,0.0,0.0,0.0,0.0,0.0,0.0,1.79769313486e+308,0.0,0.0,0.0,0.0,0.0,0.0,1.79769313486e+308,0.0,0.0,0.0,0.0,0.0,0.0,0.05,0.104482808209,0.0,0.0,0.0,0.0,-0.0232128790515,0.0,0.0,0.0,0.0,0.0,0.0,0.0,0.0,0.0,0.0,0.0,0.0,0.0,0.0,0.0,0.0,0.0,0.0,0.0,0.0,0.0,0.0,0.0,0.0,0.0,0.0,0.0,0.0,0.0,0.0,0.0,0.0,0.0,0.0,0.0,0.0,,,,,,
99,1494450135456678441,469.0,1.49445013546e+18,odom,base_footprint,0.0758671616842,-0.000122141769605,0.0,0.0,0.0,-8.72664624889e-05,0.999999996192,0.1,0.0,0.0,0.0,0.0,0.0,0.0,0.1,0.0,0.0,0.0,0.0,0.0,0.0,1.79769313486e+308,0.0,0.0,0.0,0.0,0.0,0.0,1.79769313486e+308,0.0,0.0,0.0,0.0,0.0,0.0,1.79769313486e+308,0.0,0.0,0.0,0.0,0.0,0.0,0.05,0.108747412625,0.0,0.0,0.0,0.0,-0.0216420827247,0.0,0.0,0.0,0.0,0.0,0.0,0.0,0.0,0.0,0.0,0.0,0.0,0.0,0.0,0.0,0.0,0.0,0.0,0.0,0.0,0.0,0.0,0.0,0.0,0.0,0.0,0.0,0.0,0.0,0.0,0.0,0.0,0.0,0.0,0.0,0.0,,,,,,
100,1494450135459727629,470.0,1.49445013548e+18,odom,base_footprint,0.0780847559471,-0.000122528812823,0.0,0.0,0.0,-8.72664624889e-05,0.999999996192,0.1,0.0,0.0,0.0,0.0,0.0,0.0,0.1,0.0,0.0,0.0,0.0,0.0,0.0,1.79769313486e+308,0.0,0.0,0.0,0.0,0.0,0.0,1.79769313486e+308,0.0,0.0,0.0,0.0,0.0,0.0,1.79769313486e+308,0.0,0.0,0.0,0.0,0.0,0.0,0.05,0.110879714834,0.0,0.0,0.0,0.0,-0.00279252680319,0.0,0.0,0.0,0.0,0.0,0.0,0.0,0.0,0.0,0.0,0.0,0.0,0.0,0.0,0.0,0.0,0.0,0.0,0.0,0.0,0.0,0.0,0.0,0.0,0.0,0.0,0.0,0.0,0.0,0.0,0.0,0.0,0.0,0.0,0.0,0.0,,,,,,
101,1494450135459737632,471.0,1.4944501355e+18,odom,base_footprint,0.0804302883405,-0.000122938185457,0.0,0.0,0.0,-0.000174532924313,0.999999984769,0.1,0.0,0.0,0.0,0.0,0.0,0.0,0.1,0.0,0.0,0.0,0.0,0.0,0.0,1.79769313486e+308,0.0,0.0,0.0,0.0,0.0,0.0,1.79769313486e+308,0.0,0.0,0.0,0.0,0.0,0.0,1.79769313486e+308,0.0,0.0,0.0,0.0,0.0,0.0,0.05,0.117276621459,0.0,0.0,0.0,0.0,-0.00383972435439,0.0,0.0,0.0,0.0,0.0,0.0,0.0,0.0,0.0,0.0,0.0,0.0,0.0,0.0,0.0,0.0,0.0,0.0,0.0,0.0,0.0,0.0,0.0,0.0,0.0,0.0,0.0,0.0,0.0,0.0,0.0,0.0,0.0,0.0,0.0,0.0,,,,,,
102,1494450135499441983,472.0,1.49445013552e+18,odom,base_footprint,0.0826905285436,-0.000123727158157,0.0,0.0,0.0,-0.00034906584331,0.999999939077,0.1,0.0,0.0,0.0,0.0,0.0,0.0,0.1,0.0,0.0,0.0,0.0,0.0,0.0,1.79769313486e+308,0.0,0.0,0.0,0.0,0.0,0.0,1.79769313486e+308,0.0,0.0,0.0,0.0,0.0,0.0,1.79769313486e+308,0.0,0.0,0.0,0.0,0.0,0.0,0.05,0.113012017042,0.0,0.0,0.0,0.0,-0.0127409035396,0.0,0.0,0.0,0.0,0.0,0.0,0.0,0.0,0.0,0.0,0.0,0.0,0.0,0.0,0.0,0.0,0.0,0.0,0.0,0.0,0.0,0.0,0.0,0.0,0.0,0.0,0.0,0.0,0.0,0.0,0.0,0.0,0.0,0.0,0.0,0.0,,,,,,
103,1494450135499468835,473.0,1.49445013554e+18,odom,base_footprint,0.0848654762661,-0.000125245558357,0.0,0.0,0.0,-0.00034906584331,0.999999939077,0.1,0.0,0.0,0.0,0.0,0.0,0.0,0.1,0.0,0.0,0.0,0.0,0.0,0.0,1.79769313486e+308,0.0,0.0,0.0,0.0,0.0,0.0,1.79769313486e+308,0.0,0.0,0.0,0.0,0.0,0.0,1.79769313486e+308,0.0,0.0,0.0,0.0,0.0,0.0,0.05,0.108747412625,0.0,0.0,0.0,0.0,-0.00226892802759,0.0,0.0,0.0,0.0,0.0,0.0,0.0,0.0,0.0,0.0,0.0,0.0,0.0,0.0,0.0,0.0,0.0,0.0,0.0,0.0,0.0,0.0,0.0,0.0,0.0,0.0,0.0,0.0,0.0,0.0,0.0,0.0,0.0,0.0,0.0,0.0,,,,,,
104,1494450135538894409,474.0,1.49445013556e+18,odom,base_footprint,0.0871683620899,-0.000126853276215,0.0,0.0,0.0,-0.000261799384809,0.999999965731,0.1,0.0,0.0,0.0,0.0,0.0,0.0,0.1,0.0,0.0,0.0,0.0,0.0,0.0,1.79769313486e+308,0.0,0.0,0.0,0.0,0.0,0.0,1.79769313486e+308,0.0,0.0,0.0,0.0,0.0,0.0,1.79769313486e+308,0.0,0.0,0.0,0.0,0.0,0.0,0.05,0.11514431925,0.0,0.0,0.0,0.0,0.0158824961931,0.0,0.0,0.0,0.0,0.0,0.0,0.0,0.0,0.0,0.0,0.0,0.0,0.0,0.0,0.0,0.0,0.0,0.0,0.0,0.0,0.0,0.0,0.0,0.0,0.0,0.0,0.0,0.0,0.0,0.0,0.0,0.0,0.0,0.0,0.0,0.0,,,,,,
105,1494450135538921724,475.0,1.49445013558e+18,odom,base_footprint,0.0894712481593,-0.000128059064651,0.0,0.0,0.0,-8.72664624889e-05,0.999999996192,0.1,0.0,0.0,0.0,0.0,0.0,0.0,0.1,0.0,0.0,0.0,0.0,0.0,0.0,1.79769313486e+308,0.0,0.0,0.0,0.0,0.0,0.0,1.79769313486e+308,0.0,0.0,0.0,0.0,0.0,0.0,1.79769313486e+308,0.0,0.0,0.0,0.0,0.0,0.0,0.05,0.11514431925,0.0,0.0,0.0,0.0,0.0162315620435,0.0,0.0,0.0,0.0,0.0,0.0,0.0,0.0,0.0,0.0,0.0,0.0,0.0,0.0,0.0,0.0,0.0,0.0,0.0,0.0,0.0,0.0,0.0,0.0,0.0,0.0,0.0,0.0,0.0,0.0,0.0,0.0,0.0,0.0,0.0,0.0,,,,,,
106,1494450135597020515,476.0,1.4944501356e+18,odom,base_footprint,0.0918167805527,-0.000128468437285,0.0,0.0,0.0,-8.72664624889e-05,0.999999996192,0.1,0.0,0.0,0.0,0.0,0.0,0.0,0.1,0.0,0.0,0.0,0.0,0.0,0.0,1.79769313486e+308,0.0,0.0,0.0,0.0,0.0,0.0,1.79769313486e+308,0.0,0.0,0.0,0.0,0.0,0.0,1.79769313486e+308,0.0,0.0,0.0,0.0,0.0,0.0,0.05,0.117276621459,0.0,0.0,0.0,0.0,-0.00733038285838,0.0,0.0,0.0,0.0,0.0,0.0,0.0,0.0,0.0,0.0,0.0,0.0,0.0,0.0,0.0,0.0,0.0,0.0,0.0,0.0,0.0,0.0,0.0,0.0,0.0,0.0,0.0,0.0,0.0,0.0,0.0,0.0,0.0,0.0,0.0,0.0,,,,,,
107,1494450135597027292,477.0,1.49445013562e+18,odom,base_footprint,0.0941196669026,-0.00012887036678,0.0,0.0,0.0,-0.000261799384809,0.999999965731,0.1,0.0,0.0,0.0,0.0,0.0,0.0,0.1,0.0,0.0,0.0,0.0,0.0,0.0,1.79769313486e+308,0.0,0.0,0.0,0.0,0.0,0.0,1.79769313486e+308,0.0,0.0,0.0,0.0,0.0,0.0,1.79769313486e+308,0.0,0.0,0.0,0.0,0.0,0.0,0.05,0.11514431925,0.0,0.0,0.0,0.0,-0.0191986217719,0.0,0.0,0.0,0.0,0.0,0.0,0.0,0.0,0.0,0.0,0.0,0.0,0.0,0.0,0.0,0.0,0.0,0.0,0.0,0.0,0.0,0.0,0.0,0.0,0.0,0.0,0.0,0.0,0.0,0.0,0.0,0.0,0.0,0.0,0.0,0.0,,,,,,
108,1494450135622042062,478.0,1.49445013564e+18,odom,base_footprint,0.096422552972,-0.000130076155217,0.0,0.0,0.0,-0.00034906584331,0.999999939077,0.1,0.0,0.0,0.0,0.0,0.0,0.0,0.1,0.0,0.0,0.0,0.0,0.0,0.0,1.79769313486e+308,0.0,0.0,0.0,0.0,0.0,0.0,1.79769313486e+308,0.0,0.0,0.0,0.0,0.0,0.0,1.79769313486e+308,0.0,0.0,0.0,0.0,0.0,0.0,0.05,0.11514431925,0.0,0.0,0.0,0.0,-0.00314159265359,0.0,0.0,0.0,0.0,0.0,0.0,0.0,0.0,0.0,0.0,0.0,0.0,0.0,0.0,0.0,0.0,0.0,0.0,0.0,0.0,0.0,0.0,0.0,0.0,0.0,0.0,0.0,0.0,0.0,0.0,0.0,0.0,0.0,0.0,0.0,0.0,,,,,,
109,1494450135622061279,479.0,1.49445013566e+18,odom,base_footprint,0.0987680848295,-0.000131713645628,0.0,0.0,0.0,-0.000261799384809,0.999999965731,0.1,0.0,0.0,0.0,0.0,0.0,0.0,0.1,0.0,0.0,0.0,0.0,0.0,0.0,1.79769313486e+308,0.0,0.0,0.0,0.0,0.0,0.0,1.79769313486e+308,0.0,0.0,0.0,0.0,0.0,0.0,1.79769313486e+308,0.0,0.0,0.0,0.0,0.0,0.0,0.05,0.117276621459,0.0,0.0,0.0,0.0,0.0111701072128,0.0,0.0,0.0,0.0,0.0,0.0,0.0,0.0,0.0,0.0,0.0,0.0,0.0,0.0,0.0,0.0,0.0,0.0,0.0,0.0,0.0,0.0,0.0,0.0,0.0,0.0,0.0,0.0,0.0,0.0,0.0,0.0,0.0,0.0,0.0,0.0,,,,,,
110,1494450135624795293,480.0,1.49445013568e+18,odom,base_footprint,0.102137121857,-0.000133477669451,0.0,0.0,0.0,-0.000261799384809,0.999999965731,0.1,0.0,0.0,0.0,0.0,0.0,0.0,0.1,0.0,0.0,0.0,0.0,0.0,0.0,1.79769313486e+308,0.0,0.0,0.0,0.0,0.0,0.0,1.79769313486e+308,0.0,0.0,0.0,0.0,0.0,0.0,1.79769313486e+308,0.0,0.0,0.0,0.0,0.0,0.0,0.05,0.168451874459,0.0,0.0,0.0,0.0,-0.00645771823238,0.0,0.0,0.0,0.0,0.0,0.0,0.0,0.0,0.0,0.0,0.0,0.0,0.0,0.0,0.0,0.0,0.0,0.0,0.0,0.0,0.0,0.0,0.0,0.0,0.0,0.0,0.0,0.0,0.0,0.0,0.0,0.0,0.0,0.0,0.0,0.0,,,,,,
111,1494450135641946584,481.0,1.4944501357e+18,odom,base_footprint,0.105335574731,-0.000135152375613,0.0,0.0,0.0,-0.00034906584331,0.999999939077,0.1,0.0,0.0,0.0,0.0,0.0,0.0,0.1,0.0,0.0,0.0,0.0,0.0,0.0,1.79769313486e+308,0.0,0.0,0.0,0.0,0.0,0.0,1.79769313486e+308,0.0,0.0,0.0,0.0,0.0,0.0,1.79769313486e+308,0.0,0.0,0.0,0.0,0.0,0.0,0.05,0.159922665625,0.0,0.0,0.0,0.0,-0.00872664625997,0.0,0.0,0.0,0.0,0.0,0.0,0.0,0.0,0.0,0.0,0.0,0.0,0.0,0.0,0.0,0.0,0.0,0.0,0.0,0.0,0.0,0.0,0.0,0.0,0.0,0.0,0.0,0.0,0.0,0.0,0.0,0.0,0.0,0.0,0.0,0.0,,,,,,
